Time,header.seq,header.stamp.secs,header.stamp.nsecs,header.frame_id,status.status,status.service,latitude,longitude,altitude,position_covariance_0,position_covariance_1,position_covariance_2,position_covariance_3,position_covariance_4,position_covariance_5,position_covariance_6,position_covariance_7,position_covariance_8,position_covariance_type
1737286264.2993143,20725,1737286254,247182976,base_link,0,1,33.637108,72.9912747,501.68601723566394,0.45158400000000004,0.0,0.0,0.0,0.45158400000000004,0.0,0.0,0.0,1.024144,2
1737286264.299508,20726,1737286254,247184768,base_link,0,1,33.637108,72.9912747,501.68601723566394,0.45158400000000004,0.0,0.0,0.0,0.45158400000000004,0.0,0.0,0.0,1.024144,2
1737286264.2996116,20727,1737286254,447187840,base_link,0,1,33.6371081,72.9912747,501.6860178486107,0.4529290000000001,0.0,0.0,0.0,0.4529290000000001,0.0,0.0,0.0,1.024144,2
1737286264.2997591,20728,1737286254,447189888,base_link,0,1,33.6371081,72.9912747,501.6860178486107,0.4529290000000001,0.0,0.0,0.0,0.4529290000000001,0.0,0.0,0.0,1.024144,2
1737286264.3006766,20729,1737286254,647191680,base_link,0,1,33.6371081,72.9912748,501.71601824578653,0.4529290000000001,0.0,0.0,0.0,0.4529290000000001,0.0,0.0,0.0,1.024144,2
1737286264.3007944,20730,1737286254,647193728,base_link,0,1,33.6371081,72.9912748,501.71601824578653,0.4529290000000001,0.0,0.0,0.0,0.4529290000000001,0.0,0.0,0.0,1.024144,2
1737286264.300866,20731,1737286254,847197056,base_link,0,1,33.6371082,72.9912749,501.75601925590917,0.45427600000000007,0.0,0.0,0.0,0.45427600000000007,0.0,0.0,0.0,1.0221209999999998,2
1737286264.300911,20732,1737286254,847198848,base_link,0,1,33.6371082,72.9912749,501.75601925590917,0.45427600000000007,0.0,0.0,0.0,0.45427600000000007,0.0,0.0,0.0,1.0221209999999998,2
1737286264.3009782,20733,1737286255,47197312,base_link,0,1,33.6371084,72.9912748,501.7760200846274,0.45427600000000007,0.0,0.0,0.0,0.45427600000000007,0.0,0.0,0.0,1.0221209999999998,2
1737286264.3010538,20734,1737286255,47199360,base_link,0,1,33.6371084,72.9912748,501.7760200846274,0.45427600000000007,0.0,0.0,0.0,0.45427600000000007,0.0,0.0,0.0,1.0221209999999998,2
1737286264.3011594,20735,1737286255,247202432,base_link,0,1,33.6371087,72.9912747,501.7960215262931,0.45427600000000007,0.0,0.0,0.0,0.45427600000000007,0.0,0.0,0.0,1.0221209999999998,2
1737286264.3011982,20736,1737286255,247204480,base_link,0,1,33.6371087,72.9912747,501.7960215262931,0.45427600000000007,0.0,0.0,0.0,0.45427600000000007,0.0,0.0,0.0,1.0221209999999998,2
1737286264.301281,20737,1737286255,447206272,base_link,0,1,33.6371091,72.9912747,501.8260239780831,0.45427600000000007,0.0,0.0,0.0,0.45427600000000007,0.0,0.0,0.0,1.0201,2
1737286264.3013716,20738,1737286255,447208576,base_link,0,1,33.6371091,72.9912747,501.8260239780831,0.45427600000000007,0.0,0.0,0.0,0.45427600000000007,0.0,0.0,0.0,1.0201,2
1737286264.301456,20739,1737286255,647210624,base_link,0,1,33.6371095,72.9912746,501.84602603269826,0.45427600000000007,0.0,0.0,0.0,0.45427600000000007,0.0,0.0,0.0,1.0201,2
1737286264.301515,20740,1737286255,647212672,base_link,0,1,33.6371095,72.9912746,501.84602603269826,0.45427600000000007,0.0,0.0,0.0,0.45427600000000007,0.0,0.0,0.0,1.0201,2
1737286264.3021896,20741,1737286255,847216000,base_link,0,1,33.6371101,72.9912745,501.8560293132113,0.45562500000000006,0.0,0.0,0.0,0.45562500000000006,0.0,0.0,0.0,1.0201,2
1737286264.3044314,20742,1737286255,847218304,base_link,0,1,33.6371101,72.9912745,501.8560293132113,0.45562500000000006,0.0,0.0,0.0,0.45562500000000006,0.0,0.0,0.0,1.0201,2
1737286264.304771,20743,1737286256,47221888,base_link,0,1,33.637111,72.9912744,501.8660344325742,0.45562500000000006,0.0,0.0,0.0,0.45562500000000006,0.0,0.0,0.0,1.0201,2
1737286264.304927,20744,1737286256,47223936,base_link,0,1,33.637111,72.9912744,501.8660344325742,0.45562500000000006,0.0,0.0,0.0,0.45562500000000006,0.0,0.0,0.0,1.0201,2
1737286264.3052235,20745,1737286256,247225984,base_link,0,1,33.637112,72.9912743,501.8560401648939,0.45562500000000006,0.0,0.0,0.0,0.45562500000000006,0.0,0.0,0.0,1.0221209999999998,2
1737286264.3054304,20746,1737286256,247228288,base_link,0,1,33.637112,72.9912743,501.8560401648939,0.45562500000000006,0.0,0.0,0.0,0.45562500000000006,0.0,0.0,0.0,1.0221209999999998,2
1737286264.3057137,20747,1737286256,447231872,base_link,0,1,33.6371131,72.9912743,501.8660469073503,0.45562500000000006,0.0,0.0,0.0,0.45562500000000006,0.0,0.0,0.0,1.0221209999999998,2
1737286264.305982,20748,1737286256,447234176,base_link,0,1,33.6371131,72.9912743,501.8660469073503,0.45562500000000006,0.0,0.0,0.0,0.45562500000000006,0.0,0.0,0.0,1.0221209999999998,2
1737286264.3063364,20749,1737286256,647236480,base_link,0,1,33.6371142,72.9912743,501.86605364981745,0.45697600000000005,0.0,0.0,0.0,0.45697600000000005,0.0,0.0,0.0,1.0221209999999998,2
1737286264.3067145,20750,1737286256,647238784,base_link,0,1,33.6371142,72.9912743,501.86605364981745,0.45697600000000005,0.0,0.0,0.0,0.45697600000000005,0.0,0.0,0.0,1.0221209999999998,2
1737286264.30688,20751,1737286256,847240832,base_link,0,1,33.6371154,72.9912744,501.85606140242726,0.45697600000000005,0.0,0.0,0.0,0.45697600000000005,0.0,0.0,0.0,1.0221209999999998,2
1737286264.3072705,20752,1737286256,847243136,base_link,0,1,33.6371154,72.9912744,501.85606140242726,0.45697600000000005,0.0,0.0,0.0,0.45697600000000005,0.0,0.0,0.0,1.0221209999999998,2
1737286264.3076806,20753,1737286257,47245952,base_link,0,1,33.6371165,72.9912744,501.8260681449174,0.45832900000000004,0.0,0.0,0.0,0.45832900000000004,0.0,0.0,0.0,1.0201,2
1737286264.3083146,20754,1737286257,47248256,base_link,0,1,33.6371165,72.9912744,501.8260681449174,0.45832900000000004,0.0,0.0,0.0,0.45832900000000004,0.0,0.0,0.0,1.0201,2
1737286264.3088546,20755,1737286257,247250816,base_link,0,1,33.6371174,72.9912745,501.84607405868815,0.45832900000000004,0.0,0.0,0.0,0.45832900000000004,0.0,0.0,0.0,1.0201,2
1737286264.3091311,20756,1737286257,247253376,base_link,0,1,33.6371174,72.9912745,501.84607405868815,0.45832900000000004,0.0,0.0,0.0,0.45832900000000004,0.0,0.0,0.0,1.0201,2
1737286264.310182,20757,1737286257,447255680,base_link,0,1,33.6371183,72.9912747,501.84608036964687,0.45697600000000005,0.0,0.0,0.0,0.45697600000000005,0.0,0.0,0.0,1.0201,2
1737286264.3104308,20758,1737286257,447258496,base_link,0,1,33.6371183,72.9912747,501.84608036964687,0.45697600000000005,0.0,0.0,0.0,0.45697600000000005,0.0,0.0,0.0,1.0201,2
1737286264.3107135,20759,1737286257,647260800,base_link,0,1,33.6371193,72.9912749,501.87608729357135,0.45697600000000005,0.0,0.0,0.0,0.45697600000000005,0.0,0.0,0.0,1.0201,2
1737286264.3109195,20760,1737286257,647263104,base_link,0,1,33.6371193,72.9912749,501.87608729357135,0.45697600000000005,0.0,0.0,0.0,0.45697600000000005,0.0,0.0,0.0,1.0201,2
1737286264.311361,20761,1737286257,847264896,base_link,0,1,33.6371203,72.9912751,501.8960942175065,0.45832900000000004,0.0,0.0,0.0,0.45832900000000004,0.0,0.0,0.0,1.0201,2
1737286264.3119848,20762,1737286257,847267456,base_link,0,1,33.6371203,72.9912751,501.8960942175065,0.45832900000000004,0.0,0.0,0.0,0.45832900000000004,0.0,0.0,0.0,1.0201,2
1737286264.3120587,20763,1737286258,47269504,base_link,0,1,33.6371214,72.9912755,501.90610254877464,0.45832900000000004,0.0,0.0,0.0,0.45832900000000004,0.0,0.0,0.0,1.0221209999999998,2
1737286264.31249,20764,1737286258,47271808,base_link,0,1,33.6371214,72.9912755,501.90610254877464,0.45832900000000004,0.0,0.0,0.0,0.45832900000000004,0.0,0.0,0.0,1.0221209999999998,2
1737286264.3127964,20765,1737286258,247273856,base_link,0,1,33.6371224,72.9912759,501.8961102670977,0.45832900000000004,0.0,0.0,0.0,0.45832900000000004,0.0,0.0,0.0,1.0221209999999998,2
1737286264.3129773,20766,1737286258,247276416,base_link,0,1,33.6371224,72.9912759,501.8961102670977,0.45832900000000004,0.0,0.0,0.0,0.45832900000000004,0.0,0.0,0.0,1.0221209999999998,2
1737286264.313147,20767,1737286258,447278464,base_link,0,1,33.6371232,72.9912763,501.85611675951145,0.45968400000000004,0.0,0.0,0.0,0.45968400000000004,0.0,0.0,0.0,1.0221209999999998,2
1737286264.313245,20768,1737286258,447281024,base_link,0,1,33.6371232,72.9912763,501.85611675951145,0.45968400000000004,0.0,0.0,0.0,0.45968400000000004,0.0,0.0,0.0,1.0221209999999998,2
1737286264.31337,20769,1737286258,647283328,base_link,0,1,33.6371237,72.9912767,501.846121413049,0.45968400000000004,0.0,0.0,0.0,0.45968400000000004,0.0,0.0,0.0,1.024144,2
1737286264.3135328,20770,1737286258,647286144,base_link,0,1,33.6371237,72.9912767,501.846121413049,0.45968400000000004,0.0,0.0,0.0,0.45968400000000004,0.0,0.0,0.0,1.024144,2
1737286264.3138967,20771,1737286258,847288192,base_link,0,1,33.6371244,72.9912769,501.8961264981486,0.4610410000000001,0.0,0.0,0.0,0.4610410000000001,0.0,0.0,0.0,1.024144,2
1737286264.314104,20772,1737286258,847290496,base_link,0,1,33.6371244,72.9912769,501.8961264981486,0.4610410000000001,0.0,0.0,0.0,0.4610410000000001,0.0,0.0,0.0,1.024144,2
1737286264.3143432,20773,1737286259,47293056,base_link,0,1,33.637125,72.991277,501.90613057310736,0.4624000000000001,0.0,0.0,0.0,0.4624000000000001,0.0,0.0,0.0,1.0261689999999999,2
1737286264.314733,20774,1737286259,47295872,base_link,0,1,33.637125,72.991277,501.90613057310736,0.4624000000000001,0.0,0.0,0.0,0.4624000000000001,0.0,0.0,0.0,1.0261689999999999,2
1737286264.31492,20775,1737286259,247298432,base_link,0,1,33.6371255,72.991277,501.9061336379227,0.4637610000000001,0.0,0.0,0.0,0.4637610000000001,0.0,0.0,0.0,1.028196,2
1737286264.3151155,20776,1737286259,247300992,base_link,0,1,33.6371255,72.991277,501.9061336379227,0.4637610000000001,0.0,0.0,0.0,0.4637610000000001,0.0,0.0,0.0,1.028196,2
1737286264.3152964,20777,1737286259,447303040,base_link,0,1,33.6371259,72.9912768,501.94613529540857,0.4651240000000001,0.0,0.0,0.0,0.4651240000000001,0.0,0.0,0.0,1.0302249999999997,2
1737286264.3158362,20778,1737286259,447305856,base_link,0,1,33.6371259,72.9912768,501.94613529540857,0.4651240000000001,0.0,0.0,0.0,0.4651240000000001,0.0,0.0,0.0,1.0302249999999997,2
1737286264.3169136,20779,1737286259,647308416,base_link,0,1,33.6371261,72.9912765,501.9861353297839,0.4651240000000001,0.0,0.0,0.0,0.4651240000000001,0.0,0.0,0.0,1.032256,2
1737286264.3279896,20780,1737286259,647310976,base_link,0,1,33.6371261,72.9912765,501.9861353297839,0.4651240000000001,0.0,0.0,0.0,0.4651240000000001,0.0,0.0,0.0,1.032256,2
1737286264.328059,20781,1737286259,847313792,base_link,0,1,33.6371263,72.9912762,502.03613536415907,0.4664890000000001,0.0,0.0,0.0,0.4664890000000001,0.0,0.0,0.0,1.032256,2
1737286264.3281672,20782,1737286259,847316608,base_link,0,1,33.6371263,72.9912762,502.03613536415907,0.4664890000000001,0.0,0.0,0.0,0.4664890000000001,0.0,0.0,0.0,1.032256,2
1737286264.3296115,20783,1737286260,47319424,base_link,0,1,33.6371264,72.9912759,502.0861347855708,0.46922500000000006,0.0,0.0,0.0,0.46922500000000006,0.0,0.0,0.0,1.0342889999999998,2
1737286264.3296576,20784,1737286260,47322240,base_link,0,1,33.6371264,72.9912759,502.0861347855708,0.46922500000000006,0.0,0.0,0.0,0.46922500000000006,0.0,0.0,0.0,1.0342889999999998,2
1737286264.3297093,20785,1737286260,247325056,base_link,0,1,33.6371266,72.9912756,502.1361348199461,0.47059600000000007,0.0,0.0,0.0,0.47059600000000007,0.0,0.0,0.0,1.0342889999999998,2
1737286264.3347225,20786,1737286260,247327872,base_link,0,1,33.6371266,72.9912756,502.1361348199461,0.47059600000000007,0.0,0.0,0.0,0.47059600000000007,0.0,0.0,0.0,1.0342889999999998,2
1737286264.3387878,20787,1737286260,447330688,base_link,0,1,33.6371266,72.9912754,502.13613402557826,0.4719690000000001,0.0,0.0,0.0,0.4719690000000001,0.0,0.0,0.0,1.036324,2
1737286264.3388612,20788,1737286260,447333504,base_link,0,1,33.6371266,72.9912754,502.13613402557826,0.4719690000000001,0.0,0.0,0.0,0.4719690000000001,0.0,0.0,0.0,1.036324,2
1737286264.338934,20789,1737286260,647336320,base_link,0,1,33.6371268,72.9912751,502.1361340599535,0.47334399999999993,0.0,0.0,0.0,0.47334399999999993,0.0,0.0,0.0,1.0383609999999999,2
1737286264.3390317,20790,1737286260,647339392,base_link,0,1,33.6371268,72.9912751,502.1361340599535,0.47334399999999993,0.0,0.0,0.0,0.47334399999999993,0.0,0.0,0.0,1.0383609999999999,2
1737286264.3392682,20791,1737286260,847342208,base_link,0,1,33.6371269,72.991275,502.1361342757332,0.47472099999999995,0.0,0.0,0.0,0.47472099999999995,0.0,0.0,0.0,1.0404,2
1737286264.3394127,20792,1737286260,847345024,base_link,0,1,33.6371269,72.991275,502.1361342757332,0.47472099999999995,0.0,0.0,0.0,0.47472099999999995,0.0,0.0,0.0,1.0404,2
1737286264.3396063,20793,1737286261,47348096,base_link,0,1,33.6371271,72.9912749,502.1461351044766,0.4760999999999999,0.0,0.0,0.0,0.4760999999999999,0.0,0.0,0.0,1.0424409999999997,2
1737286264.3404171,20794,1737286261,47349632,base_link,0,1,33.6371271,72.9912749,502.1461351044766,0.4760999999999999,0.0,0.0,0.0,0.4760999999999999,0.0,0.0,0.0,1.0424409999999997,2
1737286264.340813,20795,1737286261,247350912,base_link,0,1,33.6371274,72.9912748,502.15613654618426,0.4760999999999999,0.0,0.0,0.0,0.4760999999999999,0.0,0.0,0.0,1.0465289999999998,2
1737286264.3429148,20796,1737286261,247352704,base_link,0,1,33.6371274,72.9912748,502.15613654618426,0.4760999999999999,0.0,0.0,0.0,0.4760999999999999,0.0,0.0,0.0,1.0465289999999998,2
1737286264.3434076,20797,1737286261,447353728,base_link,0,1,33.6371275,72.9912746,502.14613636478,0.47748099999999993,0.0,0.0,0.0,0.47748099999999993,0.0,0.0,0.0,1.048576,2
1737286264.343463,20798,1737286261,447355008,base_link,0,1,33.6371275,72.9912746,502.14613636478,0.47748099999999993,0.0,0.0,0.0,0.47748099999999993,0.0,0.0,0.0,1.048576,2
1737286264.3434863,20799,1737286261,647356288,base_link,0,1,33.6371277,72.9912745,502.126137193524,0.47748099999999993,0.0,0.0,0.0,0.47748099999999993,0.0,0.0,0.0,1.050625,2
1737286264.3435574,20800,1737286261,647357824,base_link,0,1,33.6371277,72.9912745,502.126137193524,0.47748099999999993,0.0,0.0,0.0,0.47748099999999993,0.0,0.0,0.0,1.050625,2
1737286264.3436065,20801,1737286261,848360640,base_link,0,1,33.6371278,72.9912745,502.12613780648826,0.47886399999999996,0.0,0.0,0.0,0.47886399999999996,0.0,0.0,0.0,1.052676,2
1737286264.3436537,20802,1737286261,848362176,base_link,0,1,33.6371278,72.9912745,502.12613780648826,0.47886399999999996,0.0,0.0,0.0,0.47886399999999996,0.0,0.0,0.0,1.052676,2
1737286264.3437061,20803,1737286262,48364736,base_link,0,1,33.637128,72.9912746,502.12613942960127,0.4802489999999999,0.0,0.0,0.0,0.4802489999999999,0.0,0.0,0.0,1.052676,2
1737286264.3438036,20804,1737286262,48366016,base_link,0,1,33.637128,72.9912746,502.12613942960127,0.4802489999999999,0.0,0.0,0.0,0.4802489999999999,0.0,0.0,0.0,1.052676,2
1737286264.3439555,20805,1737286262,248368832,base_link,0,1,33.6371281,72.9912746,502.1361400425657,0.4802489999999999,0.0,0.0,0.0,0.4802489999999999,0.0,0.0,0.0,1.050625,2
1737286264.3455224,20806,1737286262,248370368,base_link,0,1,33.6371281,72.9912746,502.1361400425657,0.4802489999999999,0.0,0.0,0.0,0.4802489999999999,0.0,0.0,0.0,1.050625,2
1737286264.3457565,20807,1737286262,448372928,base_link,0,1,33.6371281,72.9912747,502.1161404397502,0.48163599999999995,0.0,0.0,0.0,0.48163599999999995,0.0,0.0,0.0,1.050625,2
1737286264.345805,20808,1737286262,448374464,base_link,0,1,33.6371281,72.9912747,502.1161404397502,0.48163599999999995,0.0,0.0,0.0,0.48163599999999995,0.0,0.0,0.0,1.050625,2
1737286264.3459556,20809,1737286262,648377024,base_link,0,1,33.6371281,72.9912748,502.1261408369346,0.48163599999999995,0.0,0.0,0.0,0.48163599999999995,0.0,0.0,0.0,1.050625,2
1737286264.3460014,20810,1737286262,648378560,base_link,0,1,33.6371281,72.9912748,502.1261408369346,0.48163599999999995,0.0,0.0,0.0,0.48163599999999995,0.0,0.0,0.0,1.050625,2
1737286264.3460577,20811,1737286262,848379584,base_link,0,1,33.6371282,72.9912749,502.13614184708376,0.4830249999999999,0.0,0.0,0.0,0.4830249999999999,0.0,0.0,0.0,1.050625,2
1737286264.3461251,20812,1737286262,848379584,base_link,0,1,33.6371282,72.9912749,502.13614184708376,0.4830249999999999,0.0,0.0,0.0,0.4830249999999999,0.0,0.0,0.0,1.050625,2
1737286264.3462634,20813,1737286263,48382656,base_link,0,1,33.6371281,72.9912749,502.116141234119,0.4830249999999999,0.0,0.0,0.0,0.4830249999999999,0.0,0.0,0.0,1.050625,2
1737286264.3463242,20814,1737286263,48384448,base_link,0,1,33.6371281,72.9912749,502.116141234119,0.4830249999999999,0.0,0.0,0.0,0.4830249999999999,0.0,0.0,0.0,1.050625,2
1737286264.347363,20815,1737286263,248385984,base_link,0,1,33.6371282,72.9912749,502.1261418470838,0.48441599999999996,0.0,0.0,0.0,0.48441599999999996,0.0,0.0,0.0,1.050625,2
1737286264.3493528,20816,1737286263,248387776,base_link,0,1,33.6371282,72.9912749,502.1261418470838,0.48441599999999996,0.0,0.0,0.0,0.48441599999999996,0.0,0.0,0.0,1.050625,2
1737286264.3493824,20817,1737286263,448389568,base_link,0,1,33.6371286,72.991275,502.11614469612834,0.48441599999999996,0.0,0.0,0.0,0.48441599999999996,0.0,0.0,0.0,1.048576,2
1737286264.3494515,20818,1737286263,448391104,base_link,0,1,33.6371286,72.991275,502.11614469612834,0.48441599999999996,0.0,0.0,0.0,0.48441599999999996,0.0,0.0,0.0,1.048576,2
1737286264.3497057,20819,1737286263,648392640,base_link,0,1,33.6371296,72.9912754,502.1461524145254,0.48580899999999994,0.0,0.0,0.0,0.48580899999999994,0.0,0.0,0.0,1.048576,2
1737286264.3513117,20820,1737286263,648394432,base_link,0,1,33.6371296,72.9912754,502.1461524145254,0.48580899999999994,0.0,0.0,0.0,0.48580899999999994,0.0,0.0,0.0,1.048576,2
1737286264.3515472,20821,1737286263,848396224,base_link,0,1,33.6371313,72.991276,502.13616521808063,0.4872039999999999,0.0,0.0,0.0,0.4872039999999999,0.0,0.0,0.0,1.048576,2
1737286264.3515794,20822,1737286263,848398016,base_link,0,1,33.6371313,72.991276,502.13616521808063,0.4872039999999999,0.0,0.0,0.0,0.4872039999999999,0.0,0.0,0.0,1.048576,2
1737286264.3517778,20823,1737286264,48399808,base_link,0,1,33.6371338,72.9912771,502.1161849113696,0.48860099999999995,0.0,0.0,0.0,0.48860099999999995,0.0,0.0,0.0,1.048576,2
1737286264.3519685,20824,1737286264,48401600,base_link,0,1,33.6371338,72.9912771,502.1161849113696,0.48860099999999995,0.0,0.0,0.0,0.48860099999999995,0.0,0.0,0.0,1.048576,2
1737286264.353503,20825,1737286264,248403392,base_link,0,1,33.6371371,72.9912784,502.0862103029093,0.4914009999999999,0.0,0.0,0.0,0.4914009999999999,0.0,0.0,0.0,1.048576,2
1737286264.445935,20826,1737286264,248405184,base_link,0,1,33.6371371,72.9912784,502.0862103029093,0.4914009999999999,0.0,0.0,0.0,0.4914009999999999,0.0,0.0,0.0,1.048576,2
1737286264.5475004,20827,1737286264,448406720,base_link,0,1,33.6371411,72.9912797,502.08623998543356,0.49420899999999995,0.0,0.0,0.0,0.49420899999999995,0.0,0.0,0.0,1.050625,2
1737286264.6437712,20828,1737286264,448408512,base_link,0,1,33.6371411,72.9912797,502.08623998543356,0.49420899999999995,0.0,0.0,0.0,0.49420899999999995,0.0,0.0,0.0,1.050625,2
1737286264.7468715,20829,1737286264,648410304,base_link,0,1,33.6371453,72.9912814,502.0962724828883,0.49702499999999994,0.0,0.0,0.0,0.49702499999999994,0.0,0.0,0.0,1.052676,2
1737286264.8453362,20830,1737286264,648412352,base_link,0,1,33.6371453,72.9912814,502.0962724828883,0.49702499999999994,0.0,0.0,0.0,0.49702499999999994,0.0,0.0,0.0,1.052676,2
1737286264.9454408,20831,1737286264,848415424,base_link,0,1,33.6371496,72.9912832,502.08630599075167,0.49984899999999993,0.0,0.0,0.0,0.49984899999999993,0.0,0.0,0.0,1.0547289999999998,2
1737286265.046645,20832,1737286264,848417216,base_link,0,1,33.6371496,72.9912832,502.08630599075167,0.49984899999999993,0.0,0.0,0.0,0.49984899999999993,0.0,0.0,0.0,1.0547289999999998,2
1737286265.146557,20833,1737286265,48419008,base_link,0,1,33.6371541,72.9912851,502.116341122037,0.5041,0.0,0.0,0.0,0.5041,0.0,0.0,0.0,1.058841,2
1737286265.2504184,20834,1737286265,48421056,base_link,0,1,33.6371541,72.9912851,502.116341122037,0.5041,0.0,0.0,0.0,0.5041,0.0,0.0,0.0,1.058841,2
1737286265.3493564,20835,1737286265,248423360,base_link,0,1,33.6371586,72.991287,502.11637625358526,0.506944,0.0,0.0,0.0,0.506944,0.0,0.0,0.0,1.0609,2
1737286265.4497151,20836,1737286265,248425664,base_link,0,1,33.6371586,72.991287,502.11637625358526,0.506944,0.0,0.0,0.0,0.506944,0.0,0.0,0.0,1.0609,2
1737286265.5480685,20837,1737286265,448427456,base_link,0,1,33.6371635,72.991289,502.13641423460797,0.5097959999999999,0.0,0.0,0.0,0.5097959999999999,0.0,0.0,0.0,1.065024,2
1737286265.6482337,20838,1737286265,448429504,base_link,0,1,33.6371635,72.991289,502.13641423460797,0.5097959999999999,0.0,0.0,0.0,0.5097959999999999,0.0,0.0,0.0,1.065024,2
1737286265.750189,20839,1737286265,648431552,base_link,0,1,33.6371686,72.9912911,502.19645383916,0.5140889999999999,0.0,0.0,0.0,0.5140889999999999,0.0,0.0,0.0,1.069156,2
1737286265.8485818,20840,1737286265,648434112,base_link,0,1,33.6371686,72.9912911,502.19645383916,0.5140889999999999,0.0,0.0,0.0,0.5140889999999999,0.0,0.0,0.0,1.069156,2
1737286265.9485464,20841,1737286265,848436160,base_link,0,1,33.6371734,72.9912933,502.19649200221596,0.5184,0.0,0.0,0.0,0.5184,0.0,0.0,0.0,1.073296,2
1737286266.0481787,20842,1737286265,848438464,base_link,0,1,33.6371734,72.9912933,502.19649200221596,0.5184,0.0,0.0,0.0,0.5184,0.0,0.0,0.0,1.073296,2
1737286266.1494331,20843,1737286266,48440256,base_link,0,1,33.6371785,72.9912954,502.2065316074239,0.521284,0.0,0.0,0.0,0.521284,0.0,0.0,0.0,1.0753689999999998,2
1737286266.247494,20844,1737286266,48442560,base_link,0,1,33.6371785,72.9912954,502.2065316074239,0.521284,0.0,0.0,0.0,0.521284,0.0,0.0,0.0,1.0753689999999998,2
1737286266.3470235,20845,1737286266,248444352,base_link,0,1,33.6371837,72.9912974,502.2565714287769,0.524176,0.0,0.0,0.0,0.524176,0.0,0.0,0.0,1.077444,2
1737286266.4474022,20846,1737286266,248446400,base_link,0,1,33.6371837,72.9912974,502.2565714287769,0.524176,0.0,0.0,0.0,0.524176,0.0,0.0,0.0,1.077444,2
1737286266.5489826,20847,1737286266,448448192,base_link,0,1,33.6371889,72.9912994,502.32661125047014,0.524176,0.0,0.0,0.0,0.524176,0.0,0.0,0.0,1.077444,2
1737286266.6514595,20848,1737286266,448450496,base_link,0,1,33.6371889,72.9912994,502.32661125047014,0.524176,0.0,0.0,0.0,0.524176,0.0,0.0,0.0,1.077444,2
1737286266.7480493,20849,1737286266,648452544,base_link,0,1,33.6371939,72.9913011,502.3766486547765,0.524176,0.0,0.0,0.0,0.524176,0.0,0.0,0.0,1.077444,2
1737286266.8474522,20850,1737286266,648454848,base_link,0,1,33.6371939,72.9913011,502.3766486547765,0.524176,0.0,0.0,0.0,0.524176,0.0,0.0,0.0,1.077444,2
1737286266.9470367,20851,1737286266,848457152,base_link,0,1,33.6371986,72.9913026,502.50668342582355,0.524176,0.0,0.0,0.0,0.524176,0.0,0.0,0.0,1.0753689999999998,2
1737286267.0460517,20852,1737286266,848459968,base_link,0,1,33.6371986,72.9913026,502.50668342582355,0.524176,0.0,0.0,0.0,0.524176,0.0,0.0,0.0,1.0753689999999998,2
1737286267.188197,20853,1737286267,48462016,base_link,0,1,33.6372029,72.9913037,502.6067141560623,0.524176,0.0,0.0,0.0,0.524176,0.0,0.0,0.0,1.077444,2
1737286267.248356,20854,1737286267,48464320,base_link,0,1,33.6372029,72.9913037,502.6067141560623,0.524176,0.0,0.0,0.0,0.524176,0.0,0.0,0.0,1.077444,2
1737286267.3468618,20855,1737286267,248466624,base_link,0,1,33.6372068,72.9913044,502.7467408454156,0.524176,0.0,0.0,0.0,0.524176,0.0,0.0,0.0,1.0795209999999997,2
1737286267.4511845,20856,1737286267,248468928,base_link,0,1,33.6372068,72.9913044,502.7467408454156,0.524176,0.0,0.0,0.0,0.524176,0.0,0.0,0.0,1.0795209999999997,2
1737286267.5475628,20857,1737286267,448470976,base_link,0,1,33.6372102,72.9913044,502.8667616890839,0.524176,0.0,0.0,0.0,0.524176,0.0,0.0,0.0,1.0795209999999997,2
1737286267.648429,20858,1737286267,448473280,base_link,0,1,33.6372102,72.9913044,502.8667616890839,0.524176,0.0,0.0,0.0,0.524176,0.0,0.0,0.0,1.0795209999999997,2
1737286267.749462,20859,1737286267,648475584,base_link,0,1,33.6372134,72.991304,503.05677971783444,0.524176,0.0,0.0,0.0,0.524176,0.0,0.0,0.0,1.077444,2
1737286267.8466692,20860,1737286267,648478144,base_link,0,1,33.6372134,72.991304,503.05677971783444,0.524176,0.0,0.0,0.0,0.524176,0.0,0.0,0.0,1.077444,2
1737286267.9553425,20861,1737286267,848479936,base_link,0,1,33.637216,72.9913035,503.1967936711023,0.522729,0.0,0.0,0.0,0.522729,0.0,0.0,0.0,1.0795209999999997,2
1737286268.0491934,20862,1737286267,848482496,base_link,0,1,33.637216,72.9913035,503.1967936711023,0.522729,0.0,0.0,0.0,0.522729,0.0,0.0,0.0,1.0795209999999997,2
1737286268.1456413,20863,1737286268,48478656,base_link,0,1,33.6372181,72.9913027,503.3468033674432,0.522729,0.0,0.0,0.0,0.522729,0.0,0.0,0.0,1.077444,2
1737286268.2470415,20864,1737286268,48481216,base_link,0,1,33.6372181,72.9913027,503.3468033674432,0.522729,0.0,0.0,0.0,0.522729,0.0,0.0,0.0,1.077444,2
1737286268.3466032,20865,1737286268,248483520,base_link,0,1,33.6372197,72.991301,503.4368064234452,0.524176,0.0,0.0,0.0,0.524176,0.0,0.0,0.0,1.0795209999999997,2
1737286268.4506485,20866,1737286268,248486336,base_link,0,1,33.6372197,72.991301,503.4368064234452,0.524176,0.0,0.0,0.0,0.524176,0.0,0.0,0.0,1.0795209999999997,2
1737286268.5471144,20867,1737286268,448488896,base_link,0,1,33.6372209,72.9912988,503.58680504106877,0.525625,0.0,0.0,0.0,0.525625,0.0,0.0,0.0,1.0795209999999997,2
1737286268.652362,20868,1737286268,448488640,base_link,0,1,33.6372209,72.9912988,503.58680504106877,0.525625,0.0,0.0,0.0,0.525625,0.0,0.0,0.0,1.0795209999999997,2
1737286268.7462244,20869,1737286268,648491200,base_link,0,1,33.6372217,72.9912969,503.7068023981537,0.525625,0.0,0.0,0.0,0.525625,0.0,0.0,0.0,1.077444,2
1737286268.8456683,20870,1737286268,648492224,base_link,0,1,33.6372217,72.9912969,503.7068023981537,0.525625,0.0,0.0,0.0,0.525625,0.0,0.0,0.0,1.077444,2
1737286268.947603,20871,1737286268,848494528,base_link,0,1,33.6372222,72.9912948,503.78679712160766,0.524176,0.0,0.0,0.0,0.524176,0.0,0.0,0.0,1.0753689999999998,2
1737286269.0469592,20872,1737286268,848495808,base_link,0,1,33.6372222,72.9912948,503.78679712160766,0.524176,0.0,0.0,0.0,0.524176,0.0,0.0,0.0,1.0753689999999998,2
1737286269.1491494,20873,1737286269,48498112,base_link,0,1,33.6372223,72.9912926,503.89678899560954,0.522729,0.0,0.0,0.0,0.522729,0.0,0.0,0.0,1.073296,2
1737286269.2487736,20874,1737286269,48499136,base_link,0,1,33.6372223,72.9912926,503.89678899560954,0.522729,0.0,0.0,0.0,0.522729,0.0,0.0,0.0,1.073296,2
1737286269.348208,20875,1737286269,248501696,base_link,0,1,33.637222,72.9912906,503.99677921185804,0.521284,0.0,0.0,0.0,0.521284,0.0,0.0,0.0,1.073296,2
1737286269.4485276,20876,1737286269,248502976,base_link,0,1,33.637222,72.9912906,503.99677921185804,0.521284,0.0,0.0,0.0,0.521284,0.0,0.0,0.0,1.073296,2
1737286269.5474448,20877,1737286269,448505536,base_link,0,1,33.6372214,72.9912887,504.10676798618863,0.521284,0.0,0.0,0.0,0.521284,0.0,0.0,0.0,1.0712249999999999,2
1737286269.6476767,20878,1737286269,448506816,base_link,0,1,33.6372214,72.9912887,504.10676798618863,0.521284,0.0,0.0,0.0,0.521284,0.0,0.0,0.0,1.0712249999999999,2
1737286269.7486541,20879,1737286269,648509376,base_link,0,1,33.6372209,72.991287,504.13675816804823,0.519841,0.0,0.0,0.0,0.519841,0.0,0.0,0.0,1.0712249999999999,2
1737286269.8481653,20880,1737286269,648510656,base_link,0,1,33.6372209,72.991287,504.13675816804823,0.519841,0.0,0.0,0.0,0.519841,0.0,0.0,0.0,1.0712249999999999,2
1737286269.9545429,20881,1737286269,848513472,base_link,0,1,33.6372203,72.9912855,504.14674853132686,0.5184,0.0,0.0,0.0,0.5184,0.0,0.0,0.0,1.073296,2
1737286270.0485272,20882,1737286269,848514752,base_link,0,1,33.6372203,72.9912855,504.14674853132686,0.5184,0.0,0.0,0.0,0.5184,0.0,0.0,0.0,1.073296,2
1737286270.147131,20883,1737286270,48517568,base_link,0,1,33.6372198,72.9912844,504.15674109657783,0.516961,0.0,0.0,0.0,0.516961,0.0,0.0,0.0,1.073296,2
1737286270.2481,20884,1737286270,48518848,base_link,0,1,33.6372198,72.9912844,504.15674109657783,0.516961,0.0,0.0,0.0,0.516961,0.0,0.0,0.0,1.073296,2
1737286270.346845,20885,1737286270,248521664,base_link,0,1,33.6372194,72.9912836,504.1667354665667,0.515524,0.0,0.0,0.0,0.515524,0.0,0.0,0.0,1.0712249999999999,2
1737286270.4464767,20886,1737286270,248523200,base_link,0,1,33.6372194,72.9912836,504.1667354665667,0.515524,0.0,0.0,0.0,0.515524,0.0,0.0,0.0,1.0712249999999999,2
1737286270.5461938,20887,1737286270,448525760,base_link,0,1,33.6372189,72.9912831,504.1667304151897,0.5140889999999999,0.0,0.0,0.0,0.5140889999999999,0.0,0.0,0.0,1.0712249999999999,2
1737286270.6460123,20888,1737286270,448527040,base_link,0,1,33.6372189,72.9912831,504.1667304151897,0.5140889999999999,0.0,0.0,0.0,0.5140889999999999,0.0,0.0,0.0,1.0712249999999999,2
1737286270.7468812,20889,1737286270,648529856,base_link,0,1,33.6372185,72.9912828,504.1567267713172,0.512656,0.0,0.0,0.0,0.512656,0.0,0.0,0.0,1.0712249999999999,2
1737286270.8494673,20890,1737286270,648531136,base_link,0,1,33.6372185,72.9912828,504.1567267713172,0.512656,0.0,0.0,0.0,0.512656,0.0,0.0,0.0,1.0712249999999999,2
1737286270.9513996,20891,1737286270,848533952,base_link,0,1,33.6372183,72.9912826,504.1667247507693,0.5112249999999999,0.0,0.0,0.0,0.5112249999999999,0.0,0.0,0.0,1.069156,2
1737286271.0493572,20892,1737286270,848535232,base_link,0,1,33.6372183,72.9912826,504.1667247507693,0.5112249999999999,0.0,0.0,0.0,0.5112249999999999,0.0,0.0,0.0,1.069156,2
1737286271.1471143,20893,1737286271,48538304,base_link,0,1,33.637218,72.9912826,504.1567229116247,0.5097959999999999,0.0,0.0,0.0,0.5097959999999999,0.0,0.0,0.0,1.069156,2
1737286271.2466738,20894,1737286271,48539584,base_link,0,1,33.637218,72.9912826,504.1567229116247,0.5097959999999999,0.0,0.0,0.0,0.5097959999999999,0.0,0.0,0.0,1.069156,2
1737286271.3474672,20895,1737286271,248542400,base_link,0,1,33.6372177,72.9912828,504.16672186693137,0.508369,0.0,0.0,0.0,0.508369,0.0,0.0,0.0,1.0670889999999997,2
1737286271.4471555,20896,1737286271,248544192,base_link,0,1,33.6372177,72.9912828,504.16672186693137,0.508369,0.0,0.0,0.0,0.508369,0.0,0.0,0.0,1.0670889999999997,2
1737286271.5462909,20897,1737286271,448546496,base_link,0,1,33.6372175,72.9912831,504.18672183251147,0.506944,0.0,0.0,0.0,0.506944,0.0,0.0,0.0,1.065024,2
1737286271.6484704,20898,1737286271,448547776,base_link,0,1,33.6372175,72.9912831,504.18672183251147,0.506944,0.0,0.0,0.0,0.506944,0.0,0.0,0.0,1.065024,2
1737286271.7529418,20899,1737286271,648550592,base_link,0,1,33.6372174,72.9912834,504.2067224111393,0.505521,0.0,0.0,0.0,0.505521,0.0,0.0,0.0,1.0629609999999998,2
1737286271.8494606,20900,1737286271,648552128,base_link,0,1,33.6372174,72.9912834,504.2067224111393,0.505521,0.0,0.0,0.0,0.505521,0.0,0.0,0.0,1.0629609999999998,2
1737286271.9504862,20901,1737286271,848553664,base_link,0,1,33.6372172,72.9912836,504.2467219794943,0.5026809999999999,0.0,0.0,0.0,0.5026809999999999,0.0,0.0,0.0,1.0629609999999998,2
1737286272.049154,20902,1737286271,848555200,base_link,0,1,33.6372172,72.9912836,504.2467219794943,0.5026809999999999,0.0,0.0,0.0,0.5026809999999999,0.0,0.0,0.0,1.0629609999999998,2
1737286272.1483033,20903,1737286272,48558272,base_link,0,1,33.6372171,72.9912838,504.2767221608969,0.5012639999999999,0.0,0.0,0.0,0.5012639999999999,0.0,0.0,0.0,1.0629609999999998,2
1737286272.247617,20904,1737286272,48559808,base_link,0,1,33.6372171,72.9912838,504.2767221608969,0.5012639999999999,0.0,0.0,0.0,0.5012639999999999,0.0,0.0,0.0,1.0629609999999998,2
1737286272.3471587,20905,1737286272,248561344,base_link,0,1,33.6372171,72.991284,504.26672295534735,0.49984899999999993,0.0,0.0,0.0,0.49984899999999993,0.0,0.0,0.0,1.065024,2
1737286272.449533,20906,1737286272,248563136,base_link,0,1,33.6372171,72.991284,504.26672295534735,0.49984899999999993,0.0,0.0,0.0,0.49984899999999993,0.0,0.0,0.0,1.065024,2
1737286272.5482285,20907,1737286272,448564160,base_link,0,1,33.6372172,72.9912843,504.2967247600713,0.49984899999999993,0.0,0.0,0.0,0.49984899999999993,0.0,0.0,0.0,1.0670889999999997,2
1737286272.6485558,20908,1737286272,448565952,base_link,0,1,33.6372172,72.9912843,504.2967247600713,0.49984899999999993,0.0,0.0,0.0,0.49984899999999993,0.0,0.0,0.0,1.0670889999999997,2
1737286272.748164,20909,1737286272,648567232,base_link,0,1,33.6372173,72.9912845,504.33672616757036,0.49984899999999993,0.0,0.0,0.0,0.49984899999999993,0.0,0.0,0.0,1.069156,2
1737286272.8474793,20910,1737286272,648569024,base_link,0,1,33.6372173,72.9912845,504.33672616757036,0.49984899999999993,0.0,0.0,0.0,0.49984899999999993,0.0,0.0,0.0,1.069156,2
1737286272.9476252,20911,1737286272,848570304,base_link,0,1,33.6372174,72.9912847,504.3667275750697,0.49984899999999993,0.0,0.0,0.0,0.49984899999999993,0.0,0.0,0.0,1.0712249999999999,2
1737286273.047405,20912,1737286272,848572096,base_link,0,1,33.6372174,72.9912847,504.3667275750697,0.49984899999999993,0.0,0.0,0.0,0.49984899999999993,0.0,0.0,0.0,1.0712249999999999,2
1737286273.1488936,20913,1737286273,48567744,base_link,0,1,33.6372176,72.9912848,504.39672919839245,0.49984899999999993,0.0,0.0,0.0,0.49984899999999993,0.0,0.0,0.0,1.0753689999999998,2
1737286273.2474475,20914,1737286273,48569536,base_link,0,1,33.6372176,72.9912848,504.39672919839245,0.49984899999999993,0.0,0.0,0.0,0.49984899999999993,0.0,0.0,0.0,1.0753689999999998,2
1737286273.3487265,20915,1737286273,248571328,base_link,0,1,33.6372178,72.991285,504.4167312189415,0.49984899999999993,0.0,0.0,0.0,0.49984899999999993,0.0,0.0,0.0,1.077444,2
1737286273.4489918,20916,1737286273,248573120,base_link,0,1,33.6372178,72.991285,504.4167312189415,0.49984899999999993,0.0,0.0,0.0,0.49984899999999993,0.0,0.0,0.0,1.077444,2
1737286273.548589,20917,1737286273,448574912,base_link,0,1,33.6372179,72.9912852,504.4167326264421,0.49843599999999993,0.0,0.0,0.0,0.49843599999999993,0.0,0.0,0.0,1.077444,2
1737286273.6488442,20918,1737286273,448576704,base_link,0,1,33.6372179,72.9912852,504.4167326264421,0.49843599999999993,0.0,0.0,0.0,0.49843599999999993,0.0,0.0,0.0,1.077444,2
1737286273.7485592,20919,1737286273,648578496,base_link,0,1,33.637218,72.9912854,504.4467340339432,0.49843599999999993,0.0,0.0,0.0,0.49843599999999993,0.0,0.0,0.0,1.0795209999999997,2
1737286273.8461943,20920,1737286273,648580288,base_link,0,1,33.637218,72.9912854,504.4467340339432,0.49843599999999993,0.0,0.0,0.0,0.49843599999999993,0.0,0.0,0.0,1.0795209999999997,2
1737286273.9488378,20921,1737286273,848582080,base_link,0,1,33.6372181,72.9912855,504.44673504421854,0.49843599999999993,0.0,0.0,0.0,0.49843599999999993,0.0,0.0,0.0,1.0816000000000001,2
1737286274.048325,20922,1737286273,848584384,base_link,0,1,33.6372181,72.9912855,504.44673504421854,0.49843599999999993,0.0,0.0,0.0,0.49843599999999993,0.0,0.0,0.0,1.0816000000000001,2
1737286274.147022,20923,1737286274,48586432,base_link,0,1,33.6372182,72.9912857,504.44673645172026,0.49984899999999993,0.0,0.0,0.0,0.49984899999999993,0.0,0.0,0.0,1.083681,2
1737286274.2467,20924,1737286274,48588736,base_link,0,1,33.6372182,72.9912857,504.44673645172026,0.49984899999999993,0.0,0.0,0.0,0.49984899999999993,0.0,0.0,0.0,1.083681,2
1737286274.3454254,20925,1737286274,248590528,base_link,0,1,33.6372184,72.9912857,504.4467376778196,0.49984899999999993,0.0,0.0,0.0,0.49984899999999993,0.0,0.0,0.0,1.0857640000000002,2
1737286274.4458034,20926,1737286274,248592576,base_link,0,1,33.6372184,72.9912857,504.4467376778196,0.49984899999999993,0.0,0.0,0.0,0.49984899999999993,0.0,0.0,0.0,1.0857640000000002,2
1737286274.545716,20927,1737286274,448594624,base_link,0,1,33.6372185,72.9912858,504.4467386880956,0.5012639999999999,0.0,0.0,0.0,0.5012639999999999,0.0,0.0,0.0,1.089936,2
1737286274.6479385,20928,1737286274,448596672,base_link,0,1,33.6372185,72.9912858,504.4467386880956,0.5012639999999999,0.0,0.0,0.0,0.5012639999999999,0.0,0.0,0.0,1.089936,2
1737286274.7485378,20929,1737286274,648598720,base_link,0,1,33.6372185,72.9912859,504.45673908532194,0.5012639999999999,0.0,0.0,0.0,0.5012639999999999,0.0,0.0,0.0,1.094116,2
1737286274.846456,20930,1737286274,648600768,base_link,0,1,33.6372185,72.9912859,504.45673908532194,0.5012639999999999,0.0,0.0,0.0,0.5012639999999999,0.0,0.0,0.0,1.094116,2
1737286274.9481683,20931,1737286274,848602816,base_link,0,1,33.6372185,72.9912858,504.4467386880956,0.5012639999999999,0.0,0.0,0.0,0.5012639999999999,0.0,0.0,0.0,1.0983040000000002,2
1737286275.0471807,20932,1737286274,848604864,base_link,0,1,33.6372185,72.9912858,504.4467386880956,0.5012639999999999,0.0,0.0,0.0,0.5012639999999999,0.0,0.0,0.0,1.0983040000000002,2
1737286275.146189,20933,1737286275,48606912,base_link,0,1,33.6372185,72.9912858,504.4367386880956,0.5012639999999999,0.0,0.0,0.0,0.5012639999999999,0.0,0.0,0.0,1.1025,2
1737286275.2454617,20934,1737286275,48609216,base_link,0,1,33.6372185,72.9912858,504.4367386880956,0.5012639999999999,0.0,0.0,0.0,0.5012639999999999,0.0,0.0,0.0,1.1025,2
1737286275.3473763,20935,1737286275,248611008,base_link,0,1,33.6372185,72.9912857,504.41673829086943,0.5012639999999999,0.0,0.0,0.0,0.5012639999999999,0.0,0.0,0.0,1.1067040000000001,2
1737286275.4482715,20936,1737286275,248613056,base_link,0,1,33.6372185,72.9912857,504.41673829086943,0.5012639999999999,0.0,0.0,0.0,0.5012639999999999,0.0,0.0,0.0,1.1067040000000001,2
1737286275.5481765,20937,1737286275,448614848,base_link,0,1,33.6372184,72.9912857,504.39673767781966,0.5012639999999999,0.0,0.0,0.0,0.5012639999999999,0.0,0.0,0.0,1.108809,2
1737286275.64613,20938,1737286275,448616896,base_link,0,1,33.6372184,72.9912857,504.39673767781966,0.5012639999999999,0.0,0.0,0.0,0.5012639999999999,0.0,0.0,0.0,1.108809,2
1737286275.7460191,20939,1737286275,648618688,base_link,0,1,33.6372183,72.9912856,504.41673666754366,0.5012639999999999,0.0,0.0,0.0,0.5012639999999999,0.0,0.0,0.0,1.113025,2
1737286275.848841,20940,1737286275,648620736,base_link,0,1,33.6372183,72.9912856,504.41673666754366,0.5012639999999999,0.0,0.0,0.0,0.5012639999999999,0.0,0.0,0.0,1.113025,2
1737286275.9488175,20941,1737286275,848623040,base_link,0,1,33.6372181,72.9912856,504.4267354414446,0.5012639999999999,0.0,0.0,0.0,0.5012639999999999,0.0,0.0,0.0,1.1151360000000001,2
1737286276.0480938,20942,1737286275,848625344,base_link,0,1,33.6372181,72.9912856,504.4267354414446,0.5012639999999999,0.0,0.0,0.0,0.5012639999999999,0.0,0.0,0.0,1.1151360000000001,2
1737286276.147054,20943,1737286276,48627136,base_link,0,1,33.637218,72.9912855,504.41673443116923,0.49984899999999993,0.0,0.0,0.0,0.49984899999999993,0.0,0.0,0.0,1.117249,2
1737286276.2482162,20944,1737286276,48627904,base_link,0,1,33.637218,72.9912855,504.41673443116923,0.49984899999999993,0.0,0.0,0.0,0.49984899999999993,0.0,0.0,0.0,1.117249,2
1737286276.3475726,20945,1737286276,248629952,base_link,0,1,33.6372179,72.9912854,504.41673342089405,0.49984899999999993,0.0,0.0,0.0,0.49984899999999993,0.0,0.0,0.0,1.121481,2
1737286276.448211,20946,1737286276,248630720,base_link,0,1,33.6372179,72.9912854,504.41673342089405,0.49984899999999993,0.0,0.0,0.0,0.49984899999999993,0.0,0.0,0.0,1.121481,2
1737286276.5489376,20947,1737286276,448632768,base_link,0,1,33.6372179,72.9912853,504.4267330236681,0.49984899999999993,0.0,0.0,0.0,0.49984899999999993,0.0,0.0,0.0,1.1236000000000002,2
1737286276.6484945,20948,1737286276,448633536,base_link,0,1,33.6372179,72.9912853,504.4267330236681,0.49984899999999993,0.0,0.0,0.0,0.49984899999999993,0.0,0.0,0.0,1.1236000000000002,2
1737286276.7479415,20949,1737286276,648635840,base_link,0,1,33.6372178,72.9912852,504.42673201339306,0.49984899999999993,0.0,0.0,0.0,0.49984899999999993,0.0,0.0,0.0,1.125721,2
1737286276.8469815,20950,1737286276,648636864,base_link,0,1,33.6372178,72.9912852,504.42673201339306,0.49984899999999993,0.0,0.0,0.0,0.49984899999999993,0.0,0.0,0.0,1.125721,2
1737286276.9535599,20951,1737286276,848638912,base_link,0,1,33.6372177,72.9912851,504.4467310031183,0.49984899999999993,0.0,0.0,0.0,0.49984899999999993,0.0,0.0,0.0,1.1299689999999998,2
1737286277.0472643,20952,1737286276,848639680,base_link,0,1,33.6372177,72.9912851,504.4467310031183,0.49984899999999993,0.0,0.0,0.0,0.49984899999999993,0.0,0.0,0.0,1.1299689999999998,2
1737286277.1482112,20953,1737286277,48641984,base_link,0,1,33.6372177,72.991285,504.4667306058926,0.49984899999999993,0.0,0.0,0.0,0.49984899999999993,0.0,0.0,0.0,1.1320960000000002,2
1737286277.24853,20954,1737286277,48643008,base_link,0,1,33.6372177,72.991285,504.4667306058926,0.49984899999999993,0.0,0.0,0.0,0.49984899999999993,0.0,0.0,0.0,1.1320960000000002,2
1737286277.3522506,20955,1737286277,248645312,base_link,0,1,33.6372176,72.9912849,504.50672959561814,0.49984899999999993,0.0,0.0,0.0,0.49984899999999993,0.0,0.0,0.0,1.1363560000000001,2
1737286277.44837,20956,1737286277,248646336,base_link,0,1,33.6372176,72.9912849,504.50672959561814,0.49984899999999993,0.0,0.0,0.0,0.49984899999999993,0.0,0.0,0.0,1.1363560000000001,2
1737286277.5480194,20957,1737286277,448648384,base_link,0,1,33.6372176,72.9912848,504.53672919839244,0.5012639999999999,0.0,0.0,0.0,0.5012639999999999,0.0,0.0,0.0,1.1384889999999999,2
1737286277.6486037,20958,1737286277,448649408,base_link,0,1,33.6372176,72.9912848,504.53672919839244,0.5012639999999999,0.0,0.0,0.0,0.5012639999999999,0.0,0.0,0.0,1.1384889999999999,2
1737286277.7478015,20959,1737286277,648651712,base_link,0,1,33.6372175,72.9912847,504.55672818811814,0.5026809999999999,0.0,0.0,0.0,0.5026809999999999,0.0,0.0,0.0,1.140624,2
1737286277.8476496,20960,1737286277,648652992,base_link,0,1,33.6372175,72.9912847,504.55672818811814,0.5026809999999999,0.0,0.0,0.0,0.5026809999999999,0.0,0.0,0.0,1.140624,2
1737286277.9450424,20961,1737286277,848655040,base_link,0,1,33.6372174,72.9912846,504.56672717784414,0.5026809999999999,0.0,0.0,0.0,0.5026809999999999,0.0,0.0,0.0,1.142761,2
1737286278.0534692,20962,1737286277,848656064,base_link,0,1,33.6372174,72.9912846,504.56672717784414,0.5026809999999999,0.0,0.0,0.0,0.5026809999999999,0.0,0.0,0.0,1.142761,2
1737286278.1473498,20963,1737286278,48658368,base_link,0,1,33.6372173,72.9912845,504.58672616757036,0.5041,0.0,0.0,0.0,0.5041,0.0,0.0,0.0,1.1449,2
1737286278.247101,20964,1737286278,48659648,base_link,0,1,33.6372173,72.9912845,504.58672616757036,0.5041,0.0,0.0,0.0,0.5041,0.0,0.0,0.0,1.1449,2
1737286278.3457303,20965,1737286278,248662208,base_link,0,1,33.6372173,72.9912844,504.61672577034494,0.505521,0.0,0.0,0.0,0.505521,0.0,0.0,0.0,1.1491840000000002,2
1737286278.4469864,20966,1737286278,248663488,base_link,0,1,33.6372173,72.9912844,504.61672577034494,0.505521,0.0,0.0,0.0,0.505521,0.0,0.0,0.0,1.1491840000000002,2
1737286278.5461812,20967,1737286278,448666304,base_link,0,1,33.6372173,72.9912843,504.6267253731195,0.505521,0.0,0.0,0.0,0.505521,0.0,0.0,0.0,1.1513289999999998,2
1737286278.6470757,20968,1737286278,448667328,base_link,0,1,33.6372173,72.9912843,504.6267253731195,0.505521,0.0,0.0,0.0,0.505521,0.0,0.0,0.0,1.1513289999999998,2
1737286278.7477589,20969,1737286278,648669888,base_link,0,1,33.6372173,72.9912843,504.65672537311946,0.506944,0.0,0.0,0.0,0.506944,0.0,0.0,0.0,1.1534760000000002,2
1737286278.8476307,20970,1737286278,648671168,base_link,0,1,33.6372173,72.9912843,504.65672537311946,0.506944,0.0,0.0,0.0,0.506944,0.0,0.0,0.0,1.1534760000000002,2
1737286278.9463537,20971,1737286278,848673984,base_link,0,1,33.6372174,72.9912842,504.66672558894214,0.508369,0.0,0.0,0.0,0.508369,0.0,0.0,0.0,1.155625,2
1737286279.0476625,20972,1737286278,848675520,base_link,0,1,33.6372174,72.9912842,504.66672558894214,0.508369,0.0,0.0,0.0,0.508369,0.0,0.0,0.0,1.155625,2
1737286279.147643,20973,1737286279,48678336,base_link,0,1,33.6372175,72.9912842,504.66672620199046,0.508369,0.0,0.0,0.0,0.508369,0.0,0.0,0.0,1.1577760000000001,2
1737286279.2482736,20974,1737286279,48679872,base_link,0,1,33.6372175,72.9912842,504.66672620199046,0.508369,0.0,0.0,0.0,0.508369,0.0,0.0,0.0,1.1577760000000001,2
1737286279.3458378,20975,1737286279,248681408,base_link,0,1,33.6372176,72.9912842,504.67672681503876,0.5097959999999999,0.0,0.0,0.0,0.5097959999999999,0.0,0.0,0.0,1.159929,2
1737286279.4465802,20976,1737286279,248682944,base_link,0,1,33.6372176,72.9912842,504.67672681503876,0.5097959999999999,0.0,0.0,0.0,0.5097959999999999,0.0,0.0,0.0,1.159929,2
1737286279.5478387,20977,1737286279,448684224,base_link,0,1,33.6372177,72.9912842,504.6667274280872,0.5112249999999999,0.0,0.0,0.0,0.5112249999999999,0.0,0.0,0.0,1.159929,2
1737286279.6458488,20978,1737286279,448686016,base_link,0,1,33.6372177,72.9912842,504.6667274280872,0.5112249999999999,0.0,0.0,0.0,0.5112249999999999,0.0,0.0,0.0,1.159929,2
1737286279.7464845,20979,1737286279,648687552,base_link,0,1,33.6372177,72.9912842,504.6667274280872,0.5112249999999999,0.0,0.0,0.0,0.5112249999999999,0.0,0.0,0.0,1.1620840000000001,2
1737286279.848954,20980,1737286279,648689088,base_link,0,1,33.6372177,72.9912842,504.6667274280872,0.5112249999999999,0.0,0.0,0.0,0.5112249999999999,0.0,0.0,0.0,1.1620840000000001,2
1737286279.9480689,20981,1737286279,848690624,base_link,0,1,33.6372177,72.9912841,504.65672703086165,0.512656,0.0,0.0,0.0,0.512656,0.0,0.0,0.0,1.1642409999999999,2
1737286280.0474072,20982,1737286279,848692416,base_link,0,1,33.6372177,72.9912841,504.65672703086165,0.512656,0.0,0.0,0.0,0.512656,0.0,0.0,0.0,1.1642409999999999,2
1737286280.153355,20983,1737286280,48694208,base_link,0,1,33.6372177,72.9912841,504.64672703086165,0.512656,0.0,0.0,0.0,0.512656,0.0,0.0,0.0,1.1664,2
1737286280.2504725,20984,1737286280,48695488,base_link,0,1,33.6372177,72.9912841,504.64672703086165,0.512656,0.0,0.0,0.0,0.512656,0.0,0.0,0.0,1.1664,2
1737286280.3527875,20985,1737286280,248696768,base_link,0,1,33.6372177,72.991284,504.6267266336361,0.5140889999999999,0.0,0.0,0.0,0.5140889999999999,0.0,0.0,0.0,1.1664,2
1737286280.448002,20986,1737286280,248698048,base_link,0,1,33.6372177,72.991284,504.6267266336361,0.5140889999999999,0.0,0.0,0.0,0.5140889999999999,0.0,0.0,0.0,1.1664,2
1737286280.552791,20987,1737286280,448699328,base_link,0,1,33.6372178,72.991284,504.60672724668456,0.5140889999999999,0.0,0.0,0.0,0.5140889999999999,0.0,0.0,0.0,1.168561,2
1737286280.6470056,20988,1737286280,448700608,base_link,0,1,33.6372178,72.991284,504.60672724668456,0.5140889999999999,0.0,0.0,0.0,0.5140889999999999,0.0,0.0,0.0,1.168561,2
1737286280.7475808,20989,1737286280,648701888,base_link,0,1,33.6372177,72.991284,504.59672663363614,0.515524,0.0,0.0,0.0,0.515524,0.0,0.0,0.0,1.170724,2
1737286280.849027,20990,1737286280,648703424,base_link,0,1,33.6372177,72.991284,504.59672663363614,0.515524,0.0,0.0,0.0,0.515524,0.0,0.0,0.0,1.170724,2
1737286280.9483273,20991,1737286280,848704704,base_link,0,1,33.6372177,72.991284,504.58672663363603,0.515524,0.0,0.0,0.0,0.515524,0.0,0.0,0.0,1.170724,2
1737286281.048192,20992,1737286280,848705984,base_link,0,1,33.6372177,72.991284,504.58672663363603,0.515524,0.0,0.0,0.0,0.515524,0.0,0.0,0.0,1.170724,2
1737286281.1467054,20993,1737286281,48701120,base_link,0,1,33.6372176,72.991284,504.57672602058767,0.516961,0.0,0.0,0.0,0.516961,0.0,0.0,0.0,1.1728889999999998,2
1737286281.2470033,20994,1737286281,48702912,base_link,0,1,33.6372176,72.991284,504.57672602058767,0.516961,0.0,0.0,0.0,0.516961,0.0,0.0,0.0,1.1728889999999998,2
1737286281.346105,20995,1737286281,248704192,base_link,0,1,33.6372175,72.9912839,504.5667250103141,0.516961,0.0,0.0,0.0,0.516961,0.0,0.0,0.0,1.175056,2
1737286281.4461577,20996,1737286281,248705728,base_link,0,1,33.6372175,72.9912839,504.5667250103141,0.516961,0.0,0.0,0.0,0.516961,0.0,0.0,0.0,1.175056,2
1737286281.5467422,20997,1737286281,448707264,base_link,0,1,33.6372174,72.9912838,504.56672400004055,0.5184,0.0,0.0,0.0,0.5184,0.0,0.0,0.0,1.177225,2
1737286281.645269,20998,1737286281,448708800,base_link,0,1,33.6372174,72.9912838,504.56672400004055,0.5184,0.0,0.0,0.0,0.5184,0.0,0.0,0.0,1.177225,2
1737286281.7494402,20999,1737286281,648710336,base_link,0,1,33.6372174,72.9912837,504.5467236028152,0.5184,0.0,0.0,0.0,0.5184,0.0,0.0,0.0,1.177225,2
1737286281.8464236,21000,1737286281,648711872,base_link,0,1,33.6372174,72.9912837,504.5467236028152,0.5184,0.0,0.0,0.0,0.5184,0.0,0.0,0.0,1.177225,2
1737286281.94625,21001,1737286281,848713152,base_link,0,1,33.6372174,72.9912836,504.5267232055899,0.519841,0.0,0.0,0.0,0.519841,0.0,0.0,0.0,1.179396,2
1737286282.0483816,21002,1737286281,848714688,base_link,0,1,33.6372174,72.9912836,504.5267232055899,0.519841,0.0,0.0,0.0,0.519841,0.0,0.0,0.0,1.179396,2
1737286282.1476023,21003,1737286282,48715968,base_link,0,1,33.6372174,72.9912835,504.5067228083646,0.521284,0.0,0.0,0.0,0.521284,0.0,0.0,0.0,1.1815689999999999,2
1737286282.2485216,21004,1737286282,48717248,base_link,0,1,33.6372174,72.9912835,504.5067228083646,0.521284,0.0,0.0,0.0,0.521284,0.0,0.0,0.0,1.1815689999999999,2
1737286282.3500736,21005,1737286282,248718272,base_link,0,1,33.6372174,72.9912834,504.4867224111394,0.521284,0.0,0.0,0.0,0.521284,0.0,0.0,0.0,1.1837440000000001,2
1737286282.4495127,21006,1737286282,248719808,base_link,0,1,33.6372174,72.9912834,504.4867224111394,0.521284,0.0,0.0,0.0,0.521284,0.0,0.0,0.0,1.1837440000000001,2
1737286282.5504212,21007,1737286282,448721088,base_link,0,1,33.6372175,72.9912833,504.48672262696203,0.522729,0.0,0.0,0.0,0.522729,0.0,0.0,0.0,1.185921,2
1737286282.6472583,21008,1737286282,448722624,base_link,0,1,33.6372175,72.9912833,504.48672262696203,0.522729,0.0,0.0,0.0,0.522729,0.0,0.0,0.0,1.185921,2
1737286282.7454252,21009,1737286282,648723904,base_link,0,1,33.6372175,72.9912833,504.46672262696205,0.522729,0.0,0.0,0.0,0.522729,0.0,0.0,0.0,1.1881000000000002,2
1737286282.8458607,21010,1737286282,648725440,base_link,0,1,33.6372175,72.9912833,504.46672262696205,0.522729,0.0,0.0,0.0,0.522729,0.0,0.0,0.0,1.1881000000000002,2
1737286282.9477715,21011,1737286282,848726464,base_link,0,1,33.6372174,72.9912833,504.4467220139141,0.524176,0.0,0.0,0.0,0.524176,0.0,0.0,0.0,1.1881000000000002,2
1737286283.0457242,21012,1737286282,848728256,base_link,0,1,33.6372174,72.9912833,504.4467220139141,0.524176,0.0,0.0,0.0,0.524176,0.0,0.0,0.0,1.1881000000000002,2
1737286283.1475956,21013,1737286283,48730048,base_link,0,1,33.6372174,72.9912832,504.4467216166888,0.525625,0.0,0.0,0.0,0.525625,0.0,0.0,0.0,1.190281,2
1737286283.2468448,21014,1737286283,48731840,base_link,0,1,33.6372174,72.9912832,504.4467216166888,0.525625,0.0,0.0,0.0,0.525625,0.0,0.0,0.0,1.190281,2
1737286283.3476586,21015,1737286283,248733632,base_link,0,1,33.6372173,72.9912832,504.42672100364115,0.525625,0.0,0.0,0.0,0.525625,0.0,0.0,0.0,1.190281,2
1737286283.4466689,21016,1737286283,248735424,base_link,0,1,33.6372173,72.9912832,504.42672100364115,0.525625,0.0,0.0,0.0,0.525625,0.0,0.0,0.0,1.190281,2
1737286283.546085,21017,1737286283,448736960,base_link,0,1,33.6372173,72.9912832,504.41672100364116,0.527076,0.0,0.0,0.0,0.527076,0.0,0.0,0.0,1.190281,2
1737286283.6464403,21018,1737286283,448737472,base_link,0,1,33.6372173,72.9912832,504.41672100364116,0.527076,0.0,0.0,0.0,0.527076,0.0,0.0,0.0,1.190281,2
1737286283.7468746,21019,1737286283,648739264,base_link,0,1,33.6372174,72.9912832,504.39672161668886,0.527076,0.0,0.0,0.0,0.527076,0.0,0.0,0.0,1.190281,2
1737286283.8461552,21020,1737286283,648739520,base_link,0,1,33.6372174,72.9912832,504.39672161668886,0.527076,0.0,0.0,0.0,0.527076,0.0,0.0,0.0,1.190281,2
1737286283.9503195,21021,1737286283,848741056,base_link,0,1,33.6372174,72.9912833,504.37672201391416,0.527076,0.0,0.0,0.0,0.527076,0.0,0.0,0.0,1.1924640000000002,2
1737286284.0505338,21022,1737286283,848741312,base_link,0,1,33.6372174,72.9912833,504.37672201391416,0.527076,0.0,0.0,0.0,0.527076,0.0,0.0,0.0,1.1924640000000002,2
1737286284.1500046,21023,1737286284,48743104,base_link,0,1,33.6372173,72.9912834,504.36672179809165,0.5285289999999999,0.0,0.0,0.0,0.5285289999999999,0.0,0.0,0.0,1.1924640000000002,2
1737286284.2475402,21024,1737286284,48743616,base_link,0,1,33.6372173,72.9912834,504.36672179809165,0.5285289999999999,0.0,0.0,0.0,0.5285289999999999,0.0,0.0,0.0,1.1924640000000002,2
1737286284.3482306,21025,1737286284,248745408,base_link,0,1,33.6372173,72.9912835,504.3767221953168,0.5285289999999999,0.0,0.0,0.0,0.5285289999999999,0.0,0.0,0.0,1.1924640000000002,2
1737286284.4460304,21026,1737286284,248745920,base_link,0,1,33.6372173,72.9912835,504.3767221953168,0.5285289999999999,0.0,0.0,0.0,0.5285289999999999,0.0,0.0,0.0,1.1924640000000002,2
1737286284.547036,21027,1737286284,448747712,base_link,0,1,33.6372172,72.9912835,504.356721582269,0.5285289999999999,0.0,0.0,0.0,0.5285289999999999,0.0,0.0,0.0,1.1924640000000002,2
1737286284.6479118,21028,1737286284,448748224,base_link,0,1,33.6372172,72.9912835,504.356721582269,0.5285289999999999,0.0,0.0,0.0,0.5285289999999999,0.0,0.0,0.0,1.1924640000000002,2
1737286284.7471793,21029,1737286284,648750016,base_link,0,1,33.6372172,72.9912835,504.3367215822689,0.529984,0.0,0.0,0.0,0.529984,0.0,0.0,0.0,1.1924640000000002,2
1737286284.8488793,21030,1737286284,648750528,base_link,0,1,33.6372172,72.9912835,504.3367215822689,0.529984,0.0,0.0,0.0,0.529984,0.0,0.0,0.0,1.1924640000000002,2
1737286284.9462285,21031,1737286284,848752320,base_link,0,1,33.6372172,72.9912836,504.3367219794942,0.529984,0.0,0.0,0.0,0.529984,0.0,0.0,0.0,1.1924640000000002,2
1737286285.0491068,21032,1737286284,848753088,base_link,0,1,33.6372172,72.9912836,504.3367219794942,0.529984,0.0,0.0,0.0,0.529984,0.0,0.0,0.0,1.1924640000000002,2
1737286285.145902,21033,1737286285,48755392,base_link,0,1,33.6372171,72.9912836,504.3167213664465,0.529984,0.0,0.0,0.0,0.529984,0.0,0.0,0.0,1.1924640000000002,2
1737286285.2484846,21034,1737286285,48756160,base_link,0,1,33.6372171,72.9912836,504.3167213664465,0.529984,0.0,0.0,0.0,0.529984,0.0,0.0,0.0,1.1924640000000002,2
1737286285.3481612,21035,1737286285,248758464,base_link,0,1,33.6372172,72.9912837,504.31672237671944,0.529984,0.0,0.0,0.0,0.529984,0.0,0.0,0.0,1.1946489999999998,2
1737286285.4486673,21036,1737286285,248759232,base_link,0,1,33.6372172,72.9912837,504.31672237671944,0.529984,0.0,0.0,0.0,0.529984,0.0,0.0,0.0,1.1946489999999998,2
1737286285.5476387,21037,1737286285,448761280,base_link,0,1,33.6372173,72.9912838,504.2967233869926,0.529984,0.0,0.0,0.0,0.529984,0.0,0.0,0.0,1.1946489999999998,2
1737286285.6466968,21038,1737286285,448762048,base_link,0,1,33.6372173,72.9912838,504.2967233869926,0.529984,0.0,0.0,0.0,0.529984,0.0,0.0,0.0,1.1946489999999998,2
1737286285.7581944,21039,1737286285,648764096,base_link,0,1,33.6372172,72.9912838,504.2867227739447,0.5314409999999999,0.0,0.0,0.0,0.5314409999999999,0.0,0.0,0.0,1.1968360000000002,2
1737286285.8487647,21040,1737286285,648764864,base_link,0,1,33.6372172,72.9912838,504.2867227739447,0.5314409999999999,0.0,0.0,0.0,0.5314409999999999,0.0,0.0,0.0,1.1968360000000002,2
1737286285.947775,21041,1737286285,848767168,base_link,0,1,33.6372172,72.9912838,504.2767227739447,0.5314409999999999,0.0,0.0,0.0,0.5314409999999999,0.0,0.0,0.0,1.199025,2
1737286286.0454578,21042,1737286285,848767936,base_link,0,1,33.6372172,72.9912838,504.2767227739447,0.5314409999999999,0.0,0.0,0.0,0.5314409999999999,0.0,0.0,0.0,1.199025,2
1737286286.14689,21043,1737286286,48769984,base_link,0,1,33.6372172,72.9912838,504.2667227739447,0.5314409999999999,0.0,0.0,0.0,0.5314409999999999,0.0,0.0,0.0,1.199025,2
1737286286.2480934,21044,1737286286,48771008,base_link,0,1,33.6372172,72.9912838,504.2667227739447,0.5314409999999999,0.0,0.0,0.0,0.5314409999999999,0.0,0.0,0.0,1.199025,2
1737286286.3480442,21045,1737286286,248773312,base_link,0,1,33.6372171,72.9912839,504.2667225581222,0.5328999999999999,0.0,0.0,0.0,0.5328999999999999,0.0,0.0,0.0,1.2012160000000003,2
1737286286.4491494,21046,1737286286,248774080,base_link,0,1,33.6372171,72.9912839,504.2667225581222,0.5328999999999999,0.0,0.0,0.0,0.5328999999999999,0.0,0.0,0.0,1.2012160000000003,2
1737286286.54897,21047,1737286286,448776384,base_link,0,1,33.637217,72.9912839,504.2667219450744,0.5328999999999999,0.0,0.0,0.0,0.5328999999999999,0.0,0.0,0.0,1.203409,2
1737286286.6475298,21048,1737286286,448777408,base_link,0,1,33.637217,72.9912839,504.2667219450744,0.5328999999999999,0.0,0.0,0.0,0.5328999999999999,0.0,0.0,0.0,1.203409,2
1737286286.748731,21049,1737286286,648778176,base_link,0,1,33.637217,72.9912839,504.2667219450744,0.5328999999999999,0.0,0.0,0.0,0.5328999999999999,0.0,0.0,0.0,1.2056040000000001,2
1737286286.847902,21050,1737286286,648779200,base_link,0,1,33.637217,72.9912839,504.2667219450744,0.5328999999999999,0.0,0.0,0.0,0.5328999999999999,0.0,0.0,0.0,1.2056040000000001,2
1737286286.9486425,21051,1737286286,848781248,base_link,0,1,33.6372169,72.991284,504.2567217292518,0.5328999999999999,0.0,0.0,0.0,0.5328999999999999,0.0,0.0,0.0,1.2056040000000001,2
1737286287.0490878,21052,1737286286,848782016,base_link,0,1,33.6372169,72.991284,504.2567217292518,0.5328999999999999,0.0,0.0,0.0,0.5328999999999999,0.0,0.0,0.0,1.2056040000000001,2
1737286287.1462524,21053,1737286287,48784320,base_link,0,1,33.6372169,72.991284,504.2367217292518,0.5328999999999999,0.0,0.0,0.0,0.5328999999999999,0.0,0.0,0.0,1.207801,2
1737286287.2478254,21054,1737286287,48785088,base_link,0,1,33.6372169,72.991284,504.2367217292518,0.5328999999999999,0.0,0.0,0.0,0.5328999999999999,0.0,0.0,0.0,1.207801,2
1737286287.3495932,21055,1737286287,248787392,base_link,0,1,33.6372169,72.991284,504.22672172925184,0.5328999999999999,0.0,0.0,0.0,0.5328999999999999,0.0,0.0,0.0,1.2100000000000002,2
1737286287.4470448,21056,1737286287,248788160,base_link,0,1,33.6372169,72.991284,504.22672172925184,0.5328999999999999,0.0,0.0,0.0,0.5328999999999999,0.0,0.0,0.0,1.2100000000000002,2
1737286287.5504744,21057,1737286287,448788928,base_link,0,1,33.637217,72.991284,504.2167223422996,0.5328999999999999,0.0,0.0,0.0,0.5328999999999999,0.0,0.0,0.0,1.2122009999999999,2
1737286287.6489282,21058,1737286287,448789696,base_link,0,1,33.637217,72.991284,504.2167223422996,0.5328999999999999,0.0,0.0,0.0,0.5328999999999999,0.0,0.0,0.0,1.2122009999999999,2
1737286287.7487533,21059,1737286287,648790720,base_link,0,1,33.637217,72.9912841,504.19672273952483,0.5328999999999999,0.0,0.0,0.0,0.5328999999999999,0.0,0.0,0.0,1.2144040000000003,2
1737286287.8473856,21060,1737286287,648791744,base_link,0,1,33.637217,72.9912841,504.19672273952483,0.5328999999999999,0.0,0.0,0.0,0.5328999999999999,0.0,0.0,0.0,1.2144040000000003,2
1737286287.9484715,21061,1737286287,848792000,base_link,0,1,33.6372171,72.9912841,504.17672335257265,0.5328999999999999,0.0,0.0,0.0,0.5328999999999999,0.0,0.0,0.0,1.216609,2
1737286288.0463693,21062,1737286287,848793024,base_link,0,1,33.6372171,72.9912841,504.17672335257265,0.5328999999999999,0.0,0.0,0.0,0.5328999999999999,0.0,0.0,0.0,1.216609,2
1737286288.1489296,21063,1737286288,48794048,base_link,0,1,33.6372171,72.9912842,504.16672374979794,0.5328999999999999,0.0,0.0,0.0,0.5328999999999999,0.0,0.0,0.0,1.2188160000000001,2
1737286288.2485135,21064,1737286288,48795328,base_link,0,1,33.6372171,72.9912842,504.16672374979794,0.5328999999999999,0.0,0.0,0.0,0.5328999999999999,0.0,0.0,0.0,1.2188160000000001,2
1737286288.3487096,21065,1737286288,248796096,base_link,0,1,33.6372172,72.9912842,504.1567243628459,0.5328999999999999,0.0,0.0,0.0,0.5328999999999999,0.0,0.0,0.0,1.2188160000000001,2
1737286288.4492497,21066,1737286288,248797120,base_link,0,1,33.6372172,72.9912842,504.1567243628459,0.5328999999999999,0.0,0.0,0.0,0.5328999999999999,0.0,0.0,0.0,1.2188160000000001,2
1737286288.5484521,21067,1737286288,448797888,base_link,0,1,33.6372172,72.9912843,504.1567247600713,0.5328999999999999,0.0,0.0,0.0,0.5328999999999999,0.0,0.0,0.0,1.221025,2
1737286288.647221,21068,1737286288,448799168,base_link,0,1,33.6372172,72.9912843,504.1567247600713,0.5328999999999999,0.0,0.0,0.0,0.5328999999999999,0.0,0.0,0.0,1.221025,2
1737286288.7484343,21069,1737286288,648799936,base_link,0,1,33.6372172,72.9912843,504.1667247600713,0.5328999999999999,0.0,0.0,0.0,0.5328999999999999,0.0,0.0,0.0,1.2232360000000002,2
1737286288.8485198,21070,1737286288,648800960,base_link,0,1,33.6372172,72.9912843,504.1667247600713,0.5328999999999999,0.0,0.0,0.0,0.5328999999999999,0.0,0.0,0.0,1.2232360000000002,2
1737286288.9468572,21071,1737286288,848802240,base_link,0,1,33.6372173,72.9912843,504.17672537311944,0.5328999999999999,0.0,0.0,0.0,0.5328999999999999,0.0,0.0,0.0,1.225449,2
1737286289.045532,21072,1737286288,848803520,base_link,0,1,33.6372173,72.9912843,504.17672537311944,0.5328999999999999,0.0,0.0,0.0,0.5328999999999999,0.0,0.0,0.0,1.225449,2
1737286289.1508858,21073,1737286289,48804544,base_link,0,1,33.6372173,72.9912844,504.19672577034487,0.5328999999999999,0.0,0.0,0.0,0.5328999999999999,0.0,0.0,0.0,1.2276640000000003,2
