Time,header.seq,header.stamp.secs,header.stamp.nsecs,header.frame_id,magnetic_field.x,magnetic_field.y,magnetic_field.z,magnetic_field_covariance_0,magnetic_field_covariance_1,magnetic_field_covariance_2,magnetic_field_covariance_3,magnetic_field_covariance_4,magnetic_field_covariance_5,magnetic_field_covariance_6,magnetic_field_covariance_7,magnetic_field_covariance_8
1737286264.303062,20726,1737286254,341618976,base_link,-360000.0,3999.9999999999613,-316000.0,-1.0,0.0,0.0,0.0,0.0,0.0,0.0,0.0,0.0
1737286264.3033204,20727,1737286254,443558768,base_link,-364000.0,-4.212784989066895e-11,-344000.0,-1.0,0.0,0.0,0.0,0.0,0.0,0.0,0.0,0.0
1737286264.3033571,20728,1737286254,541568840,base_link,-355000.0,5999.999999999961,-319000.0,-1.0,0.0,0.0,0.0,0.0,0.0,0.0,0.0,0.0
1737286264.3035204,20729,1737286254,641590888,base_link,-356000.0,2999.999999999959,-333000.0,-1.0,0.0,0.0,0.0,0.0,0.0,0.0,0.0,0.0
1737286264.3048608,20730,1737286254,741568680,base_link,-361000.0,2999.999999999961,-319000.0,-1.0,0.0,0.0,0.0,0.0,0.0,0.0,0.0,0.0
1737286264.3051221,20731,1737286254,841581728,base_link,-363000.0,-3.771912141373848e-11,-308000.0,-1.0,0.0,0.0,0.0,0.0,0.0,0.0,0.0,0.0
1737286264.305373,20732,1737286254,941583056,base_link,-369000.0,13999.999999999958,-339000.0,-1.0,0.0,0.0,0.0,0.0,0.0,0.0,0.0,0.0
1737286264.3057787,20733,1737286255,41606848,base_link,-375000.0,14999.999999999958,-343000.0,-1.0,0.0,0.0,0.0,0.0,0.0,0.0,0.0,0.0
1737286264.3060596,20734,1737286255,141606312,base_link,-375000.0,10999.999999999958,-348000.0,-1.0,0.0,0.0,0.0,0.0,0.0,0.0,0.0,0.0
1737286264.3063872,20735,1737286255,241623360,base_link,-375000.0,-4.200538521075422e-11,-343000.0,-1.0,0.0,0.0,0.0,0.0,0.0,0.0,0.0,0.0
1737286264.30661,20736,1737286255,341688432,base_link,-381000.0,999.9999999999573,-349000.0,-1.0,0.0,0.0,0.0,0.0,0.0,0.0,0.0,0.0
1737286264.306912,20737,1737286255,441581480,base_link,-366000.0,-2000.0000000000416,-340000.0,-1.0,0.0,0.0,0.0,0.0,0.0,0.0,0.0,0.0
1737286264.3071947,20738,1737286255,541620272,base_link,-368000.0,-18000.00000000004,-326000.0,-1.0,0.0,0.0,0.0,0.0,0.0,0.0,0.0,0.0
1737286264.307584,20739,1737286255,641602576,base_link,-363000.0,-53000.000000000044,-349000.0,-1.0,0.0,0.0,0.0,0.0,0.0,0.0,0.0,0.0
1737286264.307828,20740,1737286255,741613624,base_link,-354000.0,-93000.00000000004,-352000.0,-1.0,0.0,0.0,0.0,0.0,0.0,0.0,0.0,0.0
1737286264.3080516,20741,1737286255,841615672,base_link,-347000.0,-130000.00000000004,-342000.0,-1.0,0.0,0.0,0.0,0.0,0.0,0.0,0.0,0.0
1737286264.3086424,20742,1737286255,941615000,base_link,-321000.0,-156000.00000000003,-337000.0,-1.0,0.0,0.0,0.0,0.0,0.0,0.0,0.0,0.0
1737286264.3088567,20743,1737286256,43618304,base_link,-299000.0,-198000.00000000003,-339000.0,-1.0,0.0,0.0,0.0,0.0,0.0,0.0,0.0,0.0
1737286264.3092322,20744,1737286256,141697888,base_link,-269000.0,-229000.00000000003,-337000.0,-1.0,0.0,0.0,0.0,0.0,0.0,0.0,0.0,0.0
1737286264.3094864,20745,1737286256,241633936,base_link,-235000.0,-255000.00000000006,-360999.99999999994,-1.0,0.0,0.0,0.0,0.0,0.0,0.0,0.0,0.0
1737286264.309833,20746,1737286256,341586984,base_link,-190000.0,-267000.00000000006,-361999.99999999994,-1.0,0.0,0.0,0.0,0.0,0.0,0.0,0.0,0.0
1737286264.310218,20747,1737286256,441642288,base_link,-155000.0,-279000.00000000006,-331999.99999999994,-1.0,0.0,0.0,0.0,0.0,0.0,0.0,0.0,0.0
1737286264.3104503,20748,1737286256,541634872,base_link,-121000.0,-270000.00000000006,-331999.99999999994,-1.0,0.0,0.0,0.0,0.0,0.0,0.0,0.0,0.0
1737286264.3106866,20749,1737286256,641621176,base_link,-91000.0,-267000.00000000006,-330999.99999999994,-1.0,0.0,0.0,0.0,0.0,0.0,0.0,0.0,0.0
1737286264.3109114,20750,1737286256,743624480,base_link,-62000.0,-265000.00000000006,-360999.99999999994,-1.0,0.0,0.0,0.0,0.0,0.0,0.0,0.0,0.0
1737286264.3116686,20751,1737286256,841667784,base_link,-34000.0,-258000.00000000006,-357999.99999999994,-1.0,0.0,0.0,0.0,0.0,0.0,0.0,0.0,0.0
1737286264.31186,20752,1737286256,941628832,base_link,-11000.0,-263000.00000000006,-387999.99999999994,-1.0,0.0,0.0,0.0,0.0,0.0,0.0,0.0,0.0
1737286264.312244,20753,1737286257,41678136,base_link,7000.0,-255000.00000000006,-400999.99999999994,-1.0,0.0,0.0,0.0,0.0,0.0,0.0,0.0,0.0
1737286264.3124068,20754,1737286257,141647952,base_link,39000.0,-238000.00000000006,-365999.99999999994,-1.0,0.0,0.0,0.0,0.0,0.0,0.0,0.0,0.0
1737286264.3126283,20755,1737286257,241635256,base_link,60000.0,-236000.00000000006,-385000.0,-1.0,0.0,0.0,0.0,0.0,0.0,0.0,0.0,0.0
1737286264.3130648,20756,1737286257,341635816,base_link,100000.0,-233000.00000000006,-402000.0,-1.0,0.0,0.0,0.0,0.0,0.0,0.0,0.0,0.0
1737286264.3132858,20757,1737286257,441673376,base_link,137000.0,-224000.00000000006,-370000.0,-1.0,0.0,0.0,0.0,0.0,0.0,0.0,0.0,0.0
1737286264.313377,20758,1737286257,541653680,base_link,165000.0,-219000.00000000006,-387000.0,-1.0,0.0,0.0,0.0,0.0,0.0,0.0,0.0,0.0
1737286264.3135736,20759,1737286257,641666496,base_link,178000.0,-185000.00000000006,-378000.0,-1.0,0.0,0.0,0.0,0.0,0.0,0.0,0.0,0.0
1737286264.3140032,20760,1737286257,741672800,base_link,186000.0,-137000.00000000006,-391000.0,-1.0,0.0,0.0,0.0,0.0,0.0,0.0,0.0,0.0
1737286264.3144112,20761,1737286257,841654104,base_link,201000.0,-102000.00000000004,-358000.0,-1.0,0.0,0.0,0.0,0.0,0.0,0.0,0.0,0.0
1737286264.3150613,20762,1737286257,941679896,base_link,193000.0,-82000.00000000004,-397000.0,-1.0,0.0,0.0,0.0,0.0,0.0,0.0,0.0,0.0
1737286264.3153481,20763,1737286258,43710456,base_link,192000.0,-42000.00000000005,-427000.0,-1.0,0.0,0.0,0.0,0.0,0.0,0.0,0.0,0.0
1737286264.3156667,20764,1737286258,143697504,base_link,218000.0,-7000.000000000045,-367000.0,-1.0,0.0,0.0,0.0,0.0,0.0,0.0,0.0,0.0
1737286264.3165255,20765,1737286258,241620808,base_link,229000.0,13999.999999999956,-358000.0,-1.0,0.0,0.0,0.0,0.0,0.0,0.0,0.0,0.0
1737286264.3169456,20766,1737286258,341631856,base_link,229000.0,35999.999999999956,-354000.0,-1.0,0.0,0.0,0.0,0.0,0.0,0.0,0.0,0.0
1737286264.3173616,20767,1737286258,441649416,base_link,219000.0,58999.999999999956,-352000.0,-1.0,0.0,0.0,0.0,0.0,0.0,0.0,0.0,0.0
1737286264.3176217,20768,1737286258,541643464,base_link,209000.0,73999.99999999996,-362000.0,-1.0,0.0,0.0,0.0,0.0,0.0,0.0,0.0,0.0
1737286264.3179195,20769,1737286258,641677024,base_link,202000.0,80999.99999999996,-364000.0,-1.0,0.0,0.0,0.0,0.0,0.0,0.0,0.0,0.0
1737286264.3180816,20770,1737286258,741674328,base_link,203000.0,72999.99999999996,-375000.0,-1.0,0.0,0.0,0.0,0.0,0.0,0.0,0.0,0.0
1737286264.3183045,20771,1737286258,841723144,base_link,203000.0,71999.99999999996,-355000.0,-1.0,0.0,0.0,0.0,0.0,0.0,0.0,0.0,0.0
1737286264.3189247,20772,1737286258,941622192,base_link,207000.0,68999.99999999996,-367000.0,-1.0,0.0,0.0,0.0,0.0,0.0,0.0,0.0,0.0
1737286264.3193488,20773,1737286259,41657496,base_link,208000.0,52999.999999999956,-374000.0,-1.0,0.0,0.0,0.0,0.0,0.0,0.0,0.0,0.0
1737286264.319572,20774,1737286259,141647056,base_link,216000.0,45999.999999999956,-355000.0,-1.0,0.0,0.0,0.0,0.0,0.0,0.0,0.0,0.0
1737286264.320501,20775,1737286259,241692872,base_link,218000.0,48999.999999999956,-367000.0,-1.0,0.0,0.0,0.0,0.0,0.0,0.0,0.0,0.0
1737286264.3206816,20776,1737286259,341683432,base_link,214000.0,38999.99999999995,-396000.0,-1.0,0.0,0.0,0.0,0.0,0.0,0.0,0.0,0.0
1737286264.323179,20777,1737286259,441664992,base_link,215000.0,30999.999999999953,-375000.0,-1.0,0.0,0.0,0.0,0.0,0.0,0.0,0.0,0.0
1737286264.3233593,20778,1737286259,541740040,base_link,220000.0,9999.999999999956,-360000.0,-1.0,0.0,0.0,0.0,0.0,0.0,0.0,0.0,0.0
1737286264.3242052,20779,1737286259,641713856,base_link,207000.0,999.999999999951,-400000.0,-1.0,0.0,0.0,0.0,0.0,0.0,0.0,0.0,0.0
1737286264.3242948,20780,1737286259,741686416,base_link,214000.0,999.9999999999496,-411000.0,-1.0,0.0,0.0,0.0,0.0,0.0,0.0,0.0,0.0
1737286264.324387,20781,1737286259,841712976,base_link,225000.0,-4000.0000000000473,-388000.0,-1.0,0.0,0.0,0.0,0.0,0.0,0.0,0.0,0.0
1737286264.3245409,20782,1737286259,941630792,base_link,225000.0,-1000.0000000000488,-398000.0,-1.0,0.0,0.0,0.0,0.0,0.0,0.0,0.0,0.0
1737286264.325812,20783,1737286260,41749608,base_link,223000.0,-12000.000000000045,-372000.0,-1.0,0.0,0.0,0.0,0.0,0.0,0.0,0.0,0.0
1737286264.3297446,20784,1737286260,141694424,base_link,219000.0,-6000.000000000047,-385000.0,-1.0,0.0,0.0,0.0,0.0,0.0,0.0,0.0,0.0
1737286264.3297822,20785,1737286260,241755240,base_link,217000.0,-3000.0000000000464,-378000.0,-1.0,0.0,0.0,0.0,0.0,0.0,0.0,0.0,0.0
1737286264.3298278,20786,1737286260,341701056,base_link,218000.0,2999.999999999952,-393000.0,-1.0,0.0,0.0,0.0,0.0,0.0,0.0,0.0,0.0
1737286264.32986,20787,1737286260,441741872,base_link,224000.0,-5000.000000000048,-397000.0,-1.0,0.0,0.0,0.0,0.0,0.0,0.0,0.0,0.0
1737286264.3313751,20788,1737286260,543773688,base_link,223000.0,-4000.000000000046,-375000.0,-1.0,0.0,0.0,0.0,0.0,0.0,0.0,0.0,0.0
1737286264.3322582,20789,1737286260,643817504,base_link,222000.0,999.9999999999541,-375000.0,-1.0,0.0,0.0,0.0,0.0,0.0,0.0,0.0,0.0
1737286264.3329353,20790,1737286260,741732320,base_link,226000.0,-4.5679325608196277e-11,-373000.0,-1.0,0.0,0.0,0.0,0.0,0.0,0.0,0.0,0.0
1737286264.3334246,20791,1737286260,841678392,base_link,228000.0,1999.9999999999534,-381000.0,-1.0,0.0,0.0,0.0,0.0,0.0,0.0,0.0,0.0
1737286264.333536,20792,1737286260,941677208,base_link,224000.0,4999.999999999954,-378000.0,-1.0,0.0,0.0,0.0,0.0,0.0,0.0,0.0,0.0
1737286264.3354244,20793,1737286261,41749024,base_link,222000.0,5999.9999999999545,-375000.0,-1.0,0.0,0.0,0.0,0.0,0.0,0.0,0.0,0.0
1737286264.3356907,20794,1737286261,141730096,base_link,223000.0,12999.999999999953,-382000.0,-1.0,0.0,0.0,0.0,0.0,0.0,0.0,0.0,0.0
1737286264.335839,20795,1737286261,241762632,base_link,220000.0,999.9999999999545,-371000.0,-1.0,0.0,0.0,0.0,0.0,0.0,0.0,0.0,0.0
1737286264.3359053,20796,1737286261,341717912,base_link,223000.0,2999.9999999999504,-405000.0,-1.0,0.0,0.0,0.0,0.0,0.0,0.0,0.0,0.0
1737286264.3360996,20797,1737286261,441751704,base_link,225000.0,-3000.000000000045,-368000.0,-1.0,0.0,0.0,0.0,0.0,0.0,0.0,0.0,0.0
1737286264.336307,20798,1737286261,541773728,base_link,228000.0,1999.9999999999548,-370000.0,-1.0,0.0,0.0,0.0,0.0,0.0,0.0,0.0,0.0
1737286264.3363802,20799,1737286261,641751008,base_link,226000.0,18999.999999999956,-368000.0,-1.0,0.0,0.0,0.0,0.0,0.0,0.0,0.0,0.0
1737286264.3367438,20800,1737286261,741762288,base_link,220000.0,23999.999999999953,-375000.0,-1.0,0.0,0.0,0.0,0.0,0.0,0.0,0.0,0.0
1737286264.3367953,20801,1737286261,843724824,base_link,214000.0,17999.999999999953,-393000.0,-1.0,0.0,0.0,0.0,0.0,0.0,0.0,0.0,0.0
1737286264.336825,20802,1737286261,941749640,base_link,221000.0,10999.999999999955,-375000.0,-1.0,0.0,0.0,0.0,0.0,0.0,0.0,0.0,0.0
1737286264.3369474,20803,1737286262,41760176,base_link,222000.0,13999.999999999955,-375000.0,-1.0,0.0,0.0,0.0,0.0,0.0,0.0,0.0,0.0
1737286264.337017,20804,1737286262,141760736,base_link,220000.0,30999.999999999953,-373000.0,-1.0,0.0,0.0,0.0,0.0,0.0,0.0,0.0,0.0
1737286264.3371,20805,1737286262,241776016,base_link,213000.0,18999.999999999953,-394000.0,-1.0,0.0,0.0,0.0,0.0,0.0,0.0,0.0,0.0
1737286264.337249,20806,1737286262,343809832,base_link,216000.0,13999.99999999995,-398000.0,-1.0,0.0,0.0,0.0,0.0,0.0,0.0,0.0,0.0
1737286264.3400517,20807,1737286262,441832368,base_link,216000.0,4999.9999999999545,-375000.0,-1.0,0.0,0.0,0.0,0.0,0.0,0.0,0.0,0.0
1737286264.3403478,20808,1737286262,541720928,base_link,222000.0,3999.9999999999536,-380000.0,-1.0,0.0,0.0,0.0,0.0,0.0,0.0,0.0,0.0
1737286264.3413756,20809,1737286262,641788464,base_link,223000.0,9999.999999999953,-391000.0,-1.0,0.0,0.0,0.0,0.0,0.0,0.0,0.0,0.0
1737286264.3415675,20810,1737286262,741774024,base_link,222000.0,7999.999999999952,-397000.0,-1.0,0.0,0.0,0.0,0.0,0.0,0.0,0.0,0.0
1737286264.3416317,20811,1737286262,841766560,base_link,218000.0,7999.9999999999545,-369000.0,-1.0,0.0,0.0,0.0,0.0,0.0,0.0,0.0,0.0
1737286264.341649,20812,1737286262,941794584,base_link,217000.0,15999.999999999953,-381000.0,-1.0,0.0,0.0,0.0,0.0,0.0,0.0,0.0,0.0
1737286264.3418612,20813,1737286263,41791584,base_link,219000.0,18999.999999999953,-374000.0,-1.0,0.0,0.0,0.0,0.0,0.0,0.0,0.0,0.0
1737286264.3419292,20814,1737286263,141765656,base_link,217000.0,15999.999999999955,-376000.0,-1.0,0.0,0.0,0.0,0.0,0.0,0.0,0.0,0.0
1737286264.3438237,20815,1737286263,241749448,base_link,229000.0,18999.999999999956,-367000.0,-1.0,0.0,0.0,0.0,0.0,0.0,0.0,0.0,0.0
1737286264.3443627,20816,1737286263,341805984,base_link,251000.0,8999.999999999958,-347000.0,-1.0,0.0,0.0,0.0,0.0,0.0,0.0,0.0,0.0
1737286264.344463,20817,1737286263,441767776,base_link,279000.0,6999.999999999957,-348000.0,-1.0,0.0,0.0,0.0,0.0,0.0,0.0,0.0,0.0
1737286264.3445272,20818,1737286263,541761568,base_link,295000.0,9999.99999999996,-321000.0,-1.0,0.0,0.0,0.0,0.0,0.0,0.0,0.0,0.0
1737286264.344581,20819,1737286263,641760104,base_link,314000.0,32999.99999999996,-302000.0,-1.0,0.0,0.0,0.0,0.0,0.0,0.0,0.0,0.0
1737286264.344599,20820,1737286263,743796640,base_link,314000.0,48999.99999999996,-285000.0,-1.0,0.0,0.0,0.0,0.0,0.0,0.0,0.0,0.0
1737286264.344904,20821,1737286263,841753432,base_link,301000.0,77999.99999999997,-292000.0,-1.0,0.0,0.0,0.0,0.0,0.0,0.0,0.0,0.0
1737286264.34495,20822,1737286263,941757224,base_link,296000.0,87999.99999999997,-266000.0,-1.0,0.0,0.0,0.0,0.0,0.0,0.0,0.0,0.0
1737286264.3466866,20823,1737286264,41782016,base_link,292000.0,117999.99999999997,-265000.0,-1.0,0.0,0.0,0.0,0.0,0.0,0.0,0.0,0.0
1737286264.3490427,20824,1737286264,141761808,base_link,278000.0,142999.99999999997,-254000.00000000003,-1.0,0.0,0.0,0.0,0.0,0.0,0.0,0.0,0.0
1737286264.35022,20825,1737286264,241844600,base_link,262000.0,133999.99999999997,-280000.0,-1.0,0.0,0.0,0.0,0.0,0.0,0.0,0.0,0.0
1737286264.3535688,20826,1737286264,341777392,base_link,253000.0,136999.99999999997,-283000.0,-1.0,0.0,0.0,0.0,0.0,0.0,0.0,0.0,0.0
1737286264.4457932,20827,1737286264,443822184,base_link,235000.0,141999.99999999997,-298000.0,-1.0,0.0,0.0,0.0,0.0,0.0,0.0,0.0,0.0
1737286264.5460806,20828,1737286264,541780720,base_link,225000.0,130999.99999999996,-331000.0,-1.0,0.0,0.0,0.0,0.0,0.0,0.0,0.0,0.0
1737286264.6461897,20829,1737286264,641728512,base_link,231000.0,115999.99999999996,-325000.0,-1.0,0.0,0.0,0.0,0.0,0.0,0.0,0.0,0.0
1737286264.7463908,20830,1737286264,741819304,base_link,236000.0,96999.99999999996,-332000.0,-1.0,0.0,0.0,0.0,0.0,0.0,0.0,0.0,0.0
1737286264.8435452,20831,1737286264,841810352,base_link,236000.0,83999.99999999996,-355000.0,-1.0,0.0,0.0,0.0,0.0,0.0,0.0,0.0,0.0
1737286264.9439664,20832,1737286264,941796424,base_link,232000.0,76999.99999999996,-364000.0,-1.0,0.0,0.0,0.0,0.0,0.0,0.0,0.0,0.0
1737286265.0463274,20833,1737286265,41791216,base_link,242000.0,89999.99999999996,-356000.0,-1.0,0.0,0.0,0.0,0.0,0.0,0.0,0.0,0.0
1737286265.146075,20834,1737286265,141863008,base_link,252000.0,70999.99999999996,-345000.0,-1.0,0.0,0.0,0.0,0.0,0.0,0.0,0.0,0.0
1737286265.249234,20835,1737286265,241813056,base_link,241000.0,70999.99999999996,-347000.0,-1.0,0.0,0.0,0.0,0.0,0.0,0.0,0.0,0.0
1737286265.3461742,20836,1737286265,341821360,base_link,235000.0,75999.99999999996,-355000.0,-1.0,0.0,0.0,0.0,0.0,0.0,0.0,0.0,0.0
1737286265.448201,20837,1737286265,441840664,base_link,240000.0,84999.99999999996,-359000.0,-1.0,0.0,0.0,0.0,0.0,0.0,0.0,0.0,0.0
1737286265.5457022,20838,1737286265,541760456,base_link,238000.0,95999.99999999996,-334000.0,-1.0,0.0,0.0,0.0,0.0,0.0,0.0,0.0,0.0
1737286265.6461635,20839,1737286265,641825504,base_link,241000.0,90999.99999999996,-348000.0,-1.0,0.0,0.0,0.0,0.0,0.0,0.0,0.0,0.0
1737286265.7469156,20840,1737286265,743884552,base_link,233000.0,100999.99999999996,-335000.0,-1.0,0.0,0.0,0.0,0.0,0.0,0.0,0.0,0.0
1737286265.8460176,20841,1737286265,841863112,base_link,241000.0,100999.99999999996,-325000.0,-1.0,0.0,0.0,0.0,0.0,0.0,0.0,0.0,0.0
1737286265.9458578,20842,1737286265,941796160,base_link,234000.0,87999.99999999996,-374000.0,-1.0,0.0,0.0,0.0,0.0,0.0,0.0,0.0,0.0
1737286266.0458434,20843,1737286266,41836464,base_link,227000.0,101999.99999999996,-343000.0,-1.0,0.0,0.0,0.0,0.0,0.0,0.0,0.0,0.0
1737286266.1478395,20844,1737286266,141834256,base_link,236000.0,109999.99999999996,-317000.0,-1.0,0.0,0.0,0.0,0.0,0.0,0.0,0.0,0.0
1737286266.2455387,20845,1737286266,243905560,base_link,234000.0,96999.99999999996,-351000.0,-1.0,0.0,0.0,0.0,0.0,0.0,0.0,0.0,0.0
1737286266.345356,20846,1737286266,341845352,base_link,220000.0,97999.99999999996,-350000.0,-1.0,0.0,0.0,0.0,0.0,0.0,0.0,0.0,0.0
1737286266.445607,20847,1737286266,441797400,base_link,207000.0,106999.99999999996,-348000.0,-1.0,0.0,0.0,0.0,0.0,0.0,0.0,0.0,0.0
1737286266.5495987,20848,1737286266,543830192,base_link,206000.0,111999.99999999996,-347000.0,-1.0,0.0,0.0,0.0,0.0,0.0,0.0,0.0,0.0
1737286266.6521597,20849,1737286266,643899496,base_link,200000.0,93999.99999999996,-353000.0,-1.0,0.0,0.0,0.0,0.0,0.0,0.0,0.0,0.0
1737286266.7466025,20850,1737286266,741837544,base_link,176000.0,88999.99999999996,-380000.0,-1.0,0.0,0.0,0.0,0.0,0.0,0.0,0.0,0.0
1737286266.8460674,20851,1737286266,841852848,base_link,168000.0,97999.99999999996,-377000.0,-1.0,0.0,0.0,0.0,0.0,0.0,0.0,0.0,0.0
1737286266.945677,20852,1737286266,943932152,base_link,184000.0,92999.99999999996,-371000.0,-1.0,0.0,0.0,0.0,0.0,0.0,0.0,0.0,0.0
1737286267.0454898,20853,1737286267,41876968,base_link,181000.0,77999.99999999996,-366000.0,-1.0,0.0,0.0,0.0,0.0,0.0,0.0,0.0,0.0
1737286267.188408,20854,1737286267,142787016,base_link,182000.0,73999.99999999996,-362000.0,-1.0,0.0,0.0,0.0,0.0,0.0,0.0,0.0,0.0
1737286267.245373,20855,1737286267,241787320,base_link,176000.0,53999.99999999995,-391000.0,-1.0,0.0,0.0,0.0,0.0,0.0,0.0,0.0,0.0
1737286267.343879,20856,1737286267,341860624,base_link,178000.0,58999.99999999995,-393000.0,-1.0,0.0,0.0,0.0,0.0,0.0,0.0,0.0,0.0
1737286267.449788,20857,1737286267,441884928,base_link,170000.0,51999.99999999995,-392000.0,-1.0,0.0,0.0,0.0,0.0,0.0,0.0,0.0,0.0
1737286267.5449479,20858,1737286267,541873976,base_link,176000.0,27999.999999999953,-390000.0,-1.0,0.0,0.0,0.0,0.0,0.0,0.0,0.0,0.0
1737286267.6461446,20859,1737286267,641887280,base_link,176000.0,-5000.000000000047,-388000.0,-1.0,0.0,0.0,0.0,0.0,0.0,0.0,0.0,0.0
1737286267.7499497,20860,1737286267,741986584,base_link,168000.0,-13000.000000000045,-372000.0,-1.0,0.0,0.0,0.0,0.0,0.0,0.0,0.0,0.0
1737286267.8471603,20861,1737286267,841864144,base_link,155000.0,-47000.00000000005,-402000.0,-1.0,0.0,0.0,0.0,0.0,0.0,0.0,0.0,0.0
1737286267.9485192,20862,1737286267,942005936,base_link,157000.0,-75000.00000000004,-380000.0,-1.0,0.0,0.0,0.0,0.0,0.0,0.0,0.0,0.0
1737286268.0483334,20863,1737286268,41886496,base_link,146000.0,-92000.00000000004,-401000.0,-1.0,0.0,0.0,0.0,0.0,0.0,0.0,0.0,0.0
1737286268.1461666,20864,1737286268,143843656,base_link,128000.0,-122000.00000000004,-408000.0,-1.0,0.0,0.0,0.0,0.0,0.0,0.0,0.0,0.0
1737286268.2445252,20865,1737286268,241887216,base_link,111000.0,-157000.00000000006,-398000.0,-1.0,0.0,0.0,0.0,0.0,0.0,0.0,0.0,0.0
1737286268.344742,20866,1737286268,341901520,base_link,89000.0,-183000.00000000006,-393000.0,-1.0,0.0,0.0,0.0,0.0,0.0,0.0,0.0,0.0
1737286268.4516299,20867,1737286268,441819336,base_link,61000.0,-204000.00000000006,-406000.0,-1.0,0.0,0.0,0.0,0.0,0.0,0.0,0.0,0.0
1737286268.544942,20868,1737286268,541921896,base_link,36000.0,-209000.00000000006,-412000.0,-1.0,0.0,0.0,0.0,0.0,0.0,0.0,0.0,0.0
1737286268.6511462,20869,1737286268,641881640,base_link,6000.0,-218000.00000000006,-362000.0,-1.0,0.0,0.0,0.0,0.0,0.0,0.0,0.0,0.0
1737286268.7442174,20870,1737286268,741934200,base_link,-20000.0,-226000.00000000006,-371000.0,-1.0,0.0,0.0,0.0,0.0,0.0,0.0,0.0,0.0
1737286268.8461812,20871,1737286268,841849224,base_link,-42000.0,-232000.00000000006,-363000.0,-1.0,0.0,0.0,0.0,0.0,0.0,0.0,0.0,0.0
1737286268.9456153,20872,1737286268,941865528,base_link,-70000.0,-243000.00000000006,-386999.99999999994,-1.0,0.0,0.0,0.0,0.0,0.0,0.0,0.0,0.0
1737286269.0451078,20873,1737286269,41887808,base_link,-99000.0,-253000.00000000006,-390999.99999999994,-1.0,0.0,0.0,0.0,0.0,0.0,0.0,0.0,0.0
1737286269.1477408,20874,1737286269,141884112,base_link,-130000.0,-246000.00000000006,-401999.99999999994,-1.0,0.0,0.0,0.0,0.0,0.0,0.0,0.0,0.0
1737286269.2458677,20875,1737286269,241878136,base_link,-143000.0,-244000.00000000006,-361999.99999999994,-1.0,0.0,0.0,0.0,0.0,0.0,0.0,0.0,0.0
1737286269.3469405,20876,1737286269,341909696,base_link,-158000.0,-246000.00000000003,-342999.99999999994,-1.0,0.0,0.0,0.0,0.0,0.0,0.0,0.0,0.0
1737286269.4457405,20877,1737286269,441901976,base_link,-177000.0,-256000.00000000006,-384999.99999999994,-1.0,0.0,0.0,0.0,0.0,0.0,0.0,0.0,0.0
1737286269.5451956,20878,1737286269,541917536,base_link,-194000.0,-261000.00000000006,-387999.99999999994,-1.0,0.0,0.0,0.0,0.0,0.0,0.0,0.0,0.0
1737286269.6453884,20879,1737286269,641945816,base_link,-203000.0,-257000.00000000006,-371999.99999999994,-1.0,0.0,0.0,0.0,0.0,0.0,0.0,0.0,0.0
1737286269.7469542,20880,1737286269,741922376,base_link,-217000.0,-259000.00000000006,-377999.99999999994,-1.0,0.0,0.0,0.0,0.0,0.0,0.0,0.0,0.0
1737286269.845329,20881,1737286269,841888656,base_link,-221000.0,-256000.00000000006,-369999.99999999994,-1.0,0.0,0.0,0.0,0.0,0.0,0.0,0.0,0.0
1737286269.953424,20882,1737286269,941892472,base_link,-224000.0,-257000.00000000006,-362999.99999999994,-1.0,0.0,0.0,0.0,0.0,0.0,0.0,0.0,0.0
1737286270.0468628,20883,1737286270,41923752,base_link,-231000.0,-256000.00000000006,-358999.99999999994,-1.0,0.0,0.0,0.0,0.0,0.0,0.0,0.0,0.0
1737286270.1468809,20884,1737286270,143887568,base_link,-237000.0,-247000.00000000003,-350999.99999999994,-1.0,0.0,0.0,0.0,0.0,0.0,0.0,0.0,0.0
1737286270.2453506,20885,1737286270,241906848,base_link,-241000.0,-236000.00000000003,-345000.0,-1.0,0.0,0.0,0.0,0.0,0.0,0.0,0.0,0.0
1737286270.34609,20886,1737286270,343975664,base_link,-254000.0,-215000.00000000003,-347000.0,-1.0,0.0,0.0,0.0,0.0,0.0,0.0,0.0,0.0
1737286270.445714,20887,1737286270,441913200,base_link,-265000.0,-219000.00000000006,-376000.0,-1.0,0.0,0.0,0.0,0.0,0.0,0.0,0.0,0.0
1737286270.5453732,20888,1737286270,541919760,base_link,-273000.0,-224000.00000000006,-397000.0,-1.0,0.0,0.0,0.0,0.0,0.0,0.0,0.0,0.0
1737286270.6462054,20889,1737286270,641890040,base_link,-273000.0,-204000.00000000003,-341000.0,-1.0,0.0,0.0,0.0,0.0,0.0,0.0,0.0,0.0
1737286270.7451982,20890,1737286270,741976856,base_link,-287000.0,-184000.00000000003,-331000.0,-1.0,0.0,0.0,0.0,0.0,0.0,0.0,0.0,0.0
1737286270.8503883,20891,1737286270,841930136,base_link,-302000.0,-188000.00000000006,-360000.0,-1.0,0.0,0.0,0.0,0.0,0.0,0.0,0.0,0.0
1737286270.9523373,20892,1737286270,941895952,base_link,-312000.0,-179000.00000000006,-359000.0,-1.0,0.0,0.0,0.0,0.0,0.0,0.0,0.0,0.0
1737286271.047824,20893,1737286271,41940232,base_link,-306000.0,-166000.00000000003,-352000.0,-1.0,0.0,0.0,0.0,0.0,0.0,0.0,0.0,0.0
1737286271.1477847,20894,1737286271,141974304,base_link,-307000.0,-154000.00000000003,-352000.0,-1.0,0.0,0.0,0.0,0.0,0.0,0.0,0.0,0.0
1737286271.2473943,20895,1737286271,241933584,base_link,-302000.0,-159000.00000000006,-362000.0,-1.0,0.0,0.0,0.0,0.0,0.0,0.0,0.0,0.0
1737286271.3466315,20896,1737286271,341949400,base_link,-301000.0,-158000.00000000003,-344000.0,-1.0,0.0,0.0,0.0,0.0,0.0,0.0,0.0,0.0
1737286271.4464,20897,1737286271,441981192,base_link,-297000.0,-174000.00000000003,-354000.0,-1.0,0.0,0.0,0.0,0.0,0.0,0.0,0.0,0.0
1737286271.5468996,20898,1737286271,541920496,base_link,-302000.0,-169000.00000000006,-363000.0,-1.0,0.0,0.0,0.0,0.0,0.0,0.0,0.0,0.0
1737286271.645619,20899,1737286271,641961776,base_link,-307000.0,-174000.00000000006,-362000.0,-1.0,0.0,0.0,0.0,0.0,0.0,0.0,0.0,0.0
1737286271.7538574,20900,1737286271,743993592,base_link,-302000.0,-188000.00000000006,-364000.0,-1.0,0.0,0.0,0.0,0.0,0.0,0.0,0.0,0.0
1737286271.8517294,20901,1737286271,843976128,base_link,-299000.0,-196000.00000000003,-350000.0,-1.0,0.0,0.0,0.0,0.0,0.0,0.0,0.0,0.0
1737286271.9492164,20902,1737286271,941964664,base_link,-289000.0,-203000.00000000003,-352000.0,-1.0,0.0,0.0,0.0,0.0,0.0,0.0,0.0,0.0
1737286272.048131,20903,1737286272,41962200,base_link,-289000.0,-193000.00000000003,-332000.0,-1.0,0.0,0.0,0.0,0.0,0.0,0.0,0.0,0.0
1737286272.146993,20904,1737286272,141940272,base_link,-284000.0,-190000.00000000003,-328000.0,-1.0,0.0,0.0,0.0,0.0,0.0,0.0,0.0,0.0
1737286272.246492,20905,1737286272,241961808,base_link,-285000.0,-183000.00000000003,-327000.0,-1.0,0.0,0.0,0.0,0.0,0.0,0.0,0.0,0.0
1737286272.3457327,20906,1737286272,341997344,base_link,-289000.0,-181000.00000000003,-341000.0,-1.0,0.0,0.0,0.0,0.0,0.0,0.0,0.0,0.0
1737286272.448267,20907,1737286272,441913136,base_link,-291000.0,-177000.00000000003,-333000.0,-1.0,0.0,0.0,0.0,0.0,0.0,0.0,0.0,0.0
1737286272.5476644,20908,1737286272,541977160,base_link,-296000.0,-179000.00000000003,-353000.0,-1.0,0.0,0.0,0.0,0.0,0.0,0.0,0.0,0.0
1737286272.6475465,20909,1737286272,641965952,base_link,-297000.0,-175000.00000000003,-352000.0,-1.0,0.0,0.0,0.0,0.0,0.0,0.0,0.0,0.0
1737286272.7487361,20910,1737286272,741983232,base_link,-297000.0,-170000.00000000006,-359000.0,-1.0,0.0,0.0,0.0,0.0,0.0,0.0,0.0,0.0
1737286272.8481843,20911,1737286272,844002024,base_link,-289000.0,-165000.00000000003,-331000.0,-1.0,0.0,0.0,0.0,0.0,0.0,0.0,0.0,0.0
1737286272.9481294,20912,1737286272,941994304,base_link,-289000.0,-177000.00000000003,-340000.0,-1.0,0.0,0.0,0.0,0.0,0.0,0.0,0.0,0.0
1737286273.047916,20913,1737286273,41983096,base_link,-296000.0,-198000.00000000006,-420000.0,-1.0,0.0,0.0,0.0,0.0,0.0,0.0,0.0,0.0
1737286273.1463594,20914,1737286273,141982744,base_link,-298000.0,-189000.00000000006,-381000.0,-1.0,0.0,0.0,0.0,0.0,0.0,0.0,0.0,0.0
1737286273.2449706,20915,1737286273,242002536,base_link,-293000.0,-168000.00000000003,-348000.0,-1.0,0.0,0.0,0.0,0.0,0.0,0.0,0.0,0.0
1737286273.347253,20916,1737286273,341985328,base_link,-288000.0,-173000.00000000003,-327000.0,-1.0,0.0,0.0,0.0,0.0,0.0,0.0,0.0,0.0
1737286273.4473586,20917,1737286273,441965120,base_link,-288000.0,-172000.00000000003,-330000.0,-1.0,0.0,0.0,0.0,0.0,0.0,0.0,0.0,0.0
1737286273.546385,20918,1737286273,541989912,base_link,-290000.0,-179000.00000000006,-358000.0,-1.0,0.0,0.0,0.0,0.0,0.0,0.0,0.0,0.0
1737286273.6461952,20919,1737286273,641982704,base_link,-291000.0,-189000.00000000003,-354000.0,-1.0,0.0,0.0,0.0,0.0,0.0,0.0,0.0,0.0
1737286273.7478445,20920,1737286273,741986496,base_link,-290000.0,-193000.00000000006,-359000.0,-1.0,0.0,0.0,0.0,0.0,0.0,0.0,0.0,0.0
1737286273.845194,20921,1737286273,844032288,base_link,-284000.0,-177000.00000000003,-351000.0,-1.0,0.0,0.0,0.0,0.0,0.0,0.0,0.0,0.0
1737286273.9474847,20922,1737286273,942013080,base_link,-291000.0,-190000.00000000006,-372000.0,-1.0,0.0,0.0,0.0,0.0,0.0,0.0,0.0,0.0
1737286274.0448542,20923,1737286274,41986384,base_link,-290000.0,-191000.00000000006,-366000.0,-1.0,0.0,0.0,0.0,0.0,0.0,0.0,0.0,0.0
1737286274.147415,20924,1737286274,143985432,base_link,-294000.0,-190000.00000000006,-359000.0,-1.0,0.0,0.0,0.0,0.0,0.0,0.0,0.0,0.0
1737286274.2453947,20925,1737286274,241984736,base_link,-296000.0,-194000.00000000006,-365000.0,-1.0,0.0,0.0,0.0,0.0,0.0,0.0,0.0,0.0
1737286274.346046,20926,1737286274,341961528,base_link,-291000.0,-193000.00000000006,-368000.0,-1.0,0.0,0.0,0.0,0.0,0.0,0.0,0.0,0.0
1737286274.4445515,20927,1737286274,441996576,base_link,-292000.0,-185000.00000000003,-356000.0,-1.0,0.0,0.0,0.0,0.0,0.0,0.0,0.0,0.0
1737286274.544668,20928,1737286274,542013624,base_link,-291000.0,-188000.00000000003,-353000.0,-1.0,0.0,0.0,0.0,0.0,0.0,0.0,0.0,0.0
1737286274.6457376,20929,1737286274,644052672,base_link,-291000.0,-193000.00000000003,-354000.0,-1.0,0.0,0.0,0.0,0.0,0.0,0.0,0.0,0.0
1737286274.7477305,20930,1737286274,742010720,base_link,-289000.0,-189000.00000000006,-365000.0,-1.0,0.0,0.0,0.0,0.0,0.0,0.0,0.0,0.0
1737286274.8471045,20931,1737286274,842009768,base_link,-290000.0,-178000.00000000006,-361000.0,-1.0,0.0,0.0,0.0,0.0,0.0,0.0,0.0,0.0
1737286274.9449522,20932,1737286274,942062816,base_link,-294000.0,-181000.00000000003,-350000.0,-1.0,0.0,0.0,0.0,0.0,0.0,0.0,0.0,0.0
1737286275.0444026,20933,1737286275,42040864,base_link,-296000.0,-189000.00000000006,-365000.0,-1.0,0.0,0.0,0.0,0.0,0.0,0.0,0.0,0.0
1737286275.1449778,20934,1737286275,141982912,base_link,-295000.0,-180000.00000000006,-378000.0,-1.0,0.0,0.0,0.0,0.0,0.0,0.0,0.0,0.0
1737286275.2471359,20935,1737286275,241983216,base_link,-296000.0,-174000.00000000006,-372000.0,-1.0,0.0,0.0,0.0,0.0,0.0,0.0,0.0,0.0
1737286275.345978,20936,1737286275,342027008,base_link,-286000.0,-168000.00000000006,-359000.0,-1.0,0.0,0.0,0.0,0.0,0.0,0.0,0.0,0.0
1737286275.444975,20937,1737286275,442021056,base_link,-287000.0,-170000.00000000003,-350000.0,-1.0,0.0,0.0,0.0,0.0,0.0,0.0,0.0,0.0
1737286275.5448384,20938,1737286275,542021848,base_link,-287000.0,-165000.00000000003,-353000.0,-1.0,0.0,0.0,0.0,0.0,0.0,0.0,0.0,0.0
1737286275.6447878,20939,1737286275,642029896,base_link,-286000.0,-182000.00000000003,-333000.0,-1.0,0.0,0.0,0.0,0.0,0.0,0.0,0.0,0.0
1737286275.7449303,20940,1737286275,742059688,base_link,-289000.0,-186000.00000000003,-352000.0,-1.0,0.0,0.0,0.0,0.0,0.0,0.0,0.0,0.0
1737286275.8446953,20941,1737286275,842020736,base_link,-291000.0,-192000.00000000006,-368000.0,-1.0,0.0,0.0,0.0,0.0,0.0,0.0,0.0,0.0
1737286275.9481087,20942,1737286275,942009040,base_link,-294000.0,-194000.00000000006,-376000.0,-1.0,0.0,0.0,0.0,0.0,0.0,0.0,0.0,0.0
1737286276.0464997,20943,1737286276,42018344,base_link,-297000.0,-193000.00000000006,-367000.0,-1.0,0.0,0.0,0.0,0.0,0.0,0.0,0.0,0.0
1737286276.1462688,20944,1737286276,142051136,base_link,-297000.0,-179000.00000000003,-344000.0,-1.0,0.0,0.0,0.0,0.0,0.0,0.0,0.0,0.0
1737286276.2455769,20945,1737286276,244031904,base_link,-299000.0,-176000.00000000006,-364000.0,-1.0,0.0,0.0,0.0,0.0,0.0,0.0,0.0,0.0
1737286276.348322,20946,1737286276,341998952,base_link,-292000.0,-167000.00000000003,-355000.0,-1.0,0.0,0.0,0.0,0.0,0.0,0.0,0.0,0.0
1737286276.4488237,20947,1737286276,442000720,base_link,-288000.0,-168000.00000000003,-334000.0,-1.0,0.0,0.0,0.0,0.0,0.0,0.0,0.0,0.0
1737286276.5477846,20948,1737286276,542004768,base_link,-287000.0,-168000.00000000003,-353000.0,-1.0,0.0,0.0,0.0,0.0,0.0,0.0,0.0,0.0
1737286276.646916,20949,1737286276,642015536,base_link,-292000.0,-173000.00000000006,-366000.0,-1.0,0.0,0.0,0.0,0.0,0.0,0.0,0.0,0.0
1737286276.7453175,20950,1737286276,741984840,base_link,-297000.0,-175000.00000000006,-369000.0,-1.0,0.0,0.0,0.0,0.0,0.0,0.0,0.0,0.0
1737286276.8474476,20951,1737286276,842020864,base_link,-298000.0,-176000.00000000003,-354000.0,-1.0,0.0,0.0,0.0,0.0,0.0,0.0,0.0,0.0
1737286276.9480906,20952,1737286276,942074912,base_link,-294000.0,-170000.00000000003,-345000.0,-1.0,0.0,0.0,0.0,0.0,0.0,0.0,0.0,0.0
1737286277.045599,20953,1737286277,42101680,base_link,-291000.0,-170000.00000000006,-381000.0,-1.0,0.0,0.0,0.0,0.0,0.0,0.0,0.0,0.0
1737286277.1489086,20954,1737286277,142003984,base_link,-288000.0,-175000.00000000003,-329000.0,-1.0,0.0,0.0,0.0,0.0,0.0,0.0,0.0,0.0
1737286277.2456443,20955,1737286277,242018008,base_link,-288000.0,-170000.00000000003,-332000.0,-1.0,0.0,0.0,0.0,0.0,0.0,0.0,0.0,0.0
1737286277.3534021,20956,1737286277,342053312,base_link,-287000.0,-182000.00000000003,-334000.0,-1.0,0.0,0.0,0.0,0.0,0.0,0.0,0.0,0.0
1737286277.4476283,20957,1737286277,442007336,base_link,-294000.0,-194000.00000000003,-355000.0,-1.0,0.0,0.0,0.0,0.0,0.0,0.0,0.0,0.0
1737286277.5454717,20958,1737286277,542091384,base_link,-290000.0,-196000.00000000003,-352000.0,-1.0,0.0,0.0,0.0,0.0,0.0,0.0,0.0,0.0
1737286277.6477103,20959,1737286277,642051408,base_link,-295000.0,-193000.00000000003,-343000.0,-1.0,0.0,0.0,0.0,0.0,0.0,0.0,0.0,0.0
1737286277.7488368,20960,1737286277,744106712,base_link,-294000.0,-188000.00000000006,-366000.0,-1.0,0.0,0.0,0.0,0.0,0.0,0.0,0.0,0.0
1737286277.8484397,20961,1737286277,844087992,base_link,-298000.0,-189000.00000000006,-361000.0,-1.0,0.0,0.0,0.0,0.0,0.0,0.0,0.0,0.0
1737286277.9455104,20962,1737286277,942023040,base_link,-301000.0,-185000.00000000006,-372000.0,-1.0,0.0,0.0,0.0,0.0,0.0,0.0,0.0,0.0
1737286278.047996,20963,1737286278,42048064,base_link,-298000.0,-173000.00000000003,-355000.0,-1.0,0.0,0.0,0.0,0.0,0.0,0.0,0.0,0.0
1737286278.1456,20964,1737286278,142015368,base_link,-292000.0,-167000.00000000003,-354000.0,-1.0,0.0,0.0,0.0,0.0,0.0,0.0,0.0,0.0
1737286278.2450304,20965,1737286278,242075648,base_link,-289000.0,-179000.00000000003,-343000.0,-1.0,0.0,0.0,0.0,0.0,0.0,0.0,0.0,0.0
1737286278.346213,20966,1737286278,342046208,base_link,-292000.0,-186000.00000000003,-345000.0,-1.0,0.0,0.0,0.0,0.0,0.0,0.0,0.0,0.0
1737286278.4449,20967,1737286278,442083488,base_link,-292000.0,-187000.00000000006,-358000.0,-1.0,0.0,0.0,0.0,0.0,0.0,0.0,0.0,0.0
1737286278.5467498,20968,1737286278,542077304,base_link,-298000.0,-195000.00000000006,-360000.0,-1.0,0.0,0.0,0.0,0.0,0.0,0.0,0.0,0.0
1737286278.6454544,20969,1737286278,644078328,base_link,-298000.0,-188000.00000000006,-361000.0,-1.0,0.0,0.0,0.0,0.0,0.0,0.0,0.0,0.0
1737286278.7457614,20970,1737286278,742086888,base_link,-297000.0,-177000.00000000003,-355000.0,-1.0,0.0,0.0,0.0,0.0,0.0,0.0,0.0,0.0
1737286278.8457701,20971,1737286278,842074168,base_link,-296000.0,-185000.00000000006,-371000.0,-1.0,0.0,0.0,0.0,0.0,0.0,0.0,0.0,0.0
1737286278.9467828,20972,1737286278,944014984,base_link,-295000.0,-180000.00000000006,-374000.0,-1.0,0.0,0.0,0.0,0.0,0.0,0.0,0.0,0.0
1737286279.0467486,20973,1737286279,44057520,base_link,-294000.0,-174000.00000000003,-353000.0,-1.0,0.0,0.0,0.0,0.0,0.0,0.0,0.0,0.0
1737286279.1459422,20974,1737286279,144120336,base_link,-290000.0,-180000.00000000006,-372000.0,-1.0,0.0,0.0,0.0,0.0,0.0,0.0,0.0,0.0
1737286279.2457883,20975,1737286279,244081872,base_link,-293000.0,-173000.00000000006,-372000.0,-1.0,0.0,0.0,0.0,0.0,0.0,0.0,0.0,0.0
1737286279.3464532,20976,1737286279,342068408,base_link,-296000.0,-173000.00000000006,-370000.0,-1.0,0.0,0.0,0.0,0.0,0.0,0.0,0.0,0.0
1737286279.4455411,20977,1737286279,442088944,base_link,-286000.0,-162000.00000000003,-344000.0,-1.0,0.0,0.0,0.0,0.0,0.0,0.0,0.0,0.0
1737286279.5456135,20978,1737286279,542125224,base_link,-289000.0,-166000.00000000003,-338000.0,-1.0,0.0,0.0,0.0,0.0,0.0,0.0,0.0,0.0
1737286279.6463537,20979,1737286279,642049016,base_link,-285000.0,-163000.00000000003,-345000.0,-1.0,0.0,0.0,0.0,0.0,0.0,0.0,0.0,0.0
1737286279.7452974,20980,1737286279,742097552,base_link,-285000.0,-168000.00000000003,-335000.0,-1.0,0.0,0.0,0.0,0.0,0.0,0.0,0.0,0.0
1737286279.8478847,20981,1737286279,842106088,base_link,-286000.0,-179000.00000000003,-328000.0,-1.0,0.0,0.0,0.0,0.0,0.0,0.0,0.0,0.0
1737286279.948497,20982,1737286279,942064624,base_link,-286000.0,-185000.00000000003,-344000.0,-1.0,0.0,0.0,0.0,0.0,0.0,0.0,0.0,0.0
1737286280.0460515,20983,1737286280,44126416,base_link,-288000.0,-179000.00000000003,-328000.0,-1.0,0.0,0.0,0.0,0.0,0.0,0.0,0.0,0.0
1737286280.147947,20984,1737286280,142087208,base_link,-289000.0,-174000.00000000003,-339000.0,-1.0,0.0,0.0,0.0,0.0,0.0,0.0,0.0,0.0
1737286280.2508585,20985,1737286280,242135488,base_link,-289000.0,-185000.00000000003,-340000.0,-1.0,0.0,0.0,0.0,0.0,0.0,0.0,0.0,0.0
1737286280.346688,20986,1737286280,342111768,base_link,-296000.0,-188000.00000000006,-381000.0,-1.0,0.0,0.0,0.0,0.0,0.0,0.0,0.0,0.0
1737286280.4464629,20987,1737286280,444113048,base_link,-290000.0,-192000.00000000006,-357000.0,-1.0,0.0,0.0,0.0,0.0,0.0,0.0,0.0,0.0
1737286280.5541282,20988,1737286280,542102328,base_link,-294000.0,-190000.00000000006,-360000.0,-1.0,0.0,0.0,0.0,0.0,0.0,0.0,0.0,0.0
1737286280.6477435,20989,1737286280,644147608,base_link,-292000.0,-195000.00000000006,-392000.0,-1.0,0.0,0.0,0.0,0.0,0.0,0.0,0.0,0.0
1737286280.7485068,20990,1737286280,742047888,base_link,-292000.0,-196000.00000000006,-364000.0,-1.0,0.0,0.0,0.0,0.0,0.0,0.0,0.0,0.0
1737286280.8465698,20991,1737286280,842115424,base_link,-287000.0,-188000.00000000006,-358000.0,-1.0,0.0,0.0,0.0,0.0,0.0,0.0,0.0,0.0
1737286280.946059,20992,1737286280,942124704,base_link,-297000.0,-196000.00000000006,-362000.0,-1.0,0.0,0.0,0.0,0.0,0.0,0.0,0.0,0.0
1737286281.0456867,20993,1737286281,42120984,base_link,-294000.0,-186000.00000000003,-356000.0,-1.0,0.0,0.0,0.0,0.0,0.0,0.0,0.0,0.0
1737286281.1473658,20994,1737286281,142062120,base_link,-296000.0,-190000.00000000003,-350000.0,-1.0,0.0,0.0,0.0,0.0,0.0,0.0,0.0,0.0
1737286281.2461364,20995,1737286281,242145912,base_link,-299000.0,-188000.00000000006,-382000.0,-1.0,0.0,0.0,0.0,0.0,0.0,0.0,0.0,0.0
1737286281.3480766,20996,1737286281,342181192,base_link,-298000.0,-178000.00000000006,-368000.0,-1.0,0.0,0.0,0.0,0.0,0.0,0.0,0.0,0.0
1737286281.447213,20997,1737286281,442075728,base_link,-300000.0,-186000.00000000006,-379000.0,-1.0,0.0,0.0,0.0,0.0,0.0,0.0,0.0,0.0
1737286281.5477269,20998,1737286281,542057264,base_link,-301000.0,-172000.00000000006,-360000.0,-1.0,0.0,0.0,0.0,0.0,0.0,0.0,0.0,0.0
1737286281.6460297,20999,1737286281,642071800,base_link,-292000.0,-171000.00000000006,-361000.0,-1.0,0.0,0.0,0.0,0.0,0.0,0.0,0.0,0.0
1737286281.7481506,21000,1737286281,742111336,base_link,-292000.0,-167000.00000000003,-340000.0,-1.0,0.0,0.0,0.0,0.0,0.0,0.0,0.0,0.0
1737286281.8471735,21001,1737286281,842078872,base_link,-289000.0,-173000.00000000006,-359000.0,-1.0,0.0,0.0,0.0,0.0,0.0,0.0,0.0,0.0
1737286281.9448433,21002,1737286281,942051152,base_link,-288000.0,-174000.00000000003,-335000.0,-1.0,0.0,0.0,0.0,0.0,0.0,0.0,0.0,0.0
1737286282.0449386,21003,1737286282,42100688,base_link,-290000.0,-184000.00000000003,-342000.0,-1.0,0.0,0.0,0.0,0.0,0.0,0.0,0.0,0.0
1737286282.1448557,21004,1737286282,142134968,base_link,-292000.0,-184000.00000000003,-344000.0,-1.0,0.0,0.0,0.0,0.0,0.0,0.0,0.0,0.0
1737286282.2449193,21005,1737286282,242156248,base_link,-292000.0,-182000.00000000003,-352000.0,-1.0,0.0,0.0,0.0,0.0,0.0,0.0,0.0,0.0
1737286282.3505702,21006,1737286282,342083272,base_link,-291000.0,-184000.00000000003,-346000.0,-1.0,0.0,0.0,0.0,0.0,0.0,0.0,0.0,0.0
1737286282.444561,21007,1737286282,442078808,base_link,-288000.0,-182000.00000000006,-359000.0,-1.0,0.0,0.0,0.0,0.0,0.0,0.0,0.0,0.0
1737286282.5519516,21008,1737286282,542082088,base_link,-289000.0,-183000.00000000003,-355000.0,-1.0,0.0,0.0,0.0,0.0,0.0,0.0,0.0,0.0
1737286282.64541,21009,1737286282,642137624,base_link,-285000.0,-176000.00000000003,-352000.0,-1.0,0.0,0.0,0.0,0.0,0.0,0.0,0.0,0.0
1737286282.744267,21010,1737286282,742117904,base_link,-286000.0,-183000.00000000003,-343000.0,-1.0,0.0,0.0,0.0,0.0,0.0,0.0,0.0,0.0
1737286282.846429,21011,1737286282,842113440,base_link,-286000.0,-186000.00000000003,-353000.0,-1.0,0.0,0.0,0.0,0.0,0.0,0.0,0.0,0.0
1737286282.9452302,21012,1737286282,942138464,base_link,-285000.0,-177000.00000000003,-347000.0,-1.0,0.0,0.0,0.0,0.0,0.0,0.0,0.0,0.0
1737286283.04632,21013,1737286283,42089256,base_link,-287000.0,-185000.00000000003,-349000.0,-1.0,0.0,0.0,0.0,0.0,0.0,0.0,0.0,0.0
1737286283.1457205,21014,1737286283,144171048,base_link,-289000.0,-182000.00000000003,-349000.0,-1.0,0.0,0.0,0.0,0.0,0.0,0.0,0.0,0.0
1737286283.2459023,21015,1737286283,244177840,base_link,-291000.0,-192000.00000000003,-355000.0,-1.0,0.0,0.0,0.0,0.0,0.0,0.0,0.0,0.0
1737286283.3482816,21016,1737286283,344255632,base_link,-287000.0,-189000.00000000006,-359000.0,-1.0,0.0,0.0,0.0,0.0,0.0,0.0,0.0,0.0
1737286283.4448736,21017,1737286283,442141424,base_link,-286000.0,-192000.00000000003,-350000.0,-1.0,0.0,0.0,0.0,0.0,0.0,0.0,0.0,0.0
1737286283.5466058,21018,1737286283,542157960,base_link,-290000.0,-192000.00000000003,-347000.0,-1.0,0.0,0.0,0.0,0.0,0.0,0.0,0.0,0.0
1737286283.6446962,21019,1737286283,642142472,base_link,-286000.0,-189000.00000000003,-354000.0,-1.0,0.0,0.0,0.0,0.0,0.0,0.0,0.0,0.0
1737286283.7453496,21020,1737286283,744172264,base_link,-288000.0,-180000.00000000003,-342000.0,-1.0,0.0,0.0,0.0,0.0,0.0,0.0,0.0,0.0
1737286283.8448339,21021,1737286283,842165520,base_link,-287000.0,-189000.00000000006,-369000.0,-1.0,0.0,0.0,0.0,0.0,0.0,0.0,0.0,0.0
1737286283.951259,21022,1737286283,942159056,base_link,-290000.0,-190000.00000000006,-383000.0,-1.0,0.0,0.0,0.0,0.0,0.0,0.0,0.0,0.0
1737286284.0515692,21023,1737286284,42136312,base_link,-288000.0,-188000.00000000003,-356000.0,-1.0,0.0,0.0,0.0,0.0,0.0,0.0,0.0,0.0
1737286284.1504261,21024,1737286284,142154104,base_link,-288000.0,-197000.00000000006,-424000.0,-1.0,0.0,0.0,0.0,0.0,0.0,0.0,0.0,0.0
1737286284.2452052,21025,1737286284,242156616,base_link,-295000.0,-189000.00000000006,-367000.0,-1.0,0.0,0.0,0.0,0.0,0.0,0.0,0.0,0.0
1737286284.3470364,21026,1737286284,342162408,base_link,-298000.0,-189000.00000000006,-363000.0,-1.0,0.0,0.0,0.0,0.0,0.0,0.0,0.0,0.0
1737286284.4452872,21027,1737286284,442159920,base_link,-300000.0,-188000.00000000006,-368000.0,-1.0,0.0,0.0,0.0,0.0,0.0,0.0,0.0,0.0
1737286284.5456526,21028,1737286284,542120712,base_link,-298000.0,-181000.00000000006,-360000.0,-1.0,0.0,0.0,0.0,0.0,0.0,0.0,0.0,0.0
1737286284.6452155,21029,1737286284,642156224,base_link,-293000.0,-170000.00000000003,-350000.0,-1.0,0.0,0.0,0.0,0.0,0.0,0.0,0.0,0.0
1737286284.7451742,21030,1737286284,742181016,base_link,-294000.0,-170000.00000000003,-353000.0,-1.0,0.0,0.0,0.0,0.0,0.0,0.0,0.0,0.0
1737286284.8476532,21031,1737286284,844209528,base_link,-291000.0,-170000.00000000003,-352000.0,-1.0,0.0,0.0,0.0,0.0,0.0,0.0,0.0,0.0
1737286284.9470553,21032,1737286284,942146320,base_link,-292000.0,-172000.00000000003,-354000.0,-1.0,0.0,0.0,0.0,0.0,0.0,0.0,0.0,0.0
1737286285.047978,21033,1737286285,42168088,base_link,-290000.0,-176000.00000000003,-345000.0,-1.0,0.0,0.0,0.0,0.0,0.0,0.0,0.0,0.0
1737286285.1465993,21034,1737286285,142128392,base_link,-288000.0,-182000.00000000003,-336000.0,-1.0,0.0,0.0,0.0,0.0,0.0,0.0,0.0,0.0
1737286285.2456372,21035,1737286285,242160160,base_link,-288000.0,-186000.00000000003,-336000.0,-1.0,0.0,0.0,0.0,0.0,0.0,0.0,0.0,0.0
1737286285.3486648,21036,1737286285,342171464,base_link,-292000.0,-188000.00000000006,-362000.0,-1.0,0.0,0.0,0.0,0.0,0.0,0.0,0.0,0.0
1737286285.4464374,21037,1737286285,444154232,base_link,-290000.0,-189000.00000000006,-363000.0,-1.0,0.0,0.0,0.0,0.0,0.0,0.0,0.0,0.0
1737286285.5460098,21038,1737286285,542173280,base_link,-291000.0,-193000.00000000006,-367000.0,-1.0,0.0,0.0,0.0,0.0,0.0,0.0,0.0,0.0
1737286285.6459968,21039,1737286285,642176048,base_link,-291000.0,-190000.00000000006,-374000.0,-1.0,0.0,0.0,0.0,0.0,0.0,0.0,0.0,0.0
1737286285.7455807,21040,1737286285,742141096,base_link,-290000.0,-186000.00000000006,-370000.0,-1.0,0.0,0.0,0.0,0.0,0.0,0.0,0.0,0.0
1737286285.8516126,21041,1737286285,842186864,base_link,-299000.0,-185000.00000000006,-364000.0,-1.0,0.0,0.0,0.0,0.0,0.0,0.0,0.0,0.0
1737286285.94826,21042,1737286285,942170168,base_link,-301000.0,-178000.00000000006,-359000.0,-1.0,0.0,0.0,0.0,0.0,0.0,0.0,0.0,0.0
1737286286.046158,21043,1737286286,42143936,base_link,-301000.0,-173000.00000000006,-369000.0,-1.0,0.0,0.0,0.0,0.0,0.0,0.0,0.0,0.0
1737286286.1475708,21044,1737286286,142131984,base_link,-299000.0,-179000.00000000003,-352000.0,-1.0,0.0,0.0,0.0,0.0,0.0,0.0,0.0,0.0
1737286286.2461765,21045,1737286286,242171008,base_link,-289000.0,-176000.00000000003,-337000.0,-1.0,0.0,0.0,0.0,0.0,0.0,0.0,0.0,0.0
1737286286.3466527,21046,1737286286,342182312,base_link,-293000.0,-191000.00000000006,-398000.0,-1.0,0.0,0.0,0.0,0.0,0.0,0.0,0.0,0.0
1737286286.4469855,21047,1737286286,442156080,base_link,-291000.0,-189000.00000000003,-355000.0,-1.0,0.0,0.0,0.0,0.0,0.0,0.0,0.0,0.0
1737286286.5458694,21048,1737286286,542180384,base_link,-289000.0,-187000.00000000006,-366000.0,-1.0,0.0,0.0,0.0,0.0,0.0,0.0,0.0,0.0
1737286286.645314,21049,1737286286,642131408,base_link,-293000.0,-188000.00000000006,-358000.0,-1.0,0.0,0.0,0.0,0.0,0.0,0.0,0.0,0.0
1737286286.7460358,21050,1737286286,742236176,base_link,-299000.0,-187000.00000000006,-378000.0,-1.0,0.0,0.0,0.0,0.0,0.0,0.0,0.0,0.0
1737286286.84569,21051,1737286286,842151200,base_link,-300000.0,-178000.00000000006,-372000.0,-1.0,0.0,0.0,0.0,0.0,0.0,0.0,0.0,0.0
1737286286.9457984,21052,1737286286,942159248,base_link,-302000.0,-169000.00000000006,-363000.0,-1.0,0.0,0.0,0.0,0.0,0.0,0.0,0.0,0.0
1737286287.0462022,21053,1737286287,42174016,base_link,-296000.0,-165000.00000000003,-339000.0,-1.0,0.0,0.0,0.0,0.0,0.0,0.0,0.0,0.0
1737286287.1469615,21054,1737286287,142245320,base_link,-289000.0,-175000.00000000003,-309000.0,-1.0,0.0,0.0,0.0,0.0,0.0,0.0,0.0,0.0
1737286287.245755,21055,1737286287,242191088,base_link,-288000.0,-172000.00000000003,-330000.0,-1.0,0.0,0.0,0.0,0.0,0.0,0.0,0.0,0.0
1737286287.3483136,21056,1737286287,342199392,base_link,-291000.0,-181000.00000000003,-336000.0,-1.0,0.0,0.0,0.0,0.0,0.0,0.0,0.0,0.0
1737286287.4448082,21057,1737286287,442174160,base_link,-294000.0,-191000.00000000003,-352000.0,-1.0,0.0,0.0,0.0,0.0,0.0,0.0,0.0,0.0
1737286287.5510645,21058,1737286287,544195928,base_link,-298000.0,-192000.00000000006,-398000.0,-1.0,0.0,0.0,0.0,0.0,0.0,0.0,0.0,0.0
1737286287.6476145,21059,1737286287,642182696,base_link,-301000.0,-186000.00000000006,-372000.0,-1.0,0.0,0.0,0.0,0.0,0.0,0.0,0.0,0.0
1737286287.7479212,21060,1737286287,742168720,base_link,-302000.0,-179000.00000000006,-357000.0,-1.0,0.0,0.0,0.0,0.0,0.0,0.0,0.0,0.0
1737286287.8464932,21061,1737286287,842177744,base_link,-295000.0,-172000.00000000003,-342000.0,-1.0,0.0,0.0,0.0,0.0,0.0,0.0,0.0,0.0
1737286287.947852,21062,1737286287,942204000,base_link,-292000.0,-161000.00000000003,-349000.0,-1.0,0.0,0.0,0.0,0.0,0.0,0.0,0.0,0.0
1737286288.0470815,21063,1737286288,42147024,base_link,-290000.0,-170000.00000000003,-343000.0,-1.0,0.0,0.0,0.0,0.0,0.0,0.0,0.0,0.0
1737286288.1476452,21064,1737286288,142201048,base_link,-291000.0,-185000.00000000003,-356000.0,-1.0,0.0,0.0,0.0,0.0,0.0,0.0,0.0,0.0
1737286288.248004,21065,1737286288,242199328,base_link,-292000.0,-183000.00000000006,-363000.0,-1.0,0.0,0.0,0.0,0.0,0.0,0.0,0.0,0.0
1737286288.346373,21066,1737286288,342234096,base_link,-289000.0,-190000.00000000003,-356000.0,-1.0,0.0,0.0,0.0,0.0,0.0,0.0,0.0,0.0
1737286288.4474227,21067,1737286288,442184120,base_link,-293000.0,-195000.00000000006,-374000.0,-1.0,0.0,0.0,0.0,0.0,0.0,0.0,0.0,0.0
1737286288.5459173,21068,1737286288,542217888,base_link,-292000.0,-188000.00000000006,-369000.0,-1.0,0.0,0.0,0.0,0.0,0.0,0.0,0.0,0.0
1737286288.6479766,21069,1737286288,642167168,base_link,-295000.0,-186000.00000000006,-366000.0,-1.0,0.0,0.0,0.0,0.0,0.0,0.0,0.0,0.0
1737286288.7459912,21070,1737286288,742175936,base_link,-299000.0,-190000.00000000006,-363000.0,-1.0,0.0,0.0,0.0,0.0,0.0,0.0,0.0,0.0
1737286288.847702,21071,1737286288,842206960,base_link,-296000.0,-189000.00000000006,-381000.0,-1.0,0.0,0.0,0.0,0.0,0.0,0.0,0.0,0.0
1737286288.945439,21072,1737286288,942190240,base_link,-298000.0,-187000.00000000006,-372000.0,-1.0,0.0,0.0,0.0,0.0,0.0,0.0,0.0,0.0
1737286289.0442686,21073,1737286289,42211520,base_link,-298000.0,-184000.00000000003,-356000.0,-1.0,0.0,0.0,0.0,0.0,0.0,0.0,0.0,0.0
1737286289.1518166,21074,1737286289,142200544,base_link,-296000.0,-181000.00000000006,-362000.0,-1.0,0.0,0.0,0.0,0.0,0.0,0.0,0.0,0.0
1737286289.252681,21075,1737286289,244169824,base_link,-294000.0,-185000.00000000006,-363000.0,-1.0,0.0,0.0,0.0,0.0,0.0,0.0,0.0,0.0
1737286289.3460803,21076,1737286289,342222848,base_link,-287000.0,-186000.00000000006,-366000.0,-1.0,0.0,0.0,0.0,0.0,0.0,0.0,0.0,0.0
1737286289.4448662,21077,1737286289,442237128,base_link,-286000.0,-187000.00000000006,-357000.0,-1.0,0.0,0.0,0.0,0.0,0.0,0.0,0.0,0.0
1737286289.546801,21078,1737286289,542204152,base_link,-284000.0,-180000.00000000003,-328000.0,-1.0,0.0,0.0,0.0,0.0,0.0,0.0,0.0,0.0
1737286289.648751,21079,1737286289,642251432,base_link,-287000.0,-172000.00000000003,-333000.0,-1.0,0.0,0.0,0.0,0.0,0.0,0.0,0.0,0.0
1737286289.7471893,21080,1737286289,742242712,base_link,-286000.0,-174000.00000000003,-317000.0,-1.0,0.0,0.0,0.0,0.0,0.0,0.0,0.0,0.0
1737286289.8462152,21081,1737286289,842151992,base_link,-285000.0,-169000.00000000003,-321000.0,-1.0,0.0,0.0,0.0,0.0,0.0,0.0,0.0,0.0
1737286289.9445493,21082,1737286289,942218528,base_link,-287000.0,-182000.00000000003,-338000.0,-1.0,0.0,0.0,0.0,0.0,0.0,0.0,0.0,0.0
1737286290.0445127,21083,1737286290,42223808,base_link,-288000.0,-186000.00000000003,-356000.0,-1.0,0.0,0.0,0.0,0.0,0.0,0.0,0.0,0.0
1737286290.1443987,21084,1737286290,142244088,base_link,-287000.0,-187000.00000000003,-346000.0,-1.0,0.0,0.0,0.0,0.0,0.0,0.0,0.0,0.0
1737286290.2449214,21085,1737286290,244191624,base_link,-290000.0,-189000.00000000006,-357000.0,-1.0,0.0,0.0,0.0,0.0,0.0,0.0,0.0,0.0
1737286290.3443995,21086,1737286290,342248160,base_link,-292000.0,-198000.00000000006,-372000.0,-1.0,0.0,0.0,0.0,0.0,0.0,0.0,0.0,0.0
1737286290.4450057,21087,1737286290,442186696,base_link,-295000.0,-192000.00000000006,-377000.0,-1.0,0.0,0.0,0.0,0.0,0.0,0.0,0.0,0.0
1737286290.5461333,21088,1737286290,542195976,base_link,-297000.0,-185000.00000000003,-350000.0,-1.0,0.0,0.0,0.0,0.0,0.0,0.0,0.0,0.0
1737286290.6448522,21089,1737286290,642227232,base_link,-296000.0,-188000.00000000006,-365000.0,-1.0,0.0,0.0,0.0,0.0,0.0,0.0,0.0,0.0
1737286290.7451618,21090,1737286290,742213024,base_link,-300000.0,-186000.00000000006,-365000.0,-1.0,0.0,0.0,0.0,0.0,0.0,0.0,0.0,0.0
1737286290.8453248,21091,1737286290,842196280,base_link,-300000.0,-184000.00000000006,-360000.0,-1.0,0.0,0.0,0.0,0.0,0.0,0.0,0.0,0.0
1737286290.9446578,21092,1737286290,942238816,base_link,-294000.0,-174000.00000000003,-348000.0,-1.0,0.0,0.0,0.0,0.0,0.0,0.0,0.0,0.0
1737286291.0472238,21093,1737286291,42254072,base_link,-297000.0,-179000.00000000006,-371000.0,-1.0,0.0,0.0,0.0,0.0,0.0,0.0,0.0,0.0
1737286291.1453614,21094,1737286291,142220864,base_link,-300000.0,-190000.00000000006,-380000.0,-1.0,0.0,0.0,0.0,0.0,0.0,0.0,0.0,0.0
1737286291.245643,21095,1737286291,242265120,base_link,-302000.0,-192000.00000000006,-406000.0,-1.0,0.0,0.0,0.0,0.0,0.0,0.0,0.0,0.0
1737286291.3480952,21096,1737286291,342210912,base_link,-300000.0,-187000.00000000006,-377000.0,-1.0,0.0,0.0,0.0,0.0,0.0,0.0,0.0,0.0
1737286291.4469945,21097,1737286291,442200168,base_link,-300000.0,-175000.00000000006,-362000.0,-1.0,0.0,0.0,0.0,0.0,0.0,0.0,0.0,0.0
1737286291.547513,21098,1737286291,542256960,base_link,-300000.0,-180000.00000000006,-366000.0,-1.0,0.0,0.0,0.0,0.0,0.0,0.0,0.0,0.0
1737286291.6470845,21099,1737286291,642207216,base_link,-296000.0,-179000.00000000006,-364000.0,-1.0,0.0,0.0,0.0,0.0,0.0,0.0,0.0,0.0
1737286291.7484734,21100,1737286291,744257752,base_link,-304000.0,-178000.00000000006,-379000.0,-1.0,0.0,0.0,0.0,0.0,0.0,0.0,0.0,0.0
1737286291.8457413,21101,1737286291,842243264,base_link,-300000.0,-178000.00000000006,-362000.0,-1.0,0.0,0.0,0.0,0.0,0.0,0.0,0.0,0.0
1737286291.9454713,21102,1737286291,942215800,base_link,-299000.0,-173000.00000000003,-352000.0,-1.0,0.0,0.0,0.0,0.0,0.0,0.0,0.0,0.0
1737286292.0482945,21103,1737286292,42209056,base_link,-292000.0,-174000.00000000003,-329000.0,-1.0,0.0,0.0,0.0,0.0,0.0,0.0,0.0,0.0
1737286292.1469774,21104,1737286292,142279592,base_link,-291000.0,-189000.00000000003,-348000.0,-1.0,0.0,0.0,0.0,0.0,0.0,0.0,0.0,0.0
1737286292.2500336,21105,1737286292,242199104,base_link,-291000.0,-191000.00000000006,-362000.0,-1.0,0.0,0.0,0.0,0.0,0.0,0.0,0.0,0.0
1737286292.3466215,21106,1737286292,342252640,base_link,-299000.0,-186000.00000000006,-380000.0,-1.0,0.0,0.0,0.0,0.0,0.0,0.0,0.0,0.0
1737286292.4517255,21107,1737286292,442241896,base_link,-300000.0,-172000.00000000003,-351000.0,-1.0,0.0,0.0,0.0,0.0,0.0,0.0,0.0,0.0
1737286292.5471013,21108,1737286292,544205688,base_link,-291000.0,-167000.00000000003,-349000.0,-1.0,0.0,0.0,0.0,0.0,0.0,0.0,0.0,0.0
1737286292.6448457,21109,1737286292,642249200,base_link,-295000.0,-165000.00000000003,-323000.0,-1.0,0.0,0.0,0.0,0.0,0.0,0.0,0.0,0.0
1737286292.7478013,21110,1737286292,742244736,base_link,-292000.0,-175000.00000000003,-333000.0,-1.0,0.0,0.0,0.0,0.0,0.0,0.0,0.0,0.0
1737286292.8472464,21111,1737286292,842281504,base_link,-289000.0,-171000.00000000006,-358000.0,-1.0,0.0,0.0,0.0,0.0,0.0,0.0,0.0,0.0
1737286292.9484332,21112,1737286292,942202784,base_link,-290000.0,-180000.00000000003,-322000.0,-1.0,0.0,0.0,0.0,0.0,0.0,0.0,0.0,0.0
1737286293.0458105,21113,1737286293,42275296,base_link,-292000.0,-187000.00000000003,-353000.0,-1.0,0.0,0.0,0.0,0.0,0.0,0.0,0.0,0.0
1737286293.1469128,21114,1737286293,142218088,base_link,-291000.0,-185000.00000000006,-360000.0,-1.0,0.0,0.0,0.0,0.0,0.0,0.0,0.0,0.0
1737286293.2466357,21115,1737286293,242253856,base_link,-297000.0,-198000.00000000006,-414000.0,-1.0,0.0,0.0,0.0,0.0,0.0,0.0,0.0,0.0
1737286293.346509,21116,1737286293,342216904,base_link,-294000.0,-181000.00000000006,-367000.0,-1.0,0.0,0.0,0.0,0.0,0.0,0.0,0.0,0.0
1737286293.4455957,21117,1737286293,442249928,base_link,-294000.0,-182000.00000000006,-378000.0,-1.0,0.0,0.0,0.0,0.0,0.0,0.0,0.0,0.0
1737286293.5457256,21118,1737286293,542267976,base_link,-298000.0,-181000.00000000006,-365000.0,-1.0,0.0,0.0,0.0,0.0,0.0,0.0,0.0,0.0
1737286293.6462288,21119,1737286293,642215744,base_link,-293000.0,-182000.00000000006,-368000.0,-1.0,0.0,0.0,0.0,0.0,0.0,0.0,0.0,0.0
1737286293.7470036,21120,1737286293,742233792,base_link,-300000.0,-174000.00000000006,-364000.0,-1.0,0.0,0.0,0.0,0.0,0.0,0.0,0.0,0.0
1737286293.8454695,21121,1737286293,842300560,base_link,-299000.0,-183000.00000000006,-370000.0,-1.0,0.0,0.0,0.0,0.0,0.0,0.0,0.0,0.0
1737286293.9464803,21122,1737286293,942257584,base_link,-299000.0,-178000.00000000006,-379000.0,-1.0,0.0,0.0,0.0,0.0,0.0,0.0,0.0,0.0
1737286294.0462692,21123,1737286294,42227608,base_link,-300000.0,-174000.00000000006,-360000.0,-1.0,0.0,0.0,0.0,0.0,0.0,0.0,0.0,0.0
1737286294.1453164,21124,1737286294,142265912,base_link,-295000.0,-166000.00000000003,-334000.0,-1.0,0.0,0.0,0.0,0.0,0.0,0.0,0.0,0.0
1737286294.245393,21125,1737286294,242263936,base_link,-297000.0,-171000.00000000003,-343000.0,-1.0,0.0,0.0,0.0,0.0,0.0,0.0,0.0,0.0
1737286294.345596,21126,1737286294,342250960,base_link,-300000.0,-173000.00000000003,-342000.0,-1.0,0.0,0.0,0.0,0.0,0.0,0.0,0.0,0.0
1737286294.4451892,21127,1737286294,442276472,base_link,-288000.0,-175000.00000000003,-341000.0,-1.0,0.0,0.0,0.0,0.0,0.0,0.0,0.0,0.0
1737286294.547153,21128,1737286294,542232240,base_link,-287000.0,-175000.00000000003,-334000.0,-1.0,0.0,0.0,0.0,0.0,0.0,0.0,0.0,0.0
1737286294.6454184,21129,1737286294,642296008,base_link,-290000.0,-182000.00000000006,-365000.0,-1.0,0.0,0.0,0.0,0.0,0.0,0.0,0.0,0.0
1737286294.745387,21130,1737286294,742281520,base_link,-290000.0,-182000.00000000006,-367000.0,-1.0,0.0,0.0,0.0,0.0,0.0,0.0,0.0,0.0
1737286294.8484952,21131,1737286294,842256288,base_link,-299000.0,-180000.00000000006,-393000.0,-1.0,0.0,0.0,0.0,0.0,0.0,0.0,0.0,0.0
1737286294.9455445,21132,1737286294,942273800,base_link,-299000.0,-178000.00000000006,-410000.0,-1.0,0.0,0.0,0.0,0.0,0.0,0.0,0.0,0.0
1737286295.0459406,21133,1737286295,42290568,base_link,-292000.0,-175000.00000000003,-344000.0,-1.0,0.0,0.0,0.0,0.0,0.0,0.0,0.0,0.0
1737286295.1479762,21134,1737286295,142263080,base_link,-296000.0,-175000.00000000003,-341000.0,-1.0,0.0,0.0,0.0,0.0,0.0,0.0,0.0,0.0
1737286295.2480884,21135,1737286295,242270104,base_link,-291000.0,-178000.00000000003,-337000.0,-1.0,0.0,0.0,0.0,0.0,0.0,0.0,0.0,0.0
1737286295.3460023,21136,1737286295,342261616,base_link,-290000.0,-168000.00000000003,-348000.0,-1.0,0.0,0.0,0.0,0.0,0.0,0.0,0.0,0.0
1737286295.4465244,21137,1737286295,442272640,base_link,-297000.0,-176000.00000000006,-391000.0,-1.0,0.0,0.0,0.0,0.0,0.0,0.0,0.0,0.0
1737286295.5481553,21138,1737286295,542310896,base_link,-285000.0,-164000.00000000003,-344000.0,-1.0,0.0,0.0,0.0,0.0,0.0,0.0,0.0,0.0
1737286295.6460211,21139,1737286295,644263664,base_link,-285000.0,-180000.00000000003,-332000.0,-1.0,0.0,0.0,0.0,0.0,0.0,0.0,0.0,0.0
1737286295.7453294,21140,1737286295,744305176,base_link,-297000.0,-185000.00000000003,-354000.0,-1.0,0.0,0.0,0.0,0.0,0.0,0.0,0.0,0.0
1737286295.8493617,21141,1737286295,844234200,base_link,-295000.0,-191000.00000000006,-364000.0,-1.0,0.0,0.0,0.0,0.0,0.0,0.0,0.0,0.0
1737286295.9485614,21142,1737286295,944320712,base_link,-299000.0,-181000.00000000006,-361000.0,-1.0,0.0,0.0,0.0,0.0,0.0,0.0,0.0,0.0
1737286296.0446134,21143,1737286296,42224480,base_link,-301000.0,-174000.00000000006,-360000.0,-1.0,0.0,0.0,0.0,0.0,0.0,0.0,0.0,0.0
1737286296.1448472,21144,1737286296,142212992,base_link,-296000.0,-171000.00000000003,-340000.0,-1.0,0.0,0.0,0.0,0.0,0.0,0.0,0.0,0.0
1737286296.2447495,21145,1737286296,242299016,base_link,-289000.0,-166000.00000000003,-340000.0,-1.0,0.0,0.0,0.0,0.0,0.0,0.0,0.0,0.0
1737286296.3447714,21146,1737286296,342302040,base_link,-287000.0,-178000.00000000003,-343000.0,-1.0,0.0,0.0,0.0,0.0,0.0,0.0,0.0,0.0
1737286296.445469,21147,1737286296,442302064,base_link,-293000.0,-186000.00000000006,-358000.0,-1.0,0.0,0.0,0.0,0.0,0.0,0.0,0.0,0.0
1737286296.5450344,21148,1737286296,542282576,base_link,-297000.0,-186000.00000000006,-367000.0,-1.0,0.0,0.0,0.0,0.0,0.0,0.0,0.0,0.0
1737286296.6452823,21149,1737286296,642351856,base_link,-297000.0,-176000.00000000006,-357000.0,-1.0,0.0,0.0,0.0,0.0,0.0,0.0,0.0,0.0
1737286296.7452345,21150,1737286296,742290624,base_link,-297000.0,-170000.00000000003,-344000.0,-1.0,0.0,0.0,0.0,0.0,0.0,0.0,0.0,0.0
1737286296.8466718,21151,1737286296,844336392,base_link,-292000.0,-173000.00000000003,-348000.0,-1.0,0.0,0.0,0.0,0.0,0.0,0.0,0.0,0.0
1737286296.9450254,21152,1737286296,942273904,base_link,-291000.0,-180000.00000000003,-344000.0,-1.0,0.0,0.0,0.0,0.0,0.0,0.0,0.0,0.0
1737286297.0451326,21153,1737286297,42281768,base_link,-293000.0,-184000.00000000006,-370000.0,-1.0,0.0,0.0,0.0,0.0,0.0,0.0,0.0,0.0
1737286297.1443245,21154,1737286297,142305280,base_link,-301000.0,-177000.00000000006,-368000.0,-1.0,0.0,0.0,0.0,0.0,0.0,0.0,0.0,0.0
1737286297.247037,21155,1737286297,242298560,base_link,-302000.0,-182000.00000000006,-390000.0,-1.0,0.0,0.0,0.0,0.0,0.0,0.0,0.0,0.0
1737286297.3451927,21156,1737286297,342303328,base_link,-290000.0,-168000.00000000003,-355000.0,-1.0,0.0,0.0,0.0,0.0,0.0,0.0,0.0,0.0
1737286297.4462564,21157,1737286297,442271608,base_link,-287000.0,-180000.00000000003,-336000.0,-1.0,0.0,0.0,0.0,0.0,0.0,0.0,0.0,0.0
1737286297.5453024,21158,1737286297,542292376,base_link,-296000.0,-186000.00000000003,-353000.0,-1.0,0.0,0.0,0.0,0.0,0.0,0.0,0.0,0.0
1737286297.6452117,21159,1737286297,642255400,base_link,-304000.0,-185000.00000000003,-356000.0,-1.0,0.0,0.0,0.0,0.0,0.0,0.0,0.0,0.0
1737286297.7448668,21160,1737286297,742316424,base_link,-302000.0,-177000.00000000006,-373000.0,-1.0,0.0,0.0,0.0,0.0,0.0,0.0,0.0,0.0
1737286297.8456197,21161,1737286297,842265448,base_link,-290000.0,-175000.00000000003,-336000.0,-1.0,0.0,0.0,0.0,0.0,0.0,0.0,0.0,0.0
1737286297.9460304,21162,1737286297,942287960,base_link,-292000.0,-191000.00000000006,-358000.0,-1.0,0.0,0.0,0.0,0.0,0.0,0.0,0.0,0.0
1737286298.0455816,21163,1737286298,42297704,base_link,-302000.0,-193000.00000000006,-361000.0,-1.0,0.0,0.0,0.0,0.0,0.0,0.0,0.0,0.0
1737286298.1474447,21164,1737286298,142319240,base_link,-301000.0,-180000.00000000006,-368000.0,-1.0,0.0,0.0,0.0,0.0,0.0,0.0,0.0,0.0
1737286298.2454085,21165,1737286298,242331984,base_link,-288000.0,-170000.00000000003,-337000.0,-1.0,0.0,0.0,0.0,0.0,0.0,0.0,0.0,0.0
1737286298.3455062,21166,1737286298,342314008,base_link,-287000.0,-173000.00000000003,-335000.0,-1.0,0.0,0.0,0.0,0.0,0.0,0.0,0.0,0.0
1737286298.4453633,21167,1737286298,442330496,base_link,-290000.0,-182000.00000000003,-353000.0,-1.0,0.0,0.0,0.0,0.0,0.0,0.0,0.0,0.0
1737286298.5471156,21168,1737286298,542297520,base_link,-293000.0,-188000.00000000006,-369000.0,-1.0,0.0,0.0,0.0,0.0,0.0,0.0,0.0,0.0
1737286298.6456935,21169,1737286298,644286520,base_link,-295000.0,-185000.00000000003,-353000.0,-1.0,0.0,0.0,0.0,0.0,0.0,0.0,0.0,0.0
1737286298.7460034,21170,1737286298,742275800,base_link,-303000.0,-182000.00000000006,-400000.0,-1.0,0.0,0.0,0.0,0.0,0.0,0.0,0.0,0.0
1737286298.845425,21171,1737286298,842257800,base_link,-298000.0,-175000.00000000006,-370000.0,-1.0,0.0,0.0,0.0,0.0,0.0,0.0,0.0,0.0
1737286298.9451838,21172,1737286298,942291080,base_link,-292000.0,-159000.00000000006,-359000.0,-1.0,0.0,0.0,0.0,0.0,0.0,0.0,0.0,0.0
1737286299.0453725,21173,1737286299,42237080,base_link,-288000.0,-171000.00000000003,-324000.0,-1.0,0.0,0.0,0.0,0.0,0.0,0.0,0.0,0.0
1737286299.1457133,21174,1737286299,144335104,base_link,-287000.0,-171000.00000000003,-330000.0,-1.0,0.0,0.0,0.0,0.0,0.0,0.0,0.0,0.0
