Time,header.seq,header.stamp.secs,header.stamp.nsecs,header.frame_id,twist.linear.x,twist.linear.y,twist.linear.z,twist.angular.x,twist.angular.y,twist.angular.z
1737286264.3048036,20725,1737286254,343182976,base_link,-0.01654591435769425,0.005644145856622181,0.048838579683785625,0.3341483473777771,-0.23439030349254608,0.07984498888254168
1737286264.304952,20726,1737286254,446184768,base_link,-0.029407725755837708,-0.008708057046617854,0.06269548808658777,-0.17436054348945618,0.3175494968891144,0.19318076968193051
1737286264.3052769,20727,1737286254,543187840,base_link,-0.016922388379281245,0.009732219131603296,0.08800092846049071,-0.7390952110290527,0.18821553885936737,0.07629778236150739
1737286264.3054652,20728,1737286254,643189888,base_link,-0.02372557517094131,-0.009914185244223904,0.10207542683414975,-0.31141597032546997,0.06841301172971724,-0.07463655620813371
1737286264.3079257,20729,1737286254,743191680,base_link,-0.05738012237807087,-0.046992928030642464,0.07570726433967445,0.2360343337059021,-0.4191771447658539,-0.14149278402328486
1737286264.3081565,20730,1737286254,843193728,base_link,-0.06066464839975988,-0.0270267859620641,0.09442502378955153,-0.09625370055437088,-0.1972679495811462,0.1333446651697159
1737286264.3087373,20731,1737286254,943197056,base_link,-0.076061130236759,-0.031077779425988966,0.10197082936196517,-0.6618509292602539,0.28148216009140015,0.04239588603377339
1737286264.3089764,20732,1737286255,43198848,base_link,-0.10381095350667861,-0.04667096105270915,0.0980273048649796,-0.3787567913532257,0.07453379780054092,0.03538679331541061
1737286264.3093822,20733,1737286255,143197312,base_link,-0.16489766038997408,-0.08014750029303615,0.0702345340347857,0.3518626093864441,-0.4468387961387634,-0.010397223755717222
1737286264.3097246,20734,1737286255,246199360,base_link,-0.20347833123142045,-0.09082560890323399,0.06608183515657831,0.4173623025417328,-0.07020967453718185,0.04195912182331086
1737286264.3101032,20735,1737286255,343202432,base_link,-0.21417500055519642,-0.07860951311950397,0.09533827862741992,-0.15233595669269562,0.039210315793752615,-0.4306364357471466
1737286264.3103313,20736,1737286255,443204480,base_link,-0.2631016828746843,-0.08604374039109085,0.08899523687937425,-0.7014706134796143,0.05987168103456489,-0.6701413989067078
1737286264.3105028,20737,1737286255,543206272,base_link,-0.30262548795104954,-0.11403441798193728,0.09059128169536221,-0.5798477530479431,-0.019913872703910002,-1.049985647201538
1737286264.310741,20738,1737286255,643208576,base_link,-0.3381785045255298,-0.15260232615187921,0.08083005975361458,0.1637718677520752,0.049829263240098794,-1.3010849952697754
1737286264.3109925,20739,1737286255,743210624,base_link,-0.34338084117731565,-0.20531998496558299,0.06784278420105015,0.21677197515964508,0.12095397710800154,-1.3571228981018066
1737286264.311464,20740,1737286255,843212672,base_link,-0.36747934231886836,-0.2587644732374773,0.04854037307014546,-0.22023777663707733,-0.0305615924298765,-1.4138643741607666
1737286264.3117046,20741,1737286255,943216000,base_link,-0.3751568314926629,-0.3519765928359038,0.06459702261878218,0.20583689212799072,-0.07016957551240939,-1.5165207386016846
1737286264.3120124,20742,1737286256,46218304,base_link,-0.3290759873003036,-0.4132422177079489,0.08322218626314386,-0.4252144694328308,0.19012100994586928,-1.3715075254440308
1737286264.3122935,20743,1737286256,143221888,base_link,-0.30630355584682134,-0.49504255793456886,0.0666438286718442,-0.05131056159734726,0.09774019569158539,-1.2842090129852295
1737286264.3125134,20744,1737286256,243223936,base_link,-0.2458853345234442,-0.5705377638993658,0.05948721105990641,-0.21222497522830963,0.3194873929023741,-1.1495999097824097
1737286264.3127759,20745,1737286256,346225984,base_link,-0.19573626498332064,-0.6392303520215319,0.03063205597652463,-0.8680469989776611,0.2753942012786864,-1.086327075958252
1737286264.3136778,20746,1737286256,443228288,base_link,-0.1110737733796221,-0.6406780821516492,0.0359587231599782,-0.8187267780303955,0.239159658551216,-1.0394095182418823
1737286264.3139155,20747,1737286256,543231872,base_link,-0.05904515227747997,-0.6674049552955594,-0.01354733181524996,-0.3753342628479004,-0.03391657024621976,-1.0307691097259521
1737286264.3141108,20748,1737286256,643234176,base_link,-0.012783558307803571,-0.6596851023577799,-0.04693744961335297,0.1821051687002182,-0.26586487889289867,-1.1301640272140503
1737286264.314369,20749,1737286256,746236480,base_link,0.05071144645598131,-0.6092434106637594,-0.051176059987863544,0.3335441052913666,-0.035043820738792544,-1.0453044176101685
1737286264.3146808,20750,1737286256,843238784,base_link,0.08952007905598539,-0.5637685368674691,-0.06960900395858124,0.3452923595905304,-0.07285977154970182,-1.0691543817520142
1737286264.3149512,20751,1737286256,943240832,base_link,0.13330596282889332,-0.5017333431780994,-0.05387254870543624,-0.0714879110455513,0.08657674491405473,-1.1217025518417358
1737286264.3151453,20752,1737286257,43243136,base_link,0.1516148807596669,-0.44437908783206276,-0.05609876298896524,-0.5901556611061096,0.02014893665909756,-0.8944804072380066
1737286264.315462,20753,1737286257,143245952,base_link,0.16314452783141487,-0.40390217801576495,-0.04934932886478643,0.6472328901290894,-0.0005200337618590656,-1.024556279182434
1737286264.3159053,20754,1737286257,243248256,base_link,0.2026886273274762,-0.38387426464618146,-0.031391616286654336,0.1813892424106598,0.35004448890686024,-1.0675501823425293
1737286264.3167892,20755,1737286257,343250816,base_link,0.22576120591870588,-0.41413012893643564,-0.002619979626721624,0.5954177975654602,0.20567791163921342,-1.019963026046753
1737286264.3172247,20756,1737286257,443253376,base_link,0.26573039715593116,-0.42868581965896746,0.02399907900573,0.5694447755813599,-0.2304407656192781,-1.125712275505066
1737286264.3175619,20757,1737286257,543255680,base_link,0.3436070235876196,-0.43681580779190915,0.039516941953958704,0.0014334004372358322,-0.23118829727172865,-1.2368870973587036
1737286264.3177934,20758,1737286257,643258496,base_link,0.43536469455749127,-0.4079203835427826,0.05105699692187237,-0.4453282952308655,-0.20518608391284957,-1.1642870903015137
1737286264.318028,20759,1737286257,743260800,base_link,0.48330485003375695,-0.35518777016011843,0.031313232233088635,-0.8772193193435669,0.004097301978617774,-1.086260199546814
1737286264.3181834,20760,1737286257,843263104,base_link,0.49328409953301544,-0.3204054571056609,0.008185568312110772,0.3128111958503723,-0.20415891706943523,-1.0067585706710815
1737286264.3183734,20761,1737286257,943264896,base_link,0.477883819286196,-0.2729241653513385,0.001375019674234479,0.4232170283794403,-0.06988354027271285,-1.1378111839294434
1737286264.318526,20762,1737286258,43267456,base_link,0.4919738515765845,-0.21211224791058222,0.026404582731487616,0.19645161926746368,0.2786211371421813,-1.0763319730758667
1737286264.3190866,20763,1737286258,143269504,base_link,0.4877045310969919,-0.16499681158258456,0.05978259468534745,-0.021553561091423035,0.14708697795867906,-1.1039271354675293
1737286264.3196468,20764,1737286258,243271808,base_link,0.5067350224205761,-0.12428743684321858,0.0818310543929249,0.45308902859687805,-0.26526114344596874,-0.8307480216026306
1737286264.3197932,20765,1737286258,343273856,base_link,0.5254247577862918,-0.08158640763670046,0.08440947265235713,-0.05334663391113281,-0.1918414980173112,-0.8191903829574585
1737286264.3200054,20766,1737286258,443276416,base_link,0.5363788328809802,-0.04069527770665922,0.05810541994318159,0.0008335886523127556,-0.13410322368144992,-0.3147699236869812
1737286264.320128,20767,1737286258,543278464,base_link,0.5260536796934281,-0.016194115116069725,0.01971417418716459,0.2956792712211609,-0.47892338037490845,0.11933173239231115
1737286264.3202057,20768,1737286258,643281024,base_link,0.5021943875246193,-0.028508280533716006,0.01971484110336024,-0.42945486307144165,0.012930829077959078,0.148603156208992
1737286264.3203359,20769,1737286258,743283328,base_link,0.47058678056074393,0.00774818035938277,0.02008714982102705,-0.29243722558021545,0.1239276677370072,0.44906386733055115
1737286264.3207743,20770,1737286258,843286144,base_link,0.41958680432240797,-0.007473253617619307,0.009680710216199082,0.14947353303432465,0.01725024171173577,0.3591765761375427
1737286264.3216493,20771,1737286258,943288192,base_link,0.37800690658844455,0.00017050624840333475,0.027235565586982816,0.2629718780517578,-0.01877926848828791,0.14569488167762756
1737286264.322106,20772,1737286259,43290496,base_link,0.35182244946822333,0.03328502083776923,0.04223554244725993,0.2183971405029297,-0.11093368381261819,0.5510210990905762
1737286264.322277,20773,1737286259,143293056,base_link,0.33172042806541235,0.06355164385915776,0.07396736732812399,-0.29802626371383667,0.2006868273019791,0.3215171992778778
1737286264.3224113,20774,1737286259,243295872,base_link,0.2903472951570202,0.047743459690635676,0.058437617796351045,0.2936878800392151,-0.09988357871770857,0.06260703504085542
1737286264.3227775,20775,1737286259,343298432,base_link,0.2678007873392997,0.06341949030506801,0.06567434471403452,0.46505454182624817,-0.2992537319660187,0.1302047669887543
1737286264.324057,20776,1737286259,443300992,base_link,0.2278027926081403,0.08969487798889474,0.05827485720257222,0.39235252141952515,-0.2191396802663803,0.028454590588808087
1737286264.3241875,20777,1737286259,543303040,base_link,0.2088097602504013,0.10755852865128161,0.07560241338744726,-0.12367211282253265,0.05771568417549134,0.0289021860808134
1737286264.3242407,20778,1737286259,643305856,base_link,0.17254711806094633,0.12778223522942272,0.0788701711602262,-0.27383682131767273,0.24997073411941528,0.04461231827735898
1737286264.3243415,20779,1737286259,743308416,base_link,0.14781354758856383,0.11998579146098091,0.0767511561977737,-0.4138081967830658,0.22508692741394046,0.18901553750038144
1737286264.3244731,20780,1737286259,843310976,base_link,0.1163647720027198,0.09955143417776083,0.05341588571490584,0.44107893109321594,0.15684270858764648,-0.06260233372449876
1737286264.3245645,20781,1737286259,943313792,base_link,0.12459214152609992,0.11579052205167883,0.05067659487062519,-0.5313053727149963,0.13413634896278384,0.24768248200416562
1737286264.3257627,20782,1737286260,43316608,base_link,0.12279954886264494,0.11451427015504755,0.03068504573535917,-0.3569100499153137,0.09104372560977934,-0.11129315197467805
1737286264.3300064,20783,1737286260,143319424,base_link,0.12304412536163796,0.0868519631456337,0.03202146109376542,-0.1530604511499405,0.04071298986673354,-0.13266204297542572
1737286264.330044,20784,1737286260,243322240,base_link,0.09291137036060301,0.06193455369551044,0.004630747776991002,0.08112241327762604,-0.23331817984580996,-0.22901798784732816
1737286264.3301032,20785,1737286260,343325056,base_link,0.08918155378484902,0.031018820287572132,-3.446140095337072e-05,0.4390522241592407,-0.012633513659238822,-0.06126706674695015
1737286264.3301265,20786,1737286260,443327872,base_link,0.08367096548673617,0.03619292042255705,-0.010963763510551573,0.1941262185573578,0.00662931241095067,0.07629130780696869
1737286264.3301513,20787,1737286260,543330688,base_link,0.10545354717691924,0.05685916621256491,0.0051370041680912654,0.03307217359542847,0.17488913238048556,0.19978362321853635
1737286264.3301766,20788,1737286260,643333504,base_link,0.10573403538972577,0.035738296527120045,-0.004422580571063615,-0.3295675218105316,0.2071125954389572,-0.11805604398250583
1737286264.3302057,20789,1737286260,743336320,base_link,0.08714820849108344,0.012518683843245884,-0.0067018983243939245,0.16429036855697632,-0.2566927671432495,-0.13912865519523618
1737286264.3356984,20790,1737286260,846339392,base_link,0.09749570969737376,0.01910666203525662,-0.01445095498981246,0.4250379204750061,-0.20076881349086761,0.04596820473670962
1737286264.3362727,20791,1737286260,943342208,base_link,0.0913224769284957,0.02818874056771429,-0.009330063512314052,-0.19467857480049133,-0.018012216314673403,0.15770936012268066
1737286264.3363144,20792,1737286261,43345024,base_link,0.08461506563664437,0.050101629058193695,0.0016154788896379836,-0.12154045701026917,0.09843088686466218,0.16253787279129028
1737286264.33636,20793,1737286261,143348096,base_link,0.09027062737108417,0.06597492017475376,-0.0043336697522232525,0.15155702829360962,0.14899241924285891,0.2770943343639374
1737286264.3368127,20794,1737286261,243349632,base_link,0.0966268816661074,0.07153550174660973,-0.0002864713833699633,-0.42655128240585327,0.26086875796318054,-0.028837621212005646
1737286264.3368735,20795,1737286261,343350912,base_link,0.07790371404135582,0.032196549896027445,-0.029825970037433047,0.370556116104126,-0.3028712868690491,-0.19131985306739804
1737286264.3369439,20796,1737286261,443352704,base_link,0.08086779966761985,0.02778861567982089,-0.03590700230488521,0.3118097186088562,-0.1161121353507042,0.03514249995350839
1737286264.3369763,20797,1737286261,543353728,base_link,0.0936307755905866,0.03215143480831377,-0.02009705939164478,-0.363635390996933,0.2896203398704529,-0.09779382497072224
1737286264.3370404,20798,1737286261,643355008,base_link,0.07878134830313864,-0.021531186087504834,-0.04177867718949497,0.2881457209587097,-0.3002139031887055,-0.2270555347204208
1737286264.337282,20799,1737286261,743356288,base_link,0.08217237210709046,-0.009370786806086846,-0.034133575062314694,0.0028956588357686996,-0.018155572935938804,0.24909652769565582
1737286264.3408506,20800,1737286261,846357824,base_link,0.08038685891345865,-0.015747317389983927,-0.022155263429342157,-0.09525609761476517,0.06157956644892691,-0.10429536551237108
1737286264.3408797,20801,1737286261,943360640,base_link,0.056438456181317105,-0.06546915190138518,-0.036181915089210724,0.4021163284778595,-0.17332550883293152,0.016644911840558073
1737286264.3409014,20802,1737286262,43362176,base_link,0.07031383228736272,-0.03286395853533787,-0.021087764407016468,-0.7561226487159729,0.33358556032180786,0.13151137530803678
1737286264.34125,20803,1737286262,143364736,base_link,0.04761446065493161,-0.06021974286894516,-0.021703719090940436,-0.08753693103790283,-0.0984642505645752,-0.04194118827581404
1737286264.3414829,20804,1737286262,243366016,base_link,0.039968857646787974,-0.07028224260523395,-0.018325607738612977,0.5894607901573181,-0.2762755751609802,0.059362355619668995
1737286264.3418028,20805,1737286262,343368832,base_link,0.021956190041865768,-0.07403640631139176,-0.02413376676838006,0.10932827740907669,-0.12425132095813748,0.2497655898332596
1737286264.342449,20806,1737286262,443370368,base_link,0.04274122146851716,-0.04382159819607578,-0.00686735863227254,-0.6462233662605286,0.39651480317115784,0.1850482672452926
1737286264.3446841,20807,1737286262,546372928,base_link,0.029021499451689012,-0.047927608967023375,-0.01720684319096759,-0.29978373646736145,-0.021012187004089366,-0.08140509575605392
1737286264.344765,20808,1737286262,643374464,base_link,0.016431044475952655,-0.05965309565241143,-0.009247355764198818,0.15163938701152802,0.05064406618475911,-0.23731982707977295
1737286264.3448923,20809,1737286262,743377024,base_link,0.005273572426689549,-0.06726176098845495,-0.023758334920081385,0.2975568175315857,-0.2235558032989502,-0.106018953025341
1737286264.344914,20810,1737286262,843378560,base_link,0.0009562833800398357,-0.05225870962624877,-0.02072718297354771,0.06480234861373901,-0.14751861989498136,0.21541067957878116
1737286264.3466957,20811,1737286262,943379584,base_link,0.008835259366199829,-0.023405725677303,0.005292768811806962,-0.8215716481208801,0.26532047986984253,0.043300691992044414
1737286264.3467138,20812,1737286263,43379584,base_link,0.015101463111584952,-0.017217624869400452,0.014060984960271063,-0.42892155051231384,0.13671134412288666,-0.10618490725755693
1737286264.346831,20813,1737286263,143382656,base_link,0.03992842752732789,-0.02651758790273764,0.0033783954017766607,0.10968438535928726,0.37330272793769836,-0.21442200243473059
1737286264.3468626,20814,1737286263,243384448,base_link,0.1000124635982978,-0.06155458422151036,-0.010960861345069968,0.7393921613693237,0.5317233800888062,-0.171976387500763
1737286264.3494155,20815,1737286263,343385984,base_link,0.2155458788560749,-0.06941171857500329,0.003130045938879139,0.20162822306156158,0.6628289818763733,0.1674361824989318
1737286264.3501904,20816,1737286263,443387776,base_link,0.4075269144913882,-0.084928674286756,0.07363161354024858,-0.27043089270591736,0.7326303124427795,-0.07220765203237542
1737286264.3502169,20817,1737286263,543389568,base_link,0.6095469662151307,-0.11295193315932324,0.14039583838938666,0.051520414650440216,0.3817520439624786,-0.5011181831359863
1737286264.3575485,20818,1737286263,643391104,base_link,0.8619274430633493,-0.10604788717591483,0.2438049693149677,0.16143101453781128,0.19754719734191886,-0.7315527200698853
1737286264.3575866,20819,1737286263,743392640,base_link,1.148955894786033,-0.033603956097692865,0.32234422923263384,-0.08745618909597397,-0.08397712558507926,-0.6053422689437866
1737286264.3579223,20820,1737286263,843394432,base_link,1.4087181403139513,0.047084923578129725,0.3774319182639881,0.019546158611774445,-0.2534244656562806,-0.3849720656871795
1737286264.3579478,20821,1737286263,943396224,base_link,1.6658873283055429,0.15423801875527166,0.4364375886940677,0.0508071631193161,-0.022243108600378064,-0.21657449007034302
1737286264.358233,20822,1737286264,43398016,base_link,1.8797952324774694,0.21884112441852568,0.49030700802300625,-0.1945553570985794,-0.22078904509544378,-0.5508365631103516
1737286264.3585157,20823,1737286264,143399808,base_link,2.09677540352106,0.30227893593531646,0.4632481048196822,-0.5315956473350525,-0.2741834819316864,0.1224373131990433
1737286264.3594713,20824,1737286264,243401600,base_link,2.2614485995361364,0.3173316099492705,0.4082698205043482,0.09330172836780548,-0.4378695487976074,-0.016806179657578416
1737286264.3595443,20825,1737286264,343403392,base_link,2.41130319000023,0.3399885773852211,0.3720923015995214,-0.9062591791152954,-0.16536349058151242,0.14868518710136416
1737286264.4487066,20826,1737286264,446405184,base_link,2.4996235135719793,0.34893295928819956,0.3190811255362618,-0.019389763474464417,-0.30868884921073914,-0.023823495954275093
1737286264.5479815,20827,1737286264,543406720,base_link,2.561604977083519,0.31992693772813496,0.28562091341923834,0.044036366045475006,-0.01933054625988004,0.1988147795200348
1737286264.6470153,20828,1737286264,643408512,base_link,2.605728059961555,0.2847168719524094,0.28791660093199883,-0.014280809089541435,0.030267786234617265,0.26218536496162415
1737286264.7485473,20829,1737286264,743410304,base_link,2.6321788749696866,0.23321451200004423,0.3329824428168451,-0.3936058580875397,0.23416128754615786,0.21098425984382627
1737286264.845708,20830,1737286264,843412352,base_link,2.652054996907224,0.1681496647988287,0.35562172120419877,-0.3792434334754944,0.20508888363838199,0.2978321313858032
1737286264.9473977,20831,1737286264,943415424,base_link,2.6807725103181794,0.10548239601126337,0.3597654192828238,-0.07367981970310211,0.09007214754819873,0.1942577213048935
1737286265.0475743,20832,1737286265,43417216,base_link,2.714161390838341,0.0400524223793535,0.3864438713598541,0.24751199781894684,0.15963049232959747,0.061406951397657374
1737286265.1472166,20833,1737286265,143419008,base_link,2.7531665946678903,0.01479665246077547,0.3824331164918293,0.3918101489543915,-0.4013242721557617,0.11745996028184896
1737286265.2515533,20834,1737286265,243421056,base_link,2.7801538727197825,-0.014556575106123633,0.3510322398706694,0.1710139662027359,-0.1312305927276611,0.14982943236827853
1737286265.3509665,20835,1737286265,343423360,base_link,2.818341676977058,-0.03126298245324771,0.3594235740731483,-0.0510251522064209,-0.18928794562816623,-0.1994197219610214
1737286265.4507847,20836,1737286265,443425664,base_link,2.853741917100647,0.0042231656183587315,0.39571666533906047,-0.19277778267860413,0.13996849954128265,0.024319503456354124
1737286265.5489721,20837,1737286265,543427456,base_link,2.853338942561735,0.014319865026446062,0.42340611798888705,0.1783008724451065,0.10721601545810698,-0.05949564278125764
1737286265.6497352,20838,1737286265,643429504,base_link,2.899697863713832,0.06440681232800757,0.45644530294545016,0.012795424088835716,-0.13586172461509705,-0.10608062148094176
1737286265.7510695,20839,1737286265,743431552,base_link,2.924135465600759,0.10911956966313778,0.4815604744324165,-0.2184167355298996,0.03225231170654296,-0.0339801236987114
1737286265.849447,20840,1737286265,843434112,base_link,2.9589898434219752,0.1340081349813633,0.4894838754891697,-0.3669266998767853,0.03529129922389985,0.03728079050779342
1737286265.9499154,20841,1737286265,943436160,base_link,2.974415197851202,0.14631753876784656,0.4977711602165083,-0.44682082533836365,0.06288038939237596,0.08841147273778914
1737286266.0495667,20842,1737286266,43438464,base_link,2.9817267653716053,0.14308075856196759,0.5050138277209855,-0.15773963928222656,0.07266660034656526,0.06483630836009978
1737286266.1503417,20843,1737286266,143440256,base_link,2.983526325058209,0.1460030404238618,0.5150145011151563,0.3455823063850403,-0.28049883246421814,0.017906280234456097
1737286266.248404,20844,1737286266,243442560,base_link,2.9928853136748894,0.16473388033873831,0.4761598068300955,0.3264179229736328,-0.1817866414785385,0.08034376055002215
1737286266.3490741,20845,1737286266,343444352,base_link,2.987548738372417,0.16465927757759907,0.42681579596526387,0.31944650411605835,-0.22757115960121155,0.028747327625751523
1737286266.4487429,20846,1737286266,443446400,base_link,2.9493355015071283,0.15241614511055906,0.3766370982102911,0.21047820150852203,-0.4378620982170105,0.014484629034996086
1737286266.5504665,20847,1737286266,546448192,base_link,2.9047287171177727,0.1778388206752986,0.3582238036940263,-0.16887342929840088,-0.40106046199798584,0.09654940664768225
1737286266.6534874,20848,1737286266,643450496,base_link,2.7989469319319475,0.3832705197874429,0.3508301970431555,-0.43972697854042053,-0.325955182313919,0.3039547502994538
1737286266.748821,20849,1737286266,743452544,base_link,2.713550035385627,0.2574134346517579,0.3538010148929892,-0.5453400015830994,-0.25316265225410456,0.4619924724102021
1737286266.8484945,20850,1737286266,843454848,base_link,2.6094435951813266,0.08141472563472354,0.3851320904440576,-0.7353108525276184,0.060917370021343294,0.527294397354126
1737286266.94828,20851,1737286266,943457152,base_link,2.4813055904882995,-0.004446274677634754,0.4235935070151058,-0.5708000063896179,0.14255262911319735,0.32489848136901855
1737286267.0479271,20852,1737286267,43459968,base_link,2.351065085872836,-0.028291240578575627,0.42642778616534355,-0.24674217402935028,-0.1106140315532684,0.2707563638687134
1737286267.189222,20853,1737286267,144462016,base_link,2.2140904751027084,-0.026030085135870157,0.43545336376982663,-0.1559775173664093,-0.2256178259849548,0.31816136837005615
1737286267.2498107,20854,1737286267,246464320,base_link,2.084435907128723,0.018337888546700556,0.47340160063214964,0.17482663691043854,-0.21920408308506006,0.37052813172340393
1737286267.3474917,20855,1737286267,343466624,base_link,1.9393528197016285,-0.011991672280025623,0.4615735084286855,0.2982632517814636,-0.2575908601284026,0.7099910378456116
1737286267.4524722,20856,1737286267,443468928,base_link,1.827291055638053,-0.002818471838773387,0.47765598011155586,-0.30133122205734253,0.24918487668037426,0.9486076235771179
1737286267.5494916,20857,1737286267,543470976,base_link,1.6865811355136011,-0.018312588051799708,0.45763219289284773,0.4430363178253174,-0.3355154395103454,0.6766246557235718
1737286267.6502128,20858,1737286267,643473280,base_link,1.5972890206592472,0.037939991242980545,0.4717123011426752,-0.2111358493566513,-0.05647737905383096,1.141496181488037
1737286267.7510512,20859,1737286267,743475584,base_link,1.477699315255078,-0.007035441523568123,0.4639514324502178,0.015362509526312351,-0.14317582547664628,1.1926970481872559
1737286267.8495417,20860,1737286267,843478144,base_link,1.3819089088092278,-0.04979383129734695,0.48730578195842594,0.20219847559928894,-0.06216318160295476,0.8497001528739929
1737286267.9566634,20861,1737286267,943479936,base_link,1.2995056363051953,-0.08457898525073669,0.5311626057662501,-0.2913202941417694,0.32345089316368125,1.600669264793396
1737286268.0501087,20862,1737286268,43482496,base_link,1.2201670236035702,-0.1382369050041559,0.5595837116748699,-0.018456820398569107,-0.2357320338487624,0.9548017382621765
1737286268.1493592,20863,1737286268,146478656,base_link,1.1346631904472768,-0.17319779262138013,0.5448565975701334,0.22108496725559235,-0.19362528622150404,1.339756965637207
1737286268.247991,20864,1737286268,243481216,base_link,1.0935364368696354,-0.1769852958852266,0.5376294894378989,-0.48648378252983093,0.08501829952001586,1.1766425371170044
1737286268.3494177,20865,1737286268,343483520,base_link,1.0718468251046858,-0.15746321538320618,0.5185084530582436,-0.11718001216650009,-0.10169768333435046,1.0098750591278076
1737286268.4537754,20866,1737286268,443486336,base_link,1.0666473496488187,-0.1216637279442293,0.5340582984885639,0.4380341172218323,-0.34429094195365895,1.042616605758667
1737286268.5484772,20867,1737286268,543488896,base_link,1.0606339590020015,-0.10259670717696937,0.5189436061745595,0.4639986455440521,-0.5400900840759276,0.8274628520011903
1737286268.65321,20868,1737286268,643488640,base_link,1.0676151152866145,-0.0995371084747677,0.49626930515664053,0.6331676244735718,-0.42488878965377797,0.9858965873718262
1737286268.749153,20869,1737286268,743491200,base_link,1.048731204622095,-0.09657327492782472,0.49567180215837303,0.4813471734523773,-0.36683809757232655,1.063712239265442
1737286268.8480415,20870,1737286268,843492224,base_link,1.0212631654117021,-0.10476336426742817,0.5069758458043377,0.20368564128875732,-0.03365386649966227,1.056020736694336
1737286268.9495447,20871,1737286268,943494528,base_link,1.015552706617789,-0.09438719014100486,0.5202846678092006,-0.14587941765785217,-0.026945522055029758,0.9160506725311279
1737286269.0488646,20872,1737286269,43495808,base_link,0.9973123654396485,-0.09297351449225508,0.4849435003884348,0.06295628845691681,-0.060096003115177064,0.746908962726593
1737286269.1502488,20873,1737286269,143498112,base_link,0.9656306686703664,-0.09967366498109777,0.42272414933689395,-0.2857077121734619,-0.20426057279109947,0.6899985074996948
1737286269.249961,20874,1737286269,243499136,base_link,0.922185968885754,-0.08818683538302413,0.36958174354693174,0.30881598591804504,-0.11918833851814264,0.4468076527118683
1737286269.3497431,20875,1737286269,343501696,base_link,0.8768379903929322,-0.06803636944130978,0.2992518338637565,0.4820428490638733,-0.21936155855655665,0.3623255789279938
1737286269.4495094,20876,1737286269,443502976,base_link,0.8325018124167685,-0.0366033066861352,0.2293537186915563,0.25152403116226196,-0.23350831866264338,0.3657062947750092
1737286269.54929,20877,1737286269,543505536,base_link,0.783454211057708,0.023959408981013272,0.1759506761766515,0.24363185465335846,-0.07617069780826564,0.36387917399406433
1737286269.6494586,20878,1737286269,643506816,base_link,0.720219072621045,0.042975403637331995,0.13866583547116962,-0.4511791467666626,0.17044425010681155,0.2853267192840576
1737286269.7497463,20879,1737286269,743509376,base_link,0.6458045941224753,0.05234051904544437,0.0849135814801123,-0.2307988852262497,0.11398510634899141,0.09301377087831496
1737286269.8491328,20880,1737286269,843510656,base_link,0.5597055148138369,0.03244904729903874,0.035249111328370705,0.6003457903862,-0.1537257581949234,0.06940606236457826
1737286269.955317,20881,1737286269,943513472,base_link,0.5102499627757225,0.06419216858030354,0.01564339651855487,-0.5170367360115051,0.21808354556560522,0.4597119390964508
1737286270.0493844,20882,1737286270,43514752,base_link,0.4425770097635072,0.04722489003062003,0.011018649473452453,-0.2919292449951172,0.02851473540067675,0.19038185477256775
1737286270.1497078,20883,1737286270,146517568,base_link,0.3721725367074761,0.03699506302095081,-0.0016137887853505915,0.3387199938297272,-0.16312547028064725,0.32231420278549194
1737286270.2495074,20884,1737286270,243518848,base_link,0.32084786117023034,0.062203577181407226,-0.006291029360117736,-0.607646107673645,0.23836906254291543,0.6192490458488464
1737286270.3496256,20885,1737286270,346521664,base_link,0.26770270845096605,0.07440748797873285,0.019395063099391548,0.04628225043416023,0.0926456153392792,0.27702510356903076
1737286270.4493454,20886,1737286270,443523200,base_link,0.20450321986510353,0.046407498420891695,0.02380051300857596,0.47083210945129395,-0.09742447733879084,0.5034745335578918
1737286270.548915,20887,1737286270,543525760,base_link,0.18581522935358377,0.08131066587634846,0.05498834624471006,-0.4523947834968567,0.15371525287628182,0.5974711179733276
1737286270.6493263,20888,1737286270,643527040,base_link,0.13416340511790117,0.05147570825479196,0.05148486967742019,0.3716341555118561,-0.12556114792823783,0.6815341711044312
1737286270.749379,20889,1737286270,743529856,base_link,0.12659519361268806,0.07871027070339341,0.09064542242695452,0.16182872653007507,-0.05558043718338008,0.3998525142669678
1737286270.8520026,20890,1737286270,843531136,base_link,0.0968538328170195,0.05009832387103447,0.08987152224104955,0.556171715259552,-0.22629462182521817,0.3376407027244568
1737286270.9539576,20891,1737286270,943533952,base_link,0.08372474285956345,0.07822201536946359,0.1329151099983787,0.08673939108848572,0.06408319622278216,0.276165634393692
1737286271.0508049,20892,1737286271,43535232,base_link,0.05654285863126977,0.07016926911151672,0.12649518577080548,-0.3448825180530548,0.13162948191165927,0.2151456922292709
1737286271.1500194,20893,1737286271,143538304,base_link,0.027559853756562797,0.08580697807504324,0.13458023297231658,0.3952982723712921,0.03080642782151699,-0.012868667952716354
1737286271.2487907,20894,1737286271,243539584,base_link,0.02873838193182547,0.10034639084578106,0.1484341604074767,0.04581930488348007,0.28013768792152405,-0.16602700948715213
1737286271.3494666,20895,1737286271,343542400,base_link,0.007899156973010866,0.10435955600462474,0.12511293059126308,-0.5884016752243042,-0.02546649053692818,-0.03799368813633919
1737286271.4495096,20896,1737286271,443544192,base_link,0.004441545484297058,0.11955079167355562,0.11473812989914345,0.05604763701558113,0.08916227519512177,0.027886146679520597
1737286271.549531,20897,1737286271,543546496,base_link,-0.006327394962235369,0.12269745057293993,0.11049076207237273,-0.29131603240966797,0.3280661106109619,-0.15457071363925937
1737286271.649441,20898,1737286271,643547776,base_link,-0.023899378966671863,0.10385553661092264,0.1135090924163855,-0.045019008219242096,0.19004876911640164,-0.25959503650665283
1737286271.7555919,20899,1737286271,743550592,base_link,-0.0491415120456866,0.06124760921661056,0.0909056427381251,0.2691141963005066,-0.19573923945426946,-0.3504187762737274
1737286271.8523562,20900,1737286271,843552128,base_link,-0.05609625636994293,0.06031020869524202,0.0802499901388908,0.027157530188560486,0.04890750348567964,0.13543452322483063
1737286271.9518197,20901,1737286271,943553664,base_link,-0.051948087101709624,0.06467436350949653,0.10220579945138057,-0.28252744674682617,0.2432478964328766,-0.01727801747620109
1737286272.0501218,20902,1737286272,43555200,base_link,-0.07118760930126856,0.01842815821429515,0.08642850981760225,0.48457223176956177,-0.22629813849925998,-0.16448812186717984
1737286272.1490605,20903,1737286272,143558272,base_link,-0.07716127420066163,0.03982041190517127,0.0885965462993008,-0.046809855848550797,-0.08399119973182674,0.3284309208393097
1737286272.2499526,20904,1737286272,243559808,base_link,-0.07215149919201376,0.033644243601216026,0.11858258247548312,-0.6193987131118774,0.07234717905521393,-0.030014891177415858
1737286272.3494928,20905,1737286272,343561344,base_link,-0.09228340700116468,-0.009488186841569893,0.1083987819718207,0.4329790771007538,-0.2478277087211609,-0.029487429186701743
1737286272.4514387,20906,1737286272,446563136,base_link,-0.09782667673419192,-0.007390422731179208,0.09413123525373482,-0.039145659655332565,0.13820561766624453,0.23645794391632077
1737286272.5496616,20907,1737286272,543564160,base_link,-0.08296545987713025,0.018939711479678576,0.1151174019171399,-0.6878249645233154,0.12762786448001864,0.24884371459484098
1737286272.6498036,20908,1737286272,643565952,base_link,-0.09089211842807948,0.0016882163277565664,0.12346141444993385,0.015637384727597237,0.024812418967485424,-0.03186263144016266
1737286272.7501793,20909,1737286272,743567232,base_link,-0.0972422305921867,-0.023858157437240873,0.10411713338579286,0.09445394575595856,-0.1394544243812561,-0.09882837533950804
1737286272.8494134,20910,1737286272,843569024,base_link,-0.0992516049992206,-0.030112660786442275,0.10930488742459388,0.5016692280769348,-0.2358461767435074,-0.11355286091566083
1737286272.9489908,20911,1737286272,943570304,base_link,-0.10241217867866868,-0.03396417633096626,0.0976034872557481,0.3956943154335022,-0.27576133608818054,-0.1601607799530029
1737286273.0487638,20912,1737286273,43572096,base_link,-0.0961680562532214,-0.04035226647989081,0.08820228853821954,0.6049119234085083,-0.21626444160938266,-0.11425009369850156
1737286273.1498692,20913,1737286273,143567744,base_link,-0.09467586131766785,-0.03916929030713862,0.0746013445244558,0.4601651430130005,-0.22094574570655823,-0.0882536247372627
1737286273.2484274,20914,1737286273,243569536,base_link,-0.08743065759857607,-0.037704429467602406,0.06880465819349113,0.43067559599876404,-0.08443136513233185,0.013310980051755916
1737286273.3506413,20915,1737286273,343571328,base_link,-0.07893664789349511,-0.034086342426225394,0.05609902603823452,-0.026004048064351082,0.03412939608097077,0.06068513914942741
1737286273.450602,20916,1737286273,443573120,base_link,-0.06418885706391855,-0.0122262896304785,0.06224264191719198,-0.5427168607711792,0.29819026589393616,0.06433492898941036
1737286273.5503085,20917,1737286273,543574912,base_link,-0.055222790187464205,-0.01405353217122648,0.05427052829636299,-0.5745766162872314,0.17598319053649902,0.03778103366494177
1737286273.6504276,20918,1737286273,643576704,base_link,-0.06122741782607224,-0.04127022297512911,0.034646658100726604,-0.09374673664569855,-0.21013580262660983,-0.20510943233966825
1737286273.7501159,20919,1737286273,743578496,base_link,-0.05355112340664327,-0.057288763794811695,0.02266982107265729,0.4558543264865875,-0.18192116916179657,-0.007494640536606289
1737286273.849662,20920,1737286273,846580288,base_link,-0.0407821462135344,-0.05100743050590192,0.021050505756855513,0.3016680181026459,-0.0443299002945423,0.12198852002620697
1737286273.9505146,20921,1737286273,943582080,base_link,-0.030277050438423173,-0.011460261502774422,0.026320173881153205,-0.23302370309829712,0.22590632736682892,0.07941470295190808
1737286274.0494986,20922,1737286274,43584384,base_link,-0.018569438619395282,-0.012015127981830083,0.030778707204806306,-0.5365899801254272,0.15024016797542572,0.042666874825954416
1737286274.1503212,20923,1737286274,146586432,base_link,-0.0035196096797829187,-0.021903021490073865,0.029424176646339596,-0.20641791820526123,-0.08446951210498813,-0.21287274360656738
1737286274.2493958,20924,1737286274,243588736,base_link,-0.013006781170639659,-0.06141669439549738,0.021787030438989823,0.5788375735282898,-0.18882130086421967,-0.045472875237464884
1737286274.3488069,20925,1737286274,343590528,base_link,-0.01830559002707981,-0.0599228632502212,0.003399794377640644,0.45029565691947937,-0.07175023853778839,-0.029432203620672216
1737286274.4484212,20926,1737286274,443592576,base_link,0.003017989510368531,-0.045727256834732666,0.022396152069390194,-0.1471792757511139,0.08327633887529376,0.1856822967529297
1737286274.54846,20927,1737286274,543594624,base_link,0.01592799904874393,-0.032051917851927195,0.03770428959198458,-0.6664956212043762,0.1649707704782486,-0.03318350762128832
1737286274.648961,20928,1737286274,643596672,base_link,0.007155683339317768,-0.05579826596234609,0.01677983855454262,0.17216773331165314,-0.2523971199989319,-0.1382474899291992
1737286274.7499323,20929,1737286274,743598720,base_link,0.006903331132646366,-0.05820227779483195,0.011162499383842978,0.43909400701522827,-0.32676148414611816,-0.01920320652425285
1737286274.8500228,20930,1737286274,843600768,base_link,0.029149390577003862,-0.007460251343257367,0.021404732601963614,-0.11228043586015701,0.10834366828203204,0.2235952913761139
1737286274.9495182,20931,1737286274,943602816,base_link,0.03603423443299996,0.0022639250496492907,0.02753606694923003,-0.5925567150115967,0.2802741527557373,0.055980116128921474
1737286275.0483654,20932,1737286275,43604864,base_link,0.04106141798738713,0.004078514994470472,0.02686182785613536,-0.4563780725002289,0.08402280509471892,-0.097101166844368
1737286275.1490011,20933,1737286275,143606912,base_link,0.02623143550995783,-0.008590827055330121,0.01211997725787605,0.3397679924964905,-0.11376357078552247,-0.09640850871801375
1737286275.2491722,20934,1737286275,243609216,base_link,0.021892100932735976,-0.01837906836787112,-0.005002736805390389,0.5835188031196594,-0.2796035706996918,0.0075836856849491934
1737286275.3484638,20935,1737286275,343611008,base_link,0.03970061922071016,0.011710332537817997,0.0062685780835224775,0.26790541410446167,0.04607386887073518,0.11632142961025238
1737286275.4496279,20936,1737286275,443613056,base_link,0.048637466344132144,0.022389604342184573,0.009063060310242153,0.2192758023738861,0.2167685776948929,0.15432785451412198
1737286275.5494397,20937,1737286275,543614848,base_link,0.05674130362674659,0.03138303151331699,0.01881658300098197,-0.4059019386768341,0.31902599334716797,0.13945759832859037
1737286275.6489828,20938,1737286275,643616896,base_link,0.0635021903719632,0.038171261169285264,0.027416689498398962,-0.2912443280220032,0.15071387588977814,-0.05990888550877573
1737286275.7487152,20939,1737286275,743618688,base_link,0.05091128775647368,0.010479186908423742,0.006068751995527215,0.05455269664525986,-0.09416307508945468,-0.2302616685628891
1737286275.8500109,20940,1737286275,846620736,base_link,0.06363971977677002,0.02223345859822177,0.014970476366398271,0.43275830149650574,-0.29969891905784607,-0.17656499147415158
1737286275.9496224,20941,1737286275,943623040,base_link,0.043763922605790234,-0.0015935433169276887,-0.0006091244036004654,0.5134212374687195,-0.014788860455155367,0.04148975759744644
1737286276.0490704,20942,1737286276,43625344,base_link,0.045010196815934635,0.012455223092622716,-0.006118835115799506,0.5280921459197998,0.04074549674987794,0.03611805289983749
1737286276.148848,20943,1737286276,143627136,base_link,0.055545311663369436,0.028244633701075095,0.01008483847160424,-0.017394620925188065,0.19291856884956363,0.16652330756187436
1737286276.2493007,20944,1737286276,243627904,base_link,0.06051494503206649,0.0316671711353786,0.026466940698710424,-0.36363404989242554,0.31325265765190125,0.09846240282058712
1737286276.3497941,20945,1737286276,343629952,base_link,0.048770169979499296,0.015042243629639752,0.00811626917834264,0.0011657923460006714,-0.10927344113588336,-0.20095095038414001
1737286276.4503875,20946,1737286276,443630720,base_link,0.03277171403819407,-0.004480552386525351,-0.0058465232189507145,0.5079551339149475,-0.19748245179653168,-0.024562291800975775
1737286276.5499287,20947,1737286276,543632768,base_link,0.03941791348041367,0.008951958277684418,-0.0006393424012471566,0.22657062113285065,-0.0026708543300628424,0.1956218034029007
1737286276.649408,20948,1737286276,643633536,base_link,0.04091348598913372,0.01670926367184387,-0.006082791495295507,-0.09698045253753662,0.06141132116317751,0.1967717409133911
1737286276.7493353,20949,1737286276,743635840,base_link,0.05084162663027155,0.015559754237839804,0.009020494135246554,-0.3683620095252991,0.2763576805591583,-0.007907336577773129
1737286276.8484726,20950,1737286276,843636864,base_link,0.0424032711496229,0.010153407393226701,0.009024989588607545,-0.11478686332702637,0.06954455375671385,-0.09541065990924837
1737286276.9554994,20951,1737286276,943638912,base_link,0.0309571228734238,-0.004318717583156932,-0.0074652075634494604,-0.28562378883361816,0.04029596969485281,-0.16046220064163208
1737286277.049278,20952,1737286277,46639680,base_link,0.029143073983643956,0.013456819947774224,0.012701716983337484,0.3036995530128479,-0.11435427516698839,-0.15338084101676938
1737286277.1500242,20953,1737286277,143641984,base_link,0.010145389114838982,-0.020892861850234954,-0.01100082665076864,0.27944889664649963,-0.20614026486873627,-0.012544484809040997
1737286277.2494977,20954,1737286277,243643008,base_link,0.012587951634967648,-0.011363379014343679,-0.0029736364585760773,0.2005421221256256,-0.09686661511659621,0.059224326163530364
1737286277.355645,20955,1737286277,343645312,base_link,0.021994673538221418,0.010071755872899919,0.0032137324913480304,-0.26872947812080383,0.0907712206244469,0.2081955075263977
1737286277.4492042,20956,1737286277,443646336,base_link,0.024604647692463774,0.007266916021207221,0.006321249138657793,-0.7380595803260803,0.27625784277915955,0.07961905002593991
1737286277.5497873,20957,1737286277,543648384,base_link,0.020807156918606254,-0.0038737308360537745,0.011218144873474034,-0.22445906698703766,-0.06748322397470476,-0.11128799617290495
1737286277.6500711,20958,1737286277,643649408,base_link,-0.0062731282484215015,-0.030469544251408635,-0.017423345650874573,0.31346428394317627,-0.37780484557151794,-0.06461717933416362
1737286277.7501574,20959,1737286277,743651712,base_link,-0.013557397145829429,-0.033191951508114916,-0.02240972047649902,0.43084079027175903,-0.3014398515224457,-0.015472206287085974
1737286277.849375,20960,1737286277,843652992,base_link,-0.00891812206442909,-0.010006319705521717,-0.016906535240945073,0.11740332841873169,-0.010855953209102133,0.16522128880023956
1737286277.9482007,20961,1737286277,943655040,base_link,-0.011053839538361383,-0.004327853047804685,-0.01617668525287406,-0.28990718722343445,0.16556915640830996,0.16853752732276914
1737286278.0549705,20962,1737286278,43656064,base_link,-0.002093876389487348,0.01096487615948024,0.005791650450799631,-0.38882049918174744,0.5247421264648438,0.0778111666440963
1737286278.148001,20963,1737286278,143658368,base_link,-0.00877949152868186,0.00950760299727156,0.0006082325235985161,-0.41724294424057007,0.1571454554796219,0.018170438706874827
1737286278.2482622,20964,1737286278,243659648,base_link,-0.01615774561703984,0.0027915751549171253,-0.006553220631947495,-0.24280133843421936,-0.05035578459501268,-0.12066496908664703
1737286278.348358,20965,1737286278,343662208,base_link,-0.026836276824928715,-0.006949694939531049,-0.0005786005948308705,0.24465441703796387,-0.07008915394544603,-0.16159756481647491
1737286278.448595,20966,1737286278,443663488,base_link,-0.03423837525378881,-0.019051689313875783,-0.008882193783339473,0.35925567150115967,-0.1513410806655884,-0.20982745289802548
1737286278.5494778,20967,1737286278,543666304,base_link,-0.03213123296747527,-0.018830793613551184,-0.007645203302081834,0.5638989210128784,-0.12464015185832977,-0.0126801962032914
1737286278.6498177,20968,1737286278,646667328,base_link,-0.03211103336046686,-0.024995503348577808,-0.011939670053060967,0.28192487359046936,0.20117034018039706,0.18380676209926602
1737286278.7493718,20969,1737286278,743669888,base_link,-0.013004728087447607,0.009185523654048235,-0.004133108654804311,-0.2593145966529846,0.21980853378772736,0.05329753085970876
1737286278.8488967,20970,1737286278,843671168,base_link,-0.011125345442072332,-0.0039574983484881796,-0.00023399209135935002,-0.10970310121774673,0.07365698367357253,-0.1393464356660843
1737286278.9499402,20971,1737286278,946673984,base_link,-0.015977814265595646,-0.014415355912354004,-0.013219223191372042,0.26768699288368225,-0.2320251911878586,-0.14134977757930753
1737286279.0498765,20972,1737286279,46675520,base_link,-0.03123151389324431,-0.03443566161475998,-0.01335965884275863,0.1737743616104126,-0.0781760886311531,0.021035078912973414
1737286279.1485994,20973,1737286279,143678336,base_link,-0.006150957557324604,-0.0009859412614547792,-0.005135381237463937,-0.501317024230957,0.12333802133798602,0.27383092045783997
1737286279.2497025,20974,1737286279,246679872,base_link,-0.013876640587423446,0.0014995567477039385,-0.008389217294098486,-0.2141992747783661,0.14096212387084958,-0.1421243101358414
1737286279.3487866,20975,1737286279,343681408,base_link,-0.020041875641812926,-0.013941878418429364,-0.010121928646033793,-0.14729349315166473,-0.06721754372119906,-0.19820155203342438
1737286279.4489112,20976,1737286279,443682944,base_link,-0.030098059550183267,-0.015274740091945255,-6.236719272851443e-06,0.44835540652275085,-0.11739841103553773,-0.08358217775821684
1737286279.548746,20977,1737286279,543684224,base_link,-0.019499070799636097,0.0005018563915123131,-0.009914681798032982,0.07366306334733963,-0.027496119961142516,0.1915692239999771
1737286279.6488166,20978,1737286279,643686016,base_link,0.0010340624005365695,0.03135497764250607,0.012263162871950752,-0.5692635178565979,0.2968183159828186,0.11119499057531353
1737286279.748821,20979,1737286279,743687552,base_link,0.005904022686572788,0.035792524860512334,0.02242120926839387,-0.2961079478263855,0.1623983085155487,0.07935167849063872
1737286279.8497229,20980,1737286279,843689088,base_link,-0.004792859060811462,0.006095743965239848,0.002414977637883465,0.11246837675571442,-0.1356322765350342,-0.23788219690322873
1737286279.949527,20981,1737286279,943690624,base_link,-0.004351487950301393,-0.0009057067378621185,-0.012012492306983046,0.39856740832328796,-0.2879715859889984,-0.01994640193879601
1737286280.0489717,20982,1737286280,46692416,base_link,-0.018123465795705895,-0.0019264628112214955,-0.02225112456077736,0.0906696543097496,0.1535158157348633,0.15093724429607389
1737286280.1557572,20983,1737286280,143694208,base_link,-0.0006310517426931022,0.03420259557007851,-0.005704247885716407,-0.45373499393463135,0.14057463407516482,0.1942106336355209
1737286280.2518141,20984,1737286280,243695488,base_link,-0.00019484325740845348,0.039732593009296324,0.0017972560520529814,-0.5537995100021362,0.1078396961092949,0.07380132377147673
1737286280.3540573,20985,1737286280,343696768,base_link,-0.007807585443438399,0.028630906407734438,-0.0072722198891060985,-0.10503003001213074,-0.03636969625949862,-0.18865160644054413
1737286280.4494352,20986,1737286280,446698048,base_link,0.00335362314143916,0.037864187925867765,-0.00034610954871312186,0.05155425891280174,-0.20677986741065982,-0.20978376269340512
1737286280.5548036,20987,1737286280,543699328,base_link,-0.015783094045275285,0.013936873720410407,-0.016428752069185953,0.5459901094436646,-0.09999266266822815,-0.041374400258064256
1737286280.650004,20988,1737286280,646700608,base_link,-0.01702909556851298,0.016475341403663888,-0.02044821836695663,0.6020854115486145,-0.24878938496112823,-0.06346479058265683
1737286280.7493591,20989,1737286280,743701888,base_link,0.0016422669751362845,0.05160374780482604,-0.012750311489001393,0.004024256020784378,-0.014003447256982304,0.19097235798835754
1737286280.8498998,20990,1737286280,843703424,base_link,0.01835077056225498,0.06521096589343883,0.006957692065854362,-0.34764569997787476,0.18702815473079681,0.09437609463930127
1737286280.9498954,20991,1737286280,943704704,base_link,0.013116571690153123,0.056998266171423374,-0.0010841644709340664,-0.2751537561416626,0.05545413121581075,-0.20005540549755096
1737286281.0490637,20992,1737286281,43705984,base_link,0.004330677718855629,0.03893816200158508,-0.0073431777863936665,-0.09679211676120758,-0.16220900416374207,-0.08418476581573485
1737286281.1496465,20993,1737286281,143701120,base_link,-0.00329545736018802,0.025218000565521193,-0.010208077379728316,0.5590265989303589,-0.14588706195354462,-0.003563170786946994
1737286281.2495742,20994,1737286281,243702912,base_link,0.007911764297082744,0.03816888242003356,-0.015145268019171106,0.24993634223937988,-0.06481765210628507,0.1922427862882614
1737286281.3496268,20995,1737286281,343704192,base_link,0.013727553748076883,0.04805670993808159,0.01148917484718359,-0.25847557187080383,0.39760708808898926,0.18490253388881678
1737286281.4500158,20996,1737286281,443705728,base_link,0.009454296396704519,0.03125492152404895,0.008767798720053496,-0.20149223506450653,0.020067948848009103,-0.044721994549036026
1737286281.5528462,20997,1737286281,543707264,base_link,-0.0037877163252049402,0.006875848345774029,-0.007748216727493911,0.020869577303528786,-0.12474782764911654,-0.2286925762891769
1737286281.6489642,20998,1737286281,643708800,base_link,-0.008248472896944279,-0.01146739350219063,-0.009074050456377122,0.5161957144737244,-0.1234416738152504,0.048405166715383544
1737286281.750393,20999,1737286281,743710336,base_link,-0.015292332328902793,-0.008839277346244559,-0.016645573043799523,0.33008453249931335,0.10582005232572557,0.08221535384654997
1737286281.849793,21000,1737286281,843711872,base_link,-0.0048672458849049844,0.01723129246594189,-0.0014864798864894747,-0.13769413530826569,0.2607975900173187,0.22650933265686032
1737286281.949176,21001,1737286281,943713152,base_link,-0.0025698772889617898,0.018835468118136054,0.008427034457694462,-0.2204834222793579,0.13430696725845337,0.09184191375970839
1737286282.049428,21002,1737286282,43714688,base_link,-0.009241245935198374,0.0023667839982142763,0.0019858121361621666,-0.20164133608341217,0.030643992125987986,-0.17495405673980713
1737286282.1494958,21003,1737286282,143715968,base_link,-0.026010152734407842,-0.014904862297224226,-0.007957778577063798,0.32268255949020386,-0.24146758019924167,-0.18057298660278318
1737286282.249778,21004,1737286282,243717248,base_link,-0.04174446219646901,-0.02047872876582068,-0.02097895516161479,0.39453795552253723,-0.3084013760089874,-0.07889432460069652
1737286282.35252,21005,1737286282,343718272,base_link,-0.04135798269094466,-0.0015748575190306323,-0.004301840808845051,0.010104701854288578,0.037272449582815184,0.1085873544216156
1737286282.4521034,21006,1737286282,443719808,base_link,-0.03910730977140861,0.011635625209099462,-0.004006423507073573,-0.21247754991054535,0.001607511658221508,0.20175780355930328
1737286282.5537932,21007,1737286282,543721088,base_link,-0.033403768593942125,0.01628754075002177,0.015090665842966018,-0.8982544541358948,0.398247629404068,0.01746639981865878
1737286282.648924,21008,1737286282,643722624,base_link,-0.04199664662054975,-0.0029358917253092193,0.009439498301433794,-0.15823280811309814,-0.04000418260693551,-0.07859591394662857
1737286282.747624,21009,1737286282,746723904,base_link,-0.03508924692982218,-0.0011925003560632813,0.008552148754965624,0.42241349816322327,-0.30119752883911133,-0.18483807146549222
1737286282.84875,21010,1737286282,843725440,base_link,-0.03547218430720951,0.023587598676410474,-0.0006131606100579678,0.2116672396659851,-0.02097389474511145,0.10589680075645447
1737286282.9490008,21011,1737286282,943726464,base_link,-0.024940142157720904,0.03754821237590271,0.0120881370402239,-0.5144335031509399,0.20746192336082458,0.07237838208675382
1737286283.0487828,21012,1737286283,43728256,base_link,-0.03145375324513492,0.02082612313802463,-0.00294350352550248,-0.1504436731338501,-0.10468583554029467,-0.220028817653656
1737286283.1495917,21013,1737286283,143730048,base_link,-0.02807494341220379,0.016328010620972982,-0.00224403337368527,0.4329140782356262,-0.20782133936882022,-0.12496682256460187
1737286283.2494586,21014,1737286283,243731840,base_link,-0.04568841342378965,0.0198521869123084,-0.012346249385708892,0.47028064727783203,-0.05508483946323394,0.056934520602226264
1737286283.3500054,21015,1737286283,343733632,base_link,-0.027540749456157348,0.048048637601338325,-0.002153831458508062,-0.22019946575164795,0.09645260870456698,0.18343225121498108
1737286283.4479206,21016,1737286283,443735424,base_link,-0.024852615854916354,0.036922936665826904,0.008078116275783863,-0.49443235993385315,0.29685044288635254,-0.07079292833805088
1737286283.5484164,21017,1737286283,543736960,base_link,-0.045269762073568975,0.01221317648202255,-0.010068580105942533,0.31931498646736145,-0.11393494158983232,-0.08182265609502791
1737286283.648019,21018,1737286283,643737472,base_link,-0.0371954624143614,0.02108059210970903,-0.021474216805939958,0.21929721534252167,-0.10817694664001462,0.20474477112293243
1737286283.7476428,21019,1737286283,743739264,base_link,-0.028905862484270888,0.04727998351169486,0.00242619931103243,-0.4268209934234619,0.30703774094581604,0.13209022581577298
1737286283.848495,21020,1737286283,843739520,base_link,-0.03518685226294228,0.033215621531353205,0.003288888813040561,-0.1317325085401535,-0.03859300538897516,-0.12981969118118286
1737286283.9529893,21021,1737286283,943741056,base_link,-0.037925521344070276,0.020009517926830065,-0.012657520902148296,0.40548431873321533,-0.253467321395874,-0.08603709191083905
1737286284.053977,21022,1737286284,43741312,base_link,-0.041073999930809076,0.017749026301287375,-0.008642955843705804,0.5914947390556335,-0.195657879114151,-0.09494711458683011
1737286284.1514087,21023,1737286284,143743104,base_link,-0.03838670458825169,0.04154778660313153,-0.0016550477961199878,0.18480171263217926,0.0685200095176697,0.27944767475128174
1737286284.2485144,21024,1737286284,243743616,base_link,-0.022865640516924315,0.0645399877701795,0.008957127416655471,-0.3965425491333008,0.02970372140407565,0.24034073948860168
1737286284.348998,21025,1737286284,343745408,base_link,-0.013058343633219926,0.06659740261109999,0.02698977688284591,-0.6383943557739258,0.30221232771873474,-0.0029646805487573515
1737286284.44859,21026,1737286284,443745920,base_link,-0.019609740706596154,0.05378577212666251,0.017603561818646883,0.04463737830519676,-0.07089158892631532,-0.09081232547760008
1737286284.5488544,21027,1737286284,543747712,base_link,-0.035188492889201985,0.034570017820801865,0.0019027708788075675,0.38676342368125916,-0.2875652313232422,-0.12511438131332395
1737286284.649264,21028,1737286284,643748224,base_link,-0.023799834702515604,0.04576260122168402,0.0004931067859826206,0.3834831714630127,-0.12288303673267363,0.10319656133651735
1737286284.7486334,21029,1737286284,743750016,base_link,-0.01650074719728004,0.05586584728691529,-0.001398637595213662,0.0936523899435997,0.1626939028501511,0.2488104701042175
1737286284.8498168,21030,1737286284,843750528,base_link,-0.01123941185892009,0.05612065247889062,0.01602805889929348,-0.3933529853820801,0.30273157358169556,0.10514638572931286
1737286284.9500847,21031,1737286284,943752320,base_link,-0.014230066213165932,0.03900478970056409,0.008506562976759982,-0.04821920394897461,-0.0005185343325138268,-0.14342208206653595
1737286285.0502524,21032,1737286285,43753088,base_link,-0.026879029198319734,0.013886428293076581,-0.007006659142985381,0.19537292420864105,-0.09394542872905735,-0.30060407519340515
1737286285.149764,21033,1737286285,143755392,base_link,-0.024711384775349416,0.0031204295408871186,-0.002990247567664696,0.604483425617218,-0.14685247838497162,-0.07829713076353072
1737286285.24946,21034,1737286285,243756160,base_link,-0.025143446292601377,0.0032661650933022307,-0.012909964427479614,0.3667394816875458,-0.07594342529773711,0.1294788122177124
1737286285.3495862,21035,1737286285,343758464,base_link,-0.019325483495295715,0.029608300641377552,-0.002193762720827607,-0.0657547116279602,0.28241166472435,0.09771874547004697
1737286285.4505491,21036,1737286285,446759232,base_link,-0.02206143267967068,0.026733864874043195,-0.008696392421788664,-0.3292301595211029,0.2968485653400421,0.0812880769371986
1737286285.5494561,21037,1737286285,543761280,base_link,-0.02117925810503856,0.007593559186617596,-0.008284651611167941,0.05324193835258484,-0.08903001248836521,-0.3263738751411438
1737286285.6496792,21038,1737286285,643762048,base_link,-0.021280981372712414,-0.002340288109336464,-0.008621373539822333,0.5728106498718262,-0.23048575222492218,-0.010242288932204219
1737286285.7590048,21039,1737286285,743764096,base_link,-0.022379853024473238,0.011191923954886586,-0.012838564656208572,0.5759512186050415,-0.10688189417123795,0.027529377490282073
1737286285.853613,21040,1737286285,843764864,base_link,-0.015556553917524812,0.02946467647552482,-0.0056416229588008866,-0.05898318067193031,0.0222192704677582,0.17122413218021393
1737286285.9496496,21041,1737286285,943767168,base_link,-0.00745951234815467,0.040335210057145666,0.007421766844586402,-0.22201460599899292,0.12777897715568545,0.19232274591922757
1737286286.0483196,21042,1737286286,43767936,base_link,-0.014321048585189499,0.030088886296430202,0.0065444994499608295,-0.3086884617805481,0.15265175700187683,-0.041623543947935125
1737286286.1490254,21043,1737286286,143769984,base_link,-0.01965640195782217,0.018023830946017273,0.013836700270343732,-0.3211974799633026,0.11209435760974881,-0.2000679224729538
1737286286.2502282,21044,1737286286,243771008,base_link,-0.03385665498976842,-0.005274642344150072,0.006659560337630373,0.4109998345375061,-0.14102602005004886,-0.19043771922588346
1737286286.3491342,21045,1737286286,343773312,base_link,-0.04194220481283821,-0.016736378249015884,-0.0031534674052992847,0.22314803302288055,-0.1617781072854996,-0.11886902153491972
1737286286.4501593,21046,1737286286,443774080,base_link,-0.04434205381357476,-0.01188410918300301,0.0009275472428693436,0.2956189513206482,-0.06370122730731963,0.10250412672758104
1737286286.5498297,21047,1737286286,543776384,base_link,-0.03138021341571772,0.010250539631588602,-0.0036067835947129526,0.12422777712345123,-0.017875969409942603,0.184675931930542
1737286286.6497014,21048,1737286286,643777408,base_link,-0.010768994008396066,0.030415740240937912,0.022352287045794453,-0.21466153860092163,0.2185097485780716,0.11231612414121625
1737286286.7501316,21049,1737286286,743778176,base_link,-0.01450450567181134,0.027134637243164002,0.025900508169377258,-0.25902053713798523,0.27826449275016785,-0.02394971996545795
1737286286.849316,21050,1737286286,843779200,base_link,-0.015940199530264904,0.01728435268640344,0.020986613691129006,-0.24413271248340607,0.15938420593738553,-0.14199355244636538
1737286286.9495304,21051,1737286286,943781248,base_link,-0.024767204017993396,0.0064314202212869005,0.013224468319637894,0.33619242906570435,-0.07816107571125033,-0.18171288073062897
1737286287.0501213,21052,1737286287,43782016,base_link,-0.030288208399942635,-0.003828149972283648,0.0071805029025412285,0.39556044340133667,-0.16834791004657748,-0.12929187715053556
1737286287.1499376,21053,1737286287,143784320,base_link,-0.0282701090216241,0.0032821541426656144,0.013062384389387413,0.11690199375152588,-0.06216739863157271,0.11318111419677736
1737286287.2495859,21054,1737286287,243785088,base_link,-0.02865552083860868,0.006510117929339159,0.0036082927218036714,-0.2502267062664032,-0.057944245636463144,0.16095133125782013
1737286287.3521283,21055,1737286287,343787392,base_link,-0.015217488846171733,0.02051281474251267,0.01867883793151768,-0.3560008704662323,0.13260152935981753,0.2546771466732025
1737286287.4476888,21056,1737286287,443788160,base_link,-0.015924345047720275,0.018487782672631008,0.01709567683070781,-0.655620813369751,0.09914351999759674,0.044616457074880586
1737286287.5523775,21057,1737286287,546788928,base_link,-0.009898470253054086,0.013467577856186339,0.016561176449943833,-0.6052799224853516,0.1325780302286148,0.03747450932860373
1737286287.6497054,21058,1737286287,643789696,base_link,-0.021870844190685967,-0.014281007644205188,0.0034572668900321023,0.21196703612804413,-0.15950119495391848,-0.17155483365058896
1737286287.7503767,21059,1737286287,743790720,base_link,-0.022858017564624283,-0.026324505443873415,0.0035451555543128933,0.491407185792923,-0.22677288949489594,-0.08663904666900632
