Time,header.seq,header.stamp.secs,header.stamp.nsecs,header.frame_id,twist.linear.x,twist.linear.y,twist.linear.z,twist.angular.x,twist.angular.y,twist.angular.z
1737286264.3047738,20725,1737286254,343182976,base_link,0.0076248496770858765,0.017357805743813515,0.048284560441970825,-0.2655925705838183,-0.30680883233539286,0.09109380619972474
1737286264.3049579,20726,1737286254,446184768,base_link,-0.004999385681003332,0.03160669654607773,0.06202734634280205,0.335538099932868,0.14660199178955202,0.18568826395910992
1737286264.3052685,20727,1737286254,543187840,base_link,0.013228247873485088,0.017453743144869804,0.08743927627801895,0.26274438007305706,0.717730635549659,0.057760688716403184
1737286264.3054438,20728,1737286254,643189888,base_link,-0.005730793345719576,0.02670501172542572,0.10165917128324509,0.09829786593618073,0.3012589075368454,-0.08253158457459393
1737286264.3087246,20729,1737286254,743191680,base_link,-0.03998612239956856,0.06428267806768417,0.07417041808366776,-0.4427145218046104,-0.19639413819877358,-0.12990414919154414
1737286264.3089814,20730,1737286254,843193728,base_link,-0.01988024078309536,0.06676103919744492,0.09205689281225204,-0.18538611566502355,0.12030919445925065,0.1308354094990515
1737286264.3093336,20731,1737286254,943197056,base_link,-0.02170100063085556,0.08309230953454971,0.09886308014392853,0.3427130746675227,0.6336987842889068,0.007061827501795279
1737286264.3096986,20732,1737286255,43198848,base_link,-0.034862056374549866,0.11143220216035843,0.09450791776180267,0.10840150033096514,0.3717577180234991,0.017593549041248338
1737286264.310081,20733,1737286255,143197312,base_link,-0.06424520164728165,0.17420965433120728,0.06380674242973328,-0.47498394788325754,-0.31260595249403156,0.01575041584649594
1737286264.3103297,20734,1737286255,246199360,base_link,-0.07144217938184738,0.21425193548202515,0.05487854406237602,-0.1048621933413327,-0.4063371069938201,0.06910378986188165
1737286264.3105268,20735,1737286255,343202432,base_link,-0.05060317739844322,0.22737164795398712,0.08295315504074097,0.045283467344824024,0.12003066092530155,-0.4401516561166123
1737286264.3107185,20736,1737286255,443204480,base_link,-0.034558750689029694,0.27890440821647644,0.07459354400634766,0.16182938448093695,0.6402206608984682,-0.7132067652309954
1737286264.311552,20737,1737286255,543206272,base_link,-0.024182084947824478,0.3265484869480133,0.07466007769107819,0.09652152704065126,0.5077004382995978,-1.0825958147610704
1737286264.3116834,20738,1737286255,643208576,base_link,-0.009133911691606045,0.37447836995124817,0.062194786965847015,-0.06727652590947816,-0.23659007249076602,-1.2890404771451403
1737286264.311993,20739,1737286255,743210624,base_link,-0.004700256511569023,0.40314099192619324,0.04609327390789986,-0.0527900677554069,-0.3219730869897919,-1.3405032839742492
1737286264.3122716,20740,1737286255,843212672,base_link,0.02239723689854145,0.4507433772087097,0.026173634454607964,0.05112638293624955,0.1250379877167964,-1.424851835211823
1737286264.3125074,20741,1737286255,943216000,base_link,0.02783156745135784,0.5162466764450073,0.038957905024290085,-0.24705151903606773,-0.16476044104653897,-1.502979470952821
1737286264.312775,20742,1737286256,46218304,base_link,0.026921553537249565,0.5308010578155518,0.05925820767879486,0.4145304214558106,0.034436372264155565,-1.3874310439587412
1737286264.3130112,20743,1737286256,143221888,base_link,0.03991322219371796,0.5832579135894775,0.03933882713317871,0.06329938856098544,-0.12063009728996749,-1.281725507140035
1737286264.313155,20744,1737286256,243223936,base_link,0.030522039160132408,0.6222545504570007,0.037139542400836945,0.29425744117269076,-0.26504621609196055,-1.1453622346470882
1737286264.3132854,20745,1737286256,346225984,base_link,0.03973275050520897,0.6677300930023193,0.020598122850060463,0.8933317433649862,-0.07830905525980825,-1.09785252318007
1737286264.3134305,20746,1737286256,443228288,base_link,0.030717985704541206,0.6495005488395691,0.03611454367637634,0.8249812332187305,-0.13389487957511378,-1.0532621478125266
1737286264.313661,20747,1737286256,543231872,base_link,0.0448659285902977,0.6686358451843262,0.0035198787227272987,0.359801426919463,0.06918646027695648,-1.0345372236276176
1737286264.3141406,20748,1737286256,643234176,base_link,0.06459739059209824,0.6580047607421875,-0.020196281373500824,-0.17627350793255692,0.32670487253567615,-1.1150375470661738
1737286264.3143585,20749,1737286256,746236480,base_link,0.05568213388323784,0.6106844544410706,-0.018225543200969696,-0.33316251266034624,0.14973799625601306,-1.0352402318578056
1737286264.314677,20750,1737286256,843238784,base_link,0.06460479646921158,0.5703783631324768,-0.034481361508369446,-0.32067069189707137,0.22925358411836594,-1.0546276847535054
1737286264.3149254,20751,1737286256,943240832,base_link,0.05617692321538925,0.5185418725013733,-0.0191718190908432,0.03312108469215025,-0.030846078179409778,-1.1263987669575979
1737286264.3159785,20752,1737286257,43243136,base_link,0.06490734219551086,0.4678354859352112,-0.02288912422955036,0.5203140829112309,-0.21989012418296466,-0.9108822488817074
1737286264.316765,20753,1737286257,143245952,base_link,0.08040430396795273,0.4303111732006073,-0.023577632382512093,-0.5479659947098616,0.4109848596892378,-0.9997254460400468
1737286264.3172023,20754,1737286257,243248256,base_link,0.08045755326747894,0.4272434115409851,-0.020425809547305107,-0.361937685626672,-0.1330498530217318,-1.0706985764584025
1737286264.3175194,20755,1737286257,343250816,base_link,0.13021980226039886,0.452839732170105,-0.021394629031419754,-0.5863505718102306,0.2351242260839841,-1.0188522644341738
1737286264.3177676,20756,1737286257,443253376,base_link,0.16511638462543488,0.47713741660118103,-0.006049541290849447,-0.2003694115399945,0.522265874806413,-1.1539882499621505
1737286264.3180208,20757,1737286257,543255680,base_link,0.18189997971057892,0.5263590812683105,0.017144685611128807,0.19124616835845104,0.07428040889787993,-1.2414697334155305
1737286264.3181746,20758,1737286257,643258496,base_link,0.1718423217535019,0.5715173482894897,0.048850901424884796,0.40128929227132065,-0.3187580314717732,-1.154704840852461
1737286264.318356,20759,1737286257,743260800,base_link,0.16889332234859467,0.5743118524551392,0.04861471429467201,0.3248288314331596,-0.8027896227212238,-1.0952199756913958
1737286264.3185878,20760,1737286257,843263104,base_link,0.19647863507270813,0.5532650947570801,0.036738865077495575,0.14867899259602055,0.39500286222413505,-0.9874015511854115
1737286264.3186753,20761,1737286257,943264896,base_link,0.21144598722457886,0.5071379542350769,0.031050367280840874,0.04317273043395775,0.4835859273308179,-1.114850401991569
1737286264.318943,20762,1737286258,43267456,base_link,0.20270712673664093,0.4943404495716095,0.04758591204881668,-0.24803392239592437,0.2239884669847203,-1.078434899768793
1737286264.3194902,20763,1737286258,143269504,base_link,0.2043379843235016,0.472440242767334,0.06082615628838539,-0.10838267375838345,-0.023733776506378697,-1.1083520015699042
1737286264.3196378,20764,1737286258,243271808,base_link,0.20986513793468475,0.4788552224636078,0.07468849420547485,0.36660491169899906,0.3752946093932494,-0.83099350919989
1737286264.3197904,20765,1737286258,343273856,base_link,0.2046198695898056,0.4913049042224884,0.08125685900449753,0.20006062211873482,-0.11515602393533068,-0.8108247312890946
1737286264.3210514,20766,1737286258,443276416,base_link,0.18819037079811096,0.5032629370689392,0.06360344588756561,0.1409019730573499,-0.03819148064348901,-0.3094390394318565
1737286264.3212214,20767,1737286258,543278464,base_link,0.16978596150875092,0.4972967505455017,0.03538419306278229,0.5391712905327363,0.1386869757476552,0.14523821906987575
1737286264.3214333,20768,1737286258,643281024,base_link,0.17135855555534363,0.4718303084373474,0.037589963525533676,-0.1447502585522317,-0.40973638106361937,0.13358534528000712
1737286264.3215985,20769,1737286258,743283328,base_link,0.11842086911201477,0.45439383387565613,0.03765882924199104,-0.2254022928045692,-0.25782273390022076,0.43041514722453483
1737286264.3221018,20770,1737286258,843286144,base_link,0.10893883556127548,0.40460965037345886,0.02502025105059147,-0.00526609505132657,0.14228583022916025,0.36245652362962605
1737286264.322212,20771,1737286258,943288192,base_link,0.07835490256547928,0.3688579499721527,0.03788599371910095,0.06398028555987914,0.25083242433763037,0.15402430353247812
1737286264.3223975,20772,1737286259,43290496,base_link,0.02655346877872944,0.35151129961013794,0.04904578626155853,0.11007855634480901,0.1874998080285098,0.562453889887336
1737286264.322518,20773,1737286259,143293056,base_link,-0.020736390724778175,0.33659297227859497,0.07631250470876694,-0.26354506547186257,-0.26955205591182735,0.30058917739398583
1737286264.3226805,20774,1737286259,243295872,base_link,-0.018141668289899826,0.2929345667362213,0.06209802255034447,0.12832046251703613,0.27921930515696847,0.07562657960707792
1737286264.3231037,20775,1737286259,343298432,base_link,-0.043555740267038345,0.2707913815975189,0.06947904825210571,0.33061001329902107,0.4337348885861426,0.15922584540518175
1737286264.3234334,20776,1737286259,443300992,base_link,-0.07734580338001251,0.23140139877796173,0.0616949088871479,0.2428611013349868,0.3754246491949799,0.05335899635741487
1737286264.32357,20777,1737286259,543303040,base_link,-0.09941525757312775,0.2119760811328888,0.0779026672244072,-0.06573234352079532,-0.12109052110917833,0.021853438238777726
1737286264.323652,20778,1737286259,643305856,base_link,-0.1223411113023758,0.17700737714767456,0.07760381698608398,-0.2653099540031195,-0.26149960564478364,0.02628338110160196
1737286264.323827,20779,1737286259,743308416,base_link,-0.11573526263237,0.15291452407836914,0.0732029527425766,-0.25486935691304113,-0.40380042208872174,0.17209024394707012
1737286264.3239818,20780,1737286259,843310976,base_link,-0.09464585781097412,0.12200360745191574,0.04961639270186424,-0.12910762021858338,0.44907699098238535,-0.06877782673869186
1737286264.3241673,20781,1737286259,943313792,base_link,-0.10995377600193024,0.13166731595993042,0.045526355504989624,-0.17318104644794197,-0.5197957275535915,0.24788162063545363
1737286264.3242307,20782,1737286260,43316608,base_link,-0.10747633874416351,0.1298508644104004,0.026877665892243385,-0.10974797774031514,-0.3508441853808291,-0.11368222528739064
1737286264.3243296,20783,1737286260,143319424,base_link,-0.07913481444120407,0.1285831332206726,0.030208496376872063,-0.04758250177058156,-0.14978144263319823,-0.13411074477645823
1737286264.3244624,20784,1737286260,243322240,base_link,-0.055146344006061554,0.09713637083768845,0.0036416633520275354,0.24404038842786946,0.06481699648307881,-0.2229585242216
1737286264.3245866,20785,1737286260,343325056,base_link,-0.024258846417069435,0.0912507027387619,-0.0005792713491246104,0.04668454575739906,0.43685206819846784,-0.06050568876127365
1737286264.3247871,20786,1737286260,443327872,base_link,-0.029442520812153816,0.08613654971122742,-0.01202475931495428,0.0060516158851222895,0.19430594946433066,0.07588067019513317
1737286264.324922,20787,1737286260,543330688,base_link,-0.04871165379881859,0.10954146832227707,0.0027650874108076096,-0.17772766111351745,0.04805161962689114,0.19415816677081213
1737286264.325037,20788,1737286260,643333504,base_link,-0.02676740661263466,0.10820756107568741,-0.007148494012653828,-0.2300460480251636,-0.3135816612482478,-0.11913423378437037
1737286264.325532,20789,1737286260,743336320,base_link,-0.004698567092418671,0.08785636723041534,-0.0074582393281161785,0.2737190538265143,0.14037558038318002,-0.1327096854230457
1737286264.3259242,20790,1737286260,846339392,base_link,-0.010015686973929405,0.09888274222612381,-0.014184405095875263,0.23600240836737885,0.4053842076481009,0.05518091693042754
1737286264.3260365,20791,1737286260,943342208,base_link,-0.019731756299734116,0.09345962107181549,-0.009869498200714588,-0.00578571427271489,-0.19605348365001196,0.15692669228742281
1737286264.3261282,20792,1737286261,43345024,base_link,-0.042773157358169556,0.08856040239334106,-6.690713053103536e-05,-0.11608297256198623,-0.11342296822268066,0.15665010702670015
1737286264.3262663,20793,1737286261,143348096,base_link,-0.05804091691970825,0.09543363004922867,-0.006628059316426516,-0.1470513938071078,0.16319568028243903,0.27146381245050355
1737286264.3264832,20794,1737286261,243349632,base_link,-0.06297937035560608,0.10234517604112625,-0.0036370574962347746,-0.29497980329187534,-0.40311048139408123,-0.03631761611967761
1737286264.3265414,20795,1737286261,343350912,base_link,-0.024104023352265358,0.08032003045082092,-0.03103036805987358,0.3405354131532595,0.33971889179230985,-0.18512926488689643
1737286264.326574,20796,1737286261,443352704,base_link,-0.019328219816088676,0.08308858424425125,-0.036384448409080505,0.14550548005844546,0.29911094394182736,0.036098786472775125
1737286264.3299723,20797,1737286261,543353728,base_link,-0.02195700816810131,0.09641874581575394,-0.02063114009797573,-0.32427246083032635,-0.33183513343346127,-0.10201512839189358
1737286264.3303242,20798,1737286261,643355008,base_link,0.030912384390830994,0.07605715095996857,-0.04093024507164955,0.3343907400462419,0.25374580284460585,-0.2202418228490251
1737286264.3358965,20799,1737286261,743356288,base_link,0.01902105286717415,0.08083900064229965,-0.033293645828962326,0.014148259230746843,-0.0007557599428350769,0.24937190171790882
1737286264.3360236,20800,1737286261,846357824,base_link,0.0253132414072752,0.07817739993333817,-0.0211758054792881,-0.06865797603094459,-0.0874599373796343,-0.10667770191129561
1737286264.336373,20801,1737286261,943360640,base_link,0.0725039690732956,0.04891766607761383,-0.03362850844860077,0.21693918919396246,0.37984756580333157,0.02587550339680675
1737286264.3368485,20802,1737286262,43362176,base_link,0.0409369133412838,0.06649165600538254,-0.01928204856812954,-0.41685260808039426,-0.7167842448551951,0.11291712560911643
1737286264.3374317,20803,1737286262,143364736,base_link,0.06557871401309967,0.04129621013998985,-0.018938347697257996,0.09063124579181243,-0.09697749562986574,-0.038708252819634484
1737286264.337515,20804,1737286262,243366016,base_link,0.074384406208992,0.03317846730351448,-0.015462229028344154,0.3292377110975998,0.5596463298339537,0.0755951117648166
1737286264.3377368,20805,1737286262,343368832,base_link,0.0764351487159729,0.01547990832477808,-0.02153933420777321,0.12557726632537786,0.09471307412471883,0.25501705166110916
1737286264.3377597,20806,1737286262,443370368,base_link,0.047486793249845505,0.03894728794693947,-0.004734799265861511,-0.4563009826825712,-0.6117619632903097,0.1631202100278868
1737286264.3378637,20807,1737286262,546372928,base_link,0.0508907251060009,0.025036856532096863,-0.014787443913519382,-0.00023702056882344896,-0.300013131326569,-0.0832505562801617
1737286264.3378894,20808,1737286262,643374464,base_link,0.061182912439107895,0.011286546476185322,-0.006576452404260635,-0.02726650102380366,0.1567585131977215,-0.2378304688640424
1737286264.3401816,20809,1737286262,743377024,base_link,0.0683608129620552,-0.0007478271727450192,-0.021039333194494247,0.2538471129594738,0.2765442517124801,-0.09403294813882163
1737286264.3402085,20810,1737286262,843378560,base_link,0.05291004851460457,-0.003818202530965209,-0.018640048801898956,0.14415207669731905,0.049168018336305484,0.22173302242764803
1737286264.3402288,20811,1737286262,943379584,base_link,0.02386578544974327,0.006474637892097235,0.006512031424790621,-0.3465878166900342,-0.7915465979601012,0.024098724888212148
1737286264.340258,20812,1737286263,43379584,base_link,0.01793062873184681,0.013234714046120644,0.0150182219222188,-0.17476536012937915,-0.41242051383092987,-0.11534865107728771
1737286264.340274,20813,1737286263,143382656,base_link,0.03063936159014702,0.03683806583285332,0.0036141078453511,-0.34961695396293985,0.14416118160643526,-0.233126415116356
1737286264.3402972,20814,1737286263,243384448,base_link,0.07286840677261353,0.09111719578504562,-0.017304684966802597,-0.44008953285034574,0.7791924009795207,-0.2412194113594739
1737286264.3406172,20815,1737286263,343385984,base_link,0.09396873414516449,0.20415133237838745,-0.027927052229642868,-0.6326602308546112,0.2996401811176038,0.1341188611450585
1737286264.340918,20816,1737286263,443387776,base_link,0.13859224319458008,0.3991662263870239,-0.013084116391837597,-0.7631240779546696,-0.18065806173512888,-0.009914324369026895
1737286264.340949,20817,1737286263,543389568,base_link,0.21689662337303162,0.5970499515533447,-0.022446487098932266,-0.3894331799156834,-0.014695084409488024,-0.49762863918765
1737286264.3409667,20818,1737286263,643391104,base_link,0.3069065809249878,0.8480839729309082,-0.012956079095602036,-0.19262708441583412,-0.012695184362268574,-0.7503251885132639
1737286264.3414073,20819,1737286263,743392640,base_link,0.37710389494895935,1.1325074434280396,-0.018820710480213165,0.028640169276034966,-0.2772239292371908,-0.5508780617930502
1737286264.3418996,20820,1737286263,843394432,base_link,0.4684431850910187,1.3817769289016724,-0.020301302894949913,0.22266892063063032,-0.1747036509770022,-0.3642892938168755
1737286264.3420105,20821,1737286263,943396224,base_link,0.5444633960723877,1.640868067741394,-0.02364995703101158,0.028414992157898264,-0.02072398722065158,-0.22077984062865652
1737286264.3438776,20822,1737286264,43398016,base_link,0.6450371146202087,1.8454928398132324,-0.002411401830613613,0.08639766258626844,-0.4015107324462407,-0.4704732556684286
1737286264.3443885,20823,1737286264,143399808,base_link,0.695273756980896,2.0540032386779785,-0.010176094248890877,0.008629744714207422,-0.5570862432845343,0.2496835091519855
1737286264.3444047,20824,1737286264,243401600,base_link,0.75763338804245,2.19258189201355,-0.01047193817794323,0.4317872511524035,-0.1194589387537417,0.0025949276298135454
1737286264.3539464,20825,1737286264,343403392,base_link,0.7626403570175171,2.342344045639038,0.015233038924634457,-0.26026683745923207,-0.850419923971654,0.2824981324582778
1737286264.4486914,20826,1737286264,446405184,base_link,0.7510762810707092,2.4302663803100586,0.03707323968410492,0.27082914581245837,-0.15117540712331792,0.005467867383428662
1737286264.5478656,20827,1737286264,543406720,base_link,0.7535971999168396,2.4845194816589355,0.07075885683298111,0.029500367555938017,0.05124449979288856,0.19581603015033694
1737286264.6469188,20828,1737286264,643408512,base_link,0.7563817501068115,2.5242176055908203,0.0999525710940361,-0.035339106597924885,0.018821416116289014,0.2612626032023995
1737286264.748452,20829,1737286264,743410304,base_link,0.7738240957260132,2.544951915740967,0.13434270024299622,-0.3628898833405328,-0.2600660115670441,0.23440998315911069
1737286264.8456845,20830,1737286264,843412352,base_link,0.8078615069389343,2.552144765853882,0.14850489795207977,-0.32346796994645327,-0.2555114102102939,0.32353269105794746
1737286264.947272,20831,1737286264,943415424,base_link,0.8502547144889832,2.5658633708953857,0.14321671426296234,-0.10760741064352526,-0.02143777289355181,0.1980879525613711
1737286265.047558,20832,1737286265,43417216,base_link,0.9087919592857361,2.583946943283081,0.12219037115573883,-0.06290783813329792,0.29211048483099655,0.035056602500316614
1737286265.147189,20833,1737286265,143419008,base_link,0.942930281162262,2.6127452850341797,0.10413879156112671,0.5146575449903511,0.23884825827335843,0.0803263805901632
1737286265.251353,20834,1737286265,243421056,base_link,0.9768795967102051,2.623852491378784,0.11745399236679077,0.18487399421945094,0.12703942426509968,0.13637703197966564
1737286265.3507628,20835,1737286265,343423360,base_link,1.0045846700668335,2.653425931930542,0.15281672775745392,0.16192408531845548,-0.1294751497515691,-0.18766591117041323
1737286265.450621,20836,1737286265,443425664,base_link,0.9869505763053894,2.7009072303771973,0.17742924392223358,-0.19925098001520136,-0.12913912696057933,0.031113107487391496
1737286265.5488758,20837,1737286265,543427456,base_link,1.0039795637130737,2.6979401111602783,0.18483807146549225,-0.034843035048447234,0.1982164633661297,-0.07951354069962314
1737286265.6495488,20838,1737286265,643429504,base_link,0.9898675680160522,2.7564547061920166,0.20702150464057922,0.13310419377687055,-0.0476094116108364,-0.09945776426133715
1737286265.7508693,20839,1737286265,743431552,base_link,0.9761219024658203,2.7907874584198,0.2303631603717804,-0.11046093307405545,-0.19341214881475918,-0.01705443437350953
1737286265.8492646,20840,1737286265,843434112,base_link,0.9813088178634644,2.8258841037750244,0.25413691997528076,-0.1709043168522586,-0.3224713778114493,0.06383150631086201
1737286265.9498155,20841,1737286265,943436160,base_link,0.9807384610176086,2.843190908432007,0.2659854292869568,-0.2282427458156928,-0.38110132582136963,0.11868618402141637
1737286266.0494592,20842,1737286266,43438464,base_link,0.9835690855979919,2.850194215774536,0.27420860528945923,-0.12811781945994194,-0.11264986225226396,0.0725383233880961
1737286266.1502368,20843,1737286266,143440256,base_link,0.9721964597702026,2.854987621307373,0.3030938506126404,0.389213694725154,0.21642386766750482,0.01003841193920518
1737286266.2481954,20844,1737286266,243442560,base_link,0.9396957159042358,2.8671393394470215,0.32819488644599915,0.2867172143904782,0.2409564706378468,0.07604854730830504
1737286266.3489957,20845,1737286266,343444352,base_link,0.9090172648429871,2.860353469848633,0.3560863733291626,0.32616163197947334,0.21656045770860996,0.037165420774656344
1737286266.4485092,20846,1737286266,443446400,base_link,0.8720297813415527,2.820162296295166,0.38718828558921814,0.4820221540310301,0.04316227865992045,0.04500839441388236
1737286266.5502865,20847,1737286266,546448192,base_link,0.7836981415748596,2.789998769760132,0.4462330639362335,0.3123738058869648,-0.2955093370726932,0.1174153070242955
1737286266.6533124,20848,1737286266,643450496,base_link,0.7215743660926819,2.709843873977661,0.49005985260009766,0.09481786878751336,-0.5406490087676077,0.30116989862930904
1737286266.7486455,20849,1737286266,743452544,base_link,0.6246023774147034,2.6195971965789795,0.549884557723999,0.0066045449573870416,-0.6204375569068429,0.43581843507595325
1737286266.8483891,20850,1737286266,843454848,base_link,0.5488539934158325,2.5127055644989014,0.5909492373466492,-0.30411352829321503,-0.7218755275278003,0.45699348131212236
1737286266.9480076,20851,1737286266,943457152,base_link,0.4654749929904938,2.393224000930786,0.6262112855911255,-0.29481813735393386,-0.5452148891462582,0.25983824410151285
1737286267.0478199,20852,1737286267,43459968,base_link,0.3779159486293793,2.2718193531036377,0.6373103260993958,0.02748510878118194,-0.2803694124389774,0.25896666650461775
1737286267.189151,20853,1737286267,144462016,base_link,0.27287980914115906,2.1454427242279053,0.6442871689796448,0.1470566409167941,-0.2119235130268795,0.33154458921491625
1737286267.2495487,20854,1737286267,246464320,base_link,0.11711078882217407,2.0303685665130615,0.6581845879554749,0.16952197611605502,0.11930997653358286,0.4158525081399365
1737286267.3474152,20855,1737286267,343466624,base_link,0.011811775155365467,1.887967586517334,0.6400954127311707,0.14510151639904467,0.22031002659098767,0.7679911031569362
1737286267.4523826,20856,1737286267,443468928,base_link,-0.15797223150730133,1.768223762512207,0.6446590423583984,-0.393238429344546,-0.4033309445589431,0.8575766545966822
1737286267.5492978,20857,1737286267,543470976,base_link,-0.24699363112449646,1.6154934167861938,0.6192686557769775,0.17332152959377944,0.3917809210366948,0.7636360855053863
1737286267.6499412,20858,1737286267,643473280,base_link,-0.4134807884693146,1.493422508239746,0.611561119556427,-0.07247239319970919,-0.3408130291056778,1.108772206089165
1737286267.7508574,20859,1737286267,743475584,base_link,-0.484256386756897,1.3473198413848877,0.590864360332489,-0.026426478003209908,-0.10587006137519592,1.1963923870617101
1737286267.84943,20860,1737286267,843478144,base_link,-0.5821342468261719,1.2126202583312988,0.5833441615104675,-0.13934534590067818,0.09415415969181812,0.8593350355154344
1737286267.9565682,20861,1737286267,943479936,base_link,-0.6908310651779175,1.0746512413024902,0.5881150960922241,-0.3356427263557781,-0.6233160445924084,1.5001503785019674
1737286268.050003,20862,1737286268,43482496,base_link,-0.7463898658752441,0.954025387763977,0.5948013663291931,0.060331737145247755,0.005688727851396264,0.9817761075004028
1737286268.1492634,20863,1737286268,146478656,base_link,-0.7843161225318909,0.8187311291694641,0.573458194732666,-0.1887267664875629,0.10969362202375094,1.3541298158162833
1737286268.2478209,20864,1737286268,243481216,base_link,-0.8564682602882385,0.6893049478530884,0.5545376539230347,0.23510001921443296,-0.5067513551860532,1.1473069715875608
1737286268.349328,20865,1737286268,343483520,base_link,-0.9142995476722717,0.5798612236976624,0.5199217200279236,0.06205680057796366,-0.09827618129475177,1.0150920917766308
1737286268.4536831,20866,1737286268,443486336,base_link,-0.9746510982513428,0.4666650593280792,0.5196497440338135,-0.35427899919528105,0.35058784188229575,1.0719300737542892
1737286268.5483718,20867,1737286268,543488896,base_link,-1.004564881324768,0.3620888888835907,0.5143092274665833,-0.32039680160260176,0.5459492425017216,0.8893661380783622
1737286268.6530306,20868,1737286268,643488640,base_link,-1.0359597206115723,0.264432430267334,0.5028477311134338,-0.5567035374412639,0.42533775210736247,1.0308214070725397
1737286268.7486186,20869,1737286268,743491200,base_link,-1.0386381149291992,0.15303334593772888,0.5026586651802063,-0.45297705043673664,0.29257977472352187,1.0986163508634599
1737286268.847919,20870,1737286268,843492224,base_link,-1.024858832359314,0.05570431426167488,0.507483720779419,-0.21231263917219706,-0.07995654180616563,1.051822472756773
1737286268.9493566,20871,1737286268,943494528,base_link,-1.0206925868988037,-0.04236188158392906,0.5170536637306213,0.1417037163929445,-0.052569478431344754,0.9155939094367264
1737286269.0487692,20872,1737286269,43495808,base_link,-0.9906508922576904,-0.10550789535045624,0.49590837955474854,-0.05771960921179967,-0.015949100910780223,0.7495746095890521
1737286269.150141,20873,1737286269,143498112,base_link,-0.9476881623268127,-0.14185933768749237,0.45037341117858887,0.2623578650501975,0.20842868814883347,0.6979792628345107
1737286269.2497551,20874,1737286269,243499136,base_link,-0.8925078511238098,-0.17758725583553314,0.40827324986457825,-0.30462572896449314,0.00763820441622531,0.4651398443535946
1737286269.3495471,20875,1737286269,343501696,base_link,-0.8361123204231262,-0.21156713366508484,0.3452260196208954,-0.4998107624335985,0.0466424273456401,0.39972279466942506
1737286269.449318,20876,1737286269,443502976,base_link,-0.7805764079093933,-0.24654798209667206,0.2773387134075165,-0.286259242382501,0.12390407740866588,0.39272763198804705
1737286269.5491931,20877,1737286269,543505536,base_link,-0.7092323303222656,-0.3031531572341919,0.2245458960533142,-0.22544689943083948,-0.024197846086532852,0.38230180336329733
1737286269.6493533,20878,1737286269,643506816,base_link,-0.6393542289733887,-0.31079351902008057,0.18553751707077026,0.5037103044859861,0.005019867650089015,0.2455115714022075
1737286269.7496526,20879,1737286269,743509376,base_link,-0.5654916167259216,-0.3004787564277649,0.13017360866069794,0.26372248741864845,-0.01539682213986593,0.07159384723416029
1737286269.8490415,20880,1737286269,843510656,base_link,-0.49395936727523804,-0.2563493251800537,0.07651712745428085,-0.6037987502927196,-0.10230755255778681,0.11757598434449193
1737286269.955124,20881,1737286269,943513472,base_link,-0.4310300946235657,-0.2762767970561981,0.05103492736816406,0.5941243661803914,0.02799873699008509,0.4152767684537909
1737286270.0491943,20882,1737286270,43514752,base_link,-0.3719364106655121,-0.24133028090000153,0.040608033537864685,0.2875109173089662,0.10630459524236247,0.16827902514439252
1737286270.1499686,20883,1737286270,146517568,base_link,-0.30909785628318787,-0.2092065066099167,0.02397475577890873,-0.3492314489482077,-0.015061805620524435,0.3507679228044163
1737286270.2493064,20884,1737286270,243518848,base_link,-0.2448398470878601,-0.21622465550899506,0.012351506389677525,0.6888110467485012,0.10366942373017926,0.5694865893011991
1737286270.349431,20885,1737286270,346521664,base_link,-0.1837415248155594,-0.20692016184329987,0.031630389392375946,0.0295544976406108,-0.1032812469662105,0.2755497785311975
1737286270.4491572,20886,1737286270,443523200,base_link,-0.13881327211856842,-0.1555752009153366,0.03269433602690697,-0.40887302733968944,-0.19062013186595006,0.5302337436055105
1737286270.548823,20887,1737286270,543525760,base_link,-0.09220646321773529,-0.17911359667778015,0.059822484850883484,0.4837105193257907,0.157904607648828,0.5712717604530517
1737286270.6491356,20888,1737286270,643527040,base_link,-0.06352454423904419,-0.12731875479221344,0.0552704855799675,-0.32803524128533756,-0.14937992792010246,0.6988883254172491
1737286270.749182,20889,1737286270,743529856,base_link,-0.02895965240895748,-0.14457449316978455,0.09326197952032089,-0.13488666111435307,-0.07253404249480863,0.40706775385215677
1737286270.8517635,20890,1737286270,843531136,base_link,-0.023145180195569992,-0.10426265001296997,0.0925256609916687,-0.5238954081952123,-0.25907545457073083,0.3646244464774358
1737286270.9537196,20891,1737286270,943533952,base_link,0.012617810629308224,-0.11286565661430359,0.13377995789051056,0.0061164330951817645,-0.10453027217156528,0.27736951359248174
1737286271.0505981,20892,1737286271,43535232,base_link,0.02528560534119606,-0.08737166970968246,0.1258915513753891,0.3275906054888115,0.18825799592484466,0.199502538373813
1737286271.1498427,20893,1737286271,143538304,base_link,0.05569059029221535,-0.07535313069820404,0.1321161836385727,-0.22191514378939112,-0.328797224277959,-0.004627851960795692
1737286271.2486053,20894,1737286271,243539584,base_link,0.06546232849359512,-0.085701122879982,0.14593832194805145,0.18329383042524203,-0.21095836664503867,-0.1733246665762535
1737286271.3493652,20895,1737286271,343542400,base_link,0.07961902022361755,-0.07324980944395065,0.12207307666540146,0.3541619174502216,0.46965693344903825,-0.04796139047676298
1737286271.449413,20896,1737286271,443544192,base_link,0.09076394140720367,-0.0805356502532959,0.11292862147092819,0.0318342392263631,-0.10043552437385253,0.027715929828541982
1737286271.5493276,20897,1737286271,543546496,base_link,0.09802275151014328,-0.07643982768058777,0.10886414349079132,0.43538964010318126,-0.0021774616765157066,-0.16375478355374642
1737286271.6493647,20898,1737286271,643547776,base_link,0.09463940560817719,-0.05221817269921303,0.1120629832148552,0.16456715941415342,-0.09863067638655436,-0.26215352074782694
1737286271.7553523,20899,1737286271,743550592,base_link,0.07971106469631195,-0.005447803996503353,0.0897020697593689,-0.33348609534071383,-0.06436304242879466,-0.3437645157102366
1737286271.8522756,20900,1737286271,843552128,base_link,0.08355091512203217,-0.0005916368099860847,0.07901307940483093,0.01789980296354253,-0.05074181396225585,0.1362969214398025
1737286271.951718,20901,1737286271,943553664,base_link,0.08449278026819229,-0.007823641411960125,0.10063380748033524,0.3713352209733044,0.02785044351378312,-0.024986669105763075
1737286272.0499272,20902,1737286272,43555200,base_link,0.06557368487119675,0.0377371646463871,0.08457634598016739,-0.5073997792625883,-0.18113071121132374,-0.15104491711445675
1737286272.1488955,20903,1737286272,143558272,base_link,0.08461785316467285,0.026997404173016548,0.08660158514976501,-0.019188944973244623,0.09552959890250919,0.3280524868441788
1737286272.249841,20904,1737286272,243559808,base_link,0.07738692313432693,0.02726796269416809,0.11690733581781387,0.4880582738899768,0.38720729568284107,-0.040735798406397766
1737286272.3493032,20905,1737286272,343561344,base_link,0.06000421568751335,0.07309143245220184,0.10683485120534897,-0.4810622592178199,-0.13391755932962973,-0.020103555816908536
1737286272.4513428,20906,1737286272,446563136,base_link,0.06428226828575134,0.07640522718429565,0.09227891266345978,0.13060405783338777,-0.06554923172533281,0.23492852735069217
1737286272.5494888,20907,1737286272,543564160,base_link,0.07327503710985184,0.0471174493432045,0.11359890550374985,0.5701041399129986,0.41248149320724026,0.23697159180411145
1737286272.649608,20908,1737286272,643565952,base_link,0.06533931195735931,0.0662052184343338,0.12187941372394562,0.0069736229435319475,-0.028500695104524788,-0.03185106246310986
1737286272.7499914,20909,1737286272,743567232,base_link,0.04973922297358513,0.08844318985939026,0.10280784219503403,-0.16852290891686442,0.023575863282722615,-0.09581409061978485
1737286272.8493168,20910,1737286272,843569024,base_link,0.04584413394331932,0.09394494444131851,0.10852591693401337,-0.5126147951559394,-0.21560595160026813,-0.1045458326656103
1737286272.9488893,20911,1737286272,943570304,base_link,0.04475950077176094,0.09874933958053589,0.09702275693416595,-0.4722797688586745,-0.111276079734924,-0.15112655355133486
1737286273.0486665,20912,1737286273,43572096,base_link,0.035336270928382874,0.09859560430049896,0.08767268061637878,-0.5657622614823062,-0.30764465419539816,-0.10492691706104577
1737286273.1496716,20913,1737286273,143567744,base_link,0.03505832701921463,0.09660232067108154,0.07417558878660202,-0.47282907220872744,-0.19523809033394876,-0.08168500612875619
1737286273.2484179,20914,1737286273,243569536,base_link,0.031352076679468155,0.09003721922636032,0.06863068789243698,-0.3508108247497944,-0.26349464880834433,0.017018868489844123
1737286273.350445,20915,1737286273,343571328,base_link,0.02854650467634201,0.0811937227845192,0.05597008392214775,0.04355451907146196,-0.003859176566293839,0.060098443664158695
1737286273.4504004,20916,1737286273,443573120,base_link,0.035176996141672134,0.055345941334962845,0.06199390068650246,0.5871679013515873,0.19898410200821318,0.0568963223561056
1737286273.5501165,20917,1737286273,543574912,base_link,0.027944939211010933,0.04981840029358864,0.05412537232041359,0.5192051487235834,0.30329716894719383,0.031186835168386162
1737286273.6503177,20918,1737286273,643576704,base_link,0.011986899189651012,0.07278433442115784,0.034801922738552094,-0.09385450439666367,0.21264094739851896,-0.2024612182761562
1737286273.749917,20919,1737286273,743578496,base_link,-0.00518796406686306,0.07799123227596283,0.023539302870631218,-0.44358177915159475,-0.21019435961716912,-0.0028609076080958655
1737286273.8494377,20920,1737286273,846580288,base_link,-0.009205006994307041,0.06437508016824722,0.021890228614211082,-0.23610857435497637,-0.19189023442598455,0.12361557859868626
1737286273.950394,20921,1737286273,943582080,base_link,0.012702877633273602,0.02968703769147396,0.026421688497066498,0.32528564884824585,0.015046104281506854,0.07485500246662079
1737286274.0493078,20922,1737286274,43584384,base_link,0.00438590906560421,0.02161315828561783,0.03082452528178692,0.47794638452663885,0.2871370928553233,0.0379594583234801
1737286274.1502268,20923,1737286274,146586432,base_link,-0.01305082906037569,0.017621388658881187,0.02961544692516327,0.0781555718162785,0.20795426572979014,-0.21378725490751407
1737286274.2492003,20924,1737286274,243588736,base_link,-0.03518786281347275,0.051855795085430145,0.02210547961294651,-0.536867446824698,-0.2880527996167721,-0.039662724861082
1737286274.3486993,20925,1737286274,343590528,base_link,-0.030496608465909958,0.05469711497426033,0.003947816323488951,-0.36398495043095,-0.2749912470882255,-0.0259865323847757
1737286274.448281,20926,1737286274,443592576,base_link,-0.03471570834517479,0.029149720445275307,0.023383568972349167,0.16536116654912983,0.046815307526925705,0.18313550920891492
1737286274.5482626,20927,1737286274,543594624,base_link,-0.033411141484975815,0.010024593211710453,0.03854663670063019,0.5787572101335194,0.3688199404083616,-0.039304664487617484
1737286274.6487687,20928,1737286274,643596672,base_link,-0.04481010511517525,0.03305526450276375,0.018590783700346947,-0.30488371422730626,0.0526027039063182,-0.12937263771701604
1737286274.7498646,20929,1737286274,743598720,base_link,-0.04658928140997887,0.034909073263406754,0.013059784658253193,-0.5398200934288293,-0.09209363465288721,-0.007642437162763782
1737286274.8498309,20930,1737286274,843600768,base_link,-0.024897469207644463,-0.016459716483950615,0.021741634234786034,0.16138292540832325,0.0033177695839128798,0.21973767280774312
1737286274.9494152,20931,1737286274,943602816,base_link,-0.022323952987790108,-0.028293857350945473,0.02762109972536564,0.6117439883300929,0.23800687422357175,0.04396424882111289
1737286275.0481668,20932,1737286275,43604864,base_link,-0.024520300328731537,-0.03309749811887741,0.026972997933626175,0.3717129413088616,0.2759499352307412,-0.10222786287119334
1737286275.148807,20933,1737286275,143606912,base_link,-0.023943079635500908,-0.013360828161239624,0.012530026957392693,-0.31806435075945055,-0.16806182433443106,-0.09093586362679472
1737286275.248976,20934,1737286275,243609216,base_link,-0.028486577793955803,-0.003329154569655657,-0.00441737798973918,-0.60313862953974,-0.23365213303485258,0.01898254240014327
1737286275.3482738,20935,1737286275,343611008,base_link,-0.018459824845194817,-0.037047334015369415,0.006268654949963093,-0.14715347882497154,-0.22821750068983812,0.1170017663728461
1737286275.4494393,20936,1737286275,443613056,base_link,-0.016667688265442848,-0.05090777948498726,0.00892315711826086,0.011775967700829037,-0.3096634676165806,0.15118678470651564
1737286275.5493453,20937,1737286275,543614848,base_link,-0.015382077544927597,-0.06314733624458313,0.018284955993294716,0.5130006587636424,0.07724085587107482,0.12979431527116503
1737286275.6487868,20938,1737286275,643616896,base_link,-0.015078465454280376,-0.07270606607198715,0.026976212859153748,0.3079732483832366,0.10995540141518395,-0.06472475209310777
1737286275.7486234,20939,1737286275,743618688,base_link,-0.027168722823262215,-0.044273652136325836,0.006348744500428438,-0.110797715910195,0.026446136481534772,-0.2277884664446854
1737286275.8499181,20940,1737286275,846620736,base_link,-0.02725273370742798,-0.061517491936683655,0.015535200946033001,-0.5190611916361746,-0.10808021207386181,-0.1648287987827149
1737286275.9495285,20941,1737286275,943623040,base_link,-0.03122720867395401,-0.030709000304341316,0.00010036647290689871,-0.3624253212215475,-0.3629261182338595,0.0497392873303286
1737286276.0489707,20942,1737286276,43625344,base_link,-0.02199799008667469,-0.0412733368575573,-0.005575898103415966,-0.3323535047173578,-0.41164783980985387,0.043968485473334123
1737286276.1487534,20943,1737286276,143627136,base_link,-0.01726946048438549,-0.059850212186574936,0.010220703668892384,0.15614641013268374,-0.12026395710640833,0.1624962714317628
1737286276.249102,20944,1737286276,243627904,base_link,-0.017739422619342804,-0.0659906342625618,0.026380226016044617,0.4795424766539501,0.04964859845193094,0.08732596574160864
1737286276.3495963,20945,1737286276,343629952,base_link,-0.022284142673015594,-0.045896366238594055,0.008222709409892559,-0.0851848179142214,0.07595511167537272,-0.19823646555834037
1737286276.4501946,20946,1737286276,443630720,base_link,-0.02579186111688614,-0.020854761824011803,-0.005301059689372778,-0.49173442841908316,-0.23585007636144076,-0.01389375414703498
1737286276.5497298,20947,1737286276,543632768,base_link,-0.02026335895061493,-0.03498084470629692,-0.00023453471658285707,-0.15200055267068865,-0.16433374638275236,0.19874486553769305
1737286276.6493046,20948,1737286276,643633536,base_link,-0.015560353174805641,-0.04140625521540642,-0.005788835696876049,0.11521226124766112,0.02949030172985187,0.1942990826678346
1737286276.7492366,20949,1737286276,743635840,base_link,-0.022692961618304253,-0.04801225662231445,0.009391430765390396,0.4523647741075244,0.08460255357476427,-0.018307995864813954
1737286276.8483815,20950,1737286276,843636864,base_link,-0.020940322428941727,-0.0381578765809536,0.009383969008922577,0.12632122819964486,0.03806336553203937,-0.09853826913693865
1737286276.955401,20951,1737286276,943638912,base_link,-0.024282876402139664,-0.019858459010720253,-0.006979084573686123,0.2186208437245799,0.18431491123834937,-0.16488108424081716
1737286277.049172,20952,1737286277,46639680,base_link,-0.00952406320720911,-0.030615603551268578,0.012795132584869862,-0.2930792395454032,-0.14563203785563195,-0.14741733289435904
1737286277.1498332,20953,1737286277,143641984,base_link,-0.02247467450797558,0.00671675568446517,-0.010499189607799053,-0.34119175076989616,-0.06562003521663913,-0.005005888628713877
1737286277.2493112,20954,1737286277,243643008,base_link,-0.016945522278547287,-0.0015244949609041214,-0.0026364014483988285,-0.20606842501113173,-0.0814228271985576,0.06335560042131824
1737286277.3553162,20955,1737286277,343645312,base_link,-0.007468357216566801,-0.022980323061347008,0.0034150255378335714,0.2533835542862556,0.13607779262686756,0.20268183201749818
1737286277.4491217,20956,1737286277,443646336,base_link,-0.011235853657126427,-0.023030022159218788,0.006444270256906748,0.7055861037349889,0.35377666053301254,0.06618049269478553
1737286277.549591,20957,1737286277,543648384,base_link,-0.016738761216402054,-0.012663684785366058,0.011542759835720062,0.10071934297554079,0.21089824086082293,-0.1126872766344
1737286277.6499696,20958,1737286277,643649408,base_link,-0.01849866472184658,0.02533605694770813,-0.016947031021118164,-0.4916428736763009,0.027406249314116064,-0.052037686077222485
1737286277.7499554,20959,1737286277,743651712,base_link,-0.015687283128499985,0.03248608484864235,-0.022051477804780006,-0.5142480455152867,-0.11078947348920194,-0.001949375015524838
1737286277.8492641,20960,1737286277,843652992,base_link,-0.0017291971016675234,0.013318810611963272,-0.0168851837515831,-0.08342110791835373,-0.07869685445549,0.16747295712792784
1737286277.9481153,20961,1737286277,943655040,base_link,0.0038907490670681,0.011097921058535576,-0.016257338225841522,0.3223475833104688,0.10079527486230044,0.1606131033663494
1737286278.0547285,20962,1737286278,43656064,base_link,0.009638206101953983,-0.00590894278138876,0.005508667789399624,0.6512756676911441,-0.0690028194411645,0.06057122343100776
1737286278.1478794,20963,1737286278,143658368,base_link,0.01295337826013565,3.7806494219694287e-05,0.00022911869746167213,0.3982590750991178,0.2010895563180353,0.008320635807947275
1737286278.2480674,20964,1737286278,243659648,base_link,0.012811881490051746,0.0100442785769701,-0.006839480716735125,0.12401031394956506,0.21353452681924598,-0.12277083384305928
1737286278.3478718,20965,1737286278,343662208,base_link,0.013077134266495705,0.024436216801404953,-0.0008238082518801093,-0.22149256010377158,-0.13166682343135883,-0.15648303313062936
1737286278.4483902,20966,1737286278,443663488,base_link,0.009174029342830181,0.03805869445204735,-0.009027709253132343,-0.36017464464368315,-0.15956350037023118,-0.20201493731367037
1737286278.549284,20967,1737286278,543666304,base_link,0.008036100305616856,0.03633756935596466,-0.007776001468300819,-0.4762500530198749,-0.3268770307269043,-0.003904066116125168
1737286278.6496196,20968,1737286278,646667328,base_link,0.003500198945403099,0.040518227964639664,-0.012019616551697254,-0.0426699488102373,-0.34320683483653996,0.18472793481423103
1737286278.7492683,20969,1737286278,743669888,base_link,0.01551392488181591,0.003208892187103629,-0.004427248612046242,0.3387707079459308,0.03810458698420848,0.04672179627891071
1737286278.8487,20970,1737286278,843671168,base_link,0.004758787807077169,0.010806144215166569,-0.0002665379724930972,0.12639116202034453,0.02983661033168364,-0.14146590274898246
1737286278.949757,20971,1737286278,946673984,base_link,0.0003192221047356725,0.021499039605259895,-0.013248784467577934,-0.3551820648827337,-0.034197564244743815,-0.1347145222756433
1737286279.0496886,20972,1737286279,46675520,base_link,-0.0036703862715512514,0.04640120640397072,-0.013158991001546383,-0.1759928267583061,-0.07207743587582736,0.024142748369524746
1737286279.148501,20973,1737286279,143678336,base_link,0.0033731854055076838,0.005218942649662495,-0.005153906997293234,0.440791599168043,0.2762034736677627,0.26632462621184766
1737286279.2496035,20974,1737286279,246679872,base_link,0.010376776568591595,0.009225139394402504,-0.00850929506123066,0.2453574055601067,0.061757887209609626,-0.14811035114928994
1737286279.3486824,20975,1737286279,343681408,base_link,0.0033601708710193634,0.024305125698447227,-0.009822235442698002,0.046917896995436026,0.15644555305736774,-0.19703026774404236
1737286279.4488046,20976,1737286279,443682944,base_link,0.009561104699969292,0.03236953914165497,9.552556002745405e-05,-0.39513877564765143,-0.2445386147157247,-0.0765320312238337
1737286279.5486405,20977,1737286279,543684224,base_link,0.013465238735079765,0.013971839100122452,-0.010111458599567413,-0.06589394027818996,-0.03665372488456384,0.1928614637123916
1737286279.648622,20978,1737286279,643686016,base_link,0.022499319165945053,-0.02231505885720253,0.011419625952839851,0.6076857019635186,0.21241116603619456,0.10062790650033003
1737286279.7483652,20979,1737286279,743687552,base_link,0.022726641967892647,-0.02896954119205475,0.02151600271463394,0.32226688880803517,0.10549902015484248,0.07323814155413882
1737286279.849532,20980,1737286279,843689088,base_link,0.007777034770697355,-0.0006411212380044162,0.0022513114381581545,-0.18085079492311115,0.010490952814073123,-0.23412842564793254
1737286279.9494362,20981,1737286279,943690624,base_link,0.002031589625403285,0.003765716217458248,-0.012072603218257427,-0.48230738905478077,-0.09733596877675428,-0.009314714720088024
1737286280.0488355,20982,1737286280,46692416,base_link,0.0102994404733181,0.014677805826067924,-0.0224892720580101,0.05536218828098484,-0.17080622013886432,0.14943362031248952
1737286280.1555133,20983,1737286280,143694208,base_link,0.025479642674326897,-0.02257945016026497,-0.006611388176679611,0.4153602291951891,0.23802726470042881,0.18486033632309815
1737286280.2516975,20984,1737286280,243695488,base_link,0.029483536258339882,-0.02668832056224346,0.0006337789236567914,0.4554456348983096,0.3350972163943145,0.06363223980680949
1737286280.35395,20985,1737286280,343696768,base_link,0.026109682396054268,-0.013543574139475822,-0.008272149600088596,0.03837298064139631,0.1042604763433071,-0.1886816314650606
1737286280.4493506,20986,1737286280,446698048,base_link,0.02548936940729618,-0.02816704660654068,-0.0014045782154425979,-0.1929710202031289,0.10474969047175443,-0.2030139649779207
1737286280.554707,20987,1737286280,543699328,base_link,0.0205669105052948,0.0022031981498003006,-0.016893623396754265,-0.4455446469754061,-0.3319528152182788,-0.033359694463849565
1737286280.649808,20988,1737286280,646700608,base_link,0.023226981982588768,0.0013444081414490938,-0.02093457616865635,-0.5938004529739059,-0.27030255633749367,-0.052614927521585114
1737286280.7492745,20989,1737286280,743701888,base_link,0.03634662926197052,-0.03615394979715347,-0.014143151231110096,-0.008595015514752653,0.003678916593359759,0.19129904330192968
1737286280.849803,20990,1737286280,843703424,base_link,0.035358719527721405,-0.05797512084245682,0.005126075353473425,0.37612734188078456,0.1254192770219105,0.08684548494583075
1737286280.9497993,20991,1737286280,943704704,base_link,0.03256300464272499,-0.048524290323257446,-0.002658230485394597,0.222882518815017,0.16552827159304137,-0.20428090847323285
1737286281.0489688,20992,1737286281,43705984,base_link,0.025247013196349144,-0.029728971421718597,-0.008223993703722954,-0.054306305765504874,0.18217156179650848,-0.08143645940905501
1737286281.1494563,20993,1737286281,143701120,base_link,0.020457161590456963,-0.01485423929989338,-0.010576792992651463,-0.4886877555434361,-0.30814452012782745,0.006140166141776567
1737286281.2494845,20994,1737286281,243702912,base_link,0.022309238091111183,-0.03186175227165222,-0.015361164696514606,-0.21424490987660444,-0.1379005708102445,0.19674690147146007
1737286281.3494468,20995,1737286281,343704192,base_link,0.026203393936157227,-0.042681679129600525,0.011025001294910908,0.4706959124327323,-0.07973682178277275,0.17657112465561667
1737286281.44991,20996,1737286281,443705728,base_link,0.016771068796515465,-0.02815079316496849,0.008330199867486954,0.1502543725766063,0.1346971127596219,-0.04777249726079615
1737286281.5526602,20997,1737286281,543707264,base_link,0.007429356221109629,-0.0018799931276589632,-0.007932795211672783,-0.1115394990303699,0.06890893047401997,-0.2260715675770915
1737286281.6487682,20998,1737286281,643708800,base_link,-0.003071834100410342,0.013771082274615765,-0.00909933727234602,-0.4388352675222177,-0.29636464305884647,0.06025387094120532
1737286281.7503061,20999,1737286281,743710336,base_link,0.0034197624772787094,0.017130427062511444,-0.016849838197231293,-0.14276719819282357,-0.31438461612627155,0.08770910295363162
1737286281.8496888,21000,1737286281,843711872,base_link,0.015983151271939278,-0.007990842685103416,-0.0018714843317866325,0.29108204931068304,-0.07330246741574871,0.21949834732326517
1737286281.9489827,21001,1737286281,943713152,base_link,0.015921400859951973,-0.010801251046359539,0.007888980209827423,0.25026673951005624,0.0725252550171832,0.0848108752279142
1737286282.0493317,21002,1737286282,43714688,base_link,0.008026700466871262,0.0052289580926299095,0.0017820829525589943,0.15308791755665827,0.12971040239909862,-0.17873585440047143
1737286282.1493952,21003,1737286282,143715968,base_link,0.006303777918219566,0.0292653925716877,-0.008112236857414246,-0.4008568933423879,-0.07530813358191098,-0.1693507190813602
1737286282.2495847,21004,1737286282,243717248,base_link,0.01251767948269844,0.044518593698740005,-0.02152899280190468,-0.4959048625427294,-0.08284956023116284,-0.06488635605672421
1737286282.3523347,21005,1737286282,343718272,base_link,0.02670060656964779,0.03151274099946022,-0.00504910945892334,0.023239683976855753,-0.03230869662049399,0.10816015555228219
1737286282.451865,21006,1737286282,443719808,base_link,0.03496358543634415,0.020862186327576637,-0.0048101721331477165,0.15008698995111652,0.15468384259372217,0.19850014834918392
1737286282.5536819,21007,1737286282,543721088,base_link,0.0350596159696579,0.013196076266467571,0.014335649088025093,0.9028329088066999,0.38814705244284875,-0.001385019538076536
1737286282.6487973,21008,1737286282,643722624,base_link,0.026727978140115738,0.032589592039585114,0.009218220598995686,0.07619376842466787,0.14443535905335278,-0.07841052599548468
1737286282.7480893,21009,1737286282,746723904,base_link,0.02330743707716465,0.02636815421283245,0.008203680627048016,-0.5132147275121942,-0.10120377564532376,-0.17229819131980545
1737286282.8486319,21010,1737286282,843725440,base_link,0.0414045974612236,0.009917697869241238,-0.0015248655108734965,-0.15692827773607765,-0.1416699208431013,0.1084444843878502
1737286282.948765,21011,1737286282,943726464,base_link,0.04481589421629906,-0.007415934931486845,0.010702407918870449,0.50388436162425,0.23508124864882424,0.061304695141962615
1737286283.0486763,21012,1737286283,43728256,base_link,0.036573849618434906,0.008851110003888607,-0.003967566881328821,0.01927325449538475,0.18377109857549775,-0.2187734639675273
1737286283.1494823,21013,1737286283,143730048,base_link,0.031045008450746536,0.009317280724644661,-0.003039374016225338,-0.4509540391710686,-0.1730571408627328,-0.11363404210560943
1737286283.249249,21014,1737286283,243731840,base_link,0.04546906799077988,0.019666897132992744,-0.013406988233327866,-0.3609552048320097,-0.3047472790950254,0.06542325555804374
1737286283.3498094,21015,1737286283,343733632,base_link,0.05380059406161308,-0.012815320864319801,-0.003614841029047966,0.22574963253916183,0.0934540788135363,0.17816211659769368
1737286283.4478319,21016,1737286283,443735424,base_link,0.0441114604473114,-0.007332194596529007,0.006828594952821732,0.5531317190446302,0.1568782390412594,-0.08384331933019683
1737286283.5483267,21017,1737286283,543736960,base_link,0.03971211984753609,0.024547433480620384,-0.010966329835355282,-0.3044239104644601,-0.1528993459604713,-0.07473989089209022
1737286283.6479065,21018,1737286283,643737472,base_link,0.04030579701066017,0.012617486529052258,-0.0224783793091774,-0.2239627325540976,-0.08551626903562908,0.21033688193146372
1737286283.7475502,21019,1737286283,743739264,base_link,0.0543123222887516,-0.01123608648777008,0.0008684342028573155,0.519261935285338,0.10063368153599032,0.11889519440415064
1737286283.8482523,21020,1737286283,843739520,base_link,0.0483722910284996,0.002966216066852212,0.0018793345661833882,0.05797738317590869,0.12375307542704365,-0.13046005308919315
1737286283.952748,21021,1737286283,943741056,base_link,0.040152668952941895,0.014103000983595848,-0.013704282231628895,-0.46439652718291646,-0.12231507845718577,-0.07375963707253926
1737286284.0539494,21022,1737286284,43741312,base_link,0.040785592049360275,0.01798206754028797,-0.009485927410423756,-0.5487046854221155,-0.2983649925708964,-0.08405049650234768
1737286284.1511219,21023,1737286284,143743104,base_link,0.05651392415165901,-7.254912634380162e-05,-0.0029441395308822393,-0.06898743768573093,-0.1838901595209403,0.2799335819313339
1737286284.2484043,21024,1737286284,243743616,base_link,0.06314051151275635,-0.027042562142014503,0.007103049196302891,0.296797850064435,0.26902764765494586,0.23542968459964966
1737286284.348904,21025,1737286284,343745408,base_link,0.05850885063409805,-0.03584875538945198,0.025015266612172127,0.6547788250019156,0.26423967955831806,-0.018180096698481172
1737286284.448389,21026,1737286284,443745920,base_link,0.05329340696334839,-0.02220437489449978,0.015940988436341286,-0.084867403994705,0.01601582702301783,-0.0883516180105198
1737286284.5483935,21027,1737286284,543747712,base_link,0.04929937794804573,0.002421435434371233,0.0008029229938983917,-0.47629852617394686,-0.08900627674866352,-0.11467743125358769
1737286284.6491544,21028,1737286284,643748224,base_link,0.04982313886284828,-0.013355446979403496,-0.0004216948873363435,-0.3476470849778683,-0.19975095218739777,0.10977328996743468
1737286284.7484303,21029,1737286284,743750016,base_link,0.05239631608128548,-0.025384247303009033,-0.0023430297151207924,0.061728241897801184,-0.17891412857259428,0.24764104051945826
1737286284.8496234,21030,1737286284,843750528,base_link,0.04944073408842087,-0.029366206377744675,0.015032977797091007,0.4902019700067929,0.08828684830353949,0.09662401462508667
1737286284.9499686,21031,1737286284,943752320,base_link,0.03864280879497528,-0.015650728717446327,0.007616957183927298,0.028815121665612824,0.0364696156611892,-0.14399621532716772
1737286285.0500512,21032,1737286285,43753088,base_link,0.028188809752464294,0.010545168071985245,-0.007654985878616571,-0.20784492265579602,-0.0811868418250061,-0.2959194450462689
1737286285.1495686,21033,1737286285,143755392,base_link,0.01889563910663128,0.016147388145327568,-0.0033982167951762676,-0.5173201861234762,-0.347765166726398,-0.06734624548160971
1737286285.2493541,21034,1737286285,243756160,base_link,0.019110392779111862,0.016284795477986336,-0.013383804820477962,-0.30083706896099327,-0.21869490292752292,0.13674652266215787
1737286285.3494794,21035,1737286285,343758464,base_link,0.034832678735256195,-0.0057619414292275906,-0.0029022227972745895,0.254485214212816,-0.14261091639944962,0.09234926074777772
1737286285.4504366,21036,1737286285,446759232,base_link,0.03441927954554558,-0.0017717649461701512,-0.009444979019463062,0.4429782669289942,0.04088377111275177,0.07223636496298129
1737286285.5492606,21037,1737286285,543761280,base_link,0.019757593050599098,0.01046370156109333,-0.00866066012531519,-0.10933714173188493,0.02464079579667063,-0.3236034210546519
1737286285.6494794,21038,1737286285,643762048,base_link,0.012529740110039711,0.017272038385272026,-0.008795879781246185,-0.5581978366727608,-0.26411222363157355,0.0007317992063061909
1737286285.758908,21039,1737286285,743764096,base_link,0.02309725247323513,0.008855633437633514,-0.013380598276853561,-0.4682871439951362,-0.350887655442788,0.038554068086364746
1737286285.8535116,21040,1737286285,843764864,base_link,0.03207002207636833,-0.008450150489807129,-0.006489227991551161,0.06078223085496714,0.028667873072190257,0.16962926778411386
1737286285.9495466,21041,1737286285,943767168,base_link,0.03503318503499031,-0.02162548154592514,0.006532274652272463,0.24915494071467376,0.07868665102371368,0.1853003436205468
1737286286.0482087,21042,1737286286,43767936,base_link,0.0320647656917572,-0.00967421568930149,0.005614653695374727,0.319350652269258,0.12580949815687076,-0.050107642448058924
1737286286.1488338,21043,1737286286,143769984,base_link,0.026891952380537987,0.002410748740658164,0.013179456815123558,0.2940737000139538,0.16208176009854344,-0.20738925176783732
1737286286.2500274,21044,1737286286,243771008,base_link,0.01905694045126438,0.028605207800865173,0.006084389053285122,-0.38551919609200974,-0.20959025172833623,-0.18034024245850863
1737286286.3490517,21045,1737286286,343773312,base_link,0.015751978382468224,0.0422891303896904,-0.003564251121133566,-0.27278685616002374,-0.05625032055383564,-0.11189404570150085
1737286286.450054,21046,1737286286,443774080,base_link,0.021018732339143753,0.04081962630152702,0.0005302177160046995,-0.24326013624278517,-0.17639762756504782,0.10799949000401263
1737286286.549767,21047,1737286286,543776384,base_link,0.02853650227189064,0.016446085646748543,-0.004241998307406902,-0.09177763459091604,-0.08129496641751484,0.18661533953527154
1737286286.6493714,21048,1737286286,643777408,base_link,0.030367881059646606,-0.012452648021280766,0.021527577191591263,0.30864026492075747,0.013112596091641669,0.10492971368327575
1737286286.7500246,21049,1737286286,743778176,base_link,0.030564293265342712,-0.007462514564394951,0.0250527523458004,0.3793265057882615,0.007763149541254366,-0.0338746392873871
1737286286.849211,21050,1737286286,843779200,base_link,0.0240124873816967,0.00030610751127824187,0.02041037753224373,0.27795225721337885,0.07649155587557983,-0.14851888746168246
1737286286.9494221,21051,1737286286,943781248,base_link,0.0215802863240242,0.014209217391908169,0.012730023823678493,-0.28616163090246405,-0.19895500550116765,-0.1751642113165089
1737286287.0500216,21052,1737286287,43782016,base_link,0.01740483194589615,0.025204287841916084,0.006738369353115559,-0.3912457759000868,-0.1842336523529795,-0.12045819556610625
1737286287.149746,21053,1737286287,143784320,base_link,0.021425658836960793,0.01908169686794281,0.01254701055586338,-0.12173650754524132,-0.04587996327837289,0.11582779418941369
1737286287.2494748,21054,1737286287,243785088,base_link,0.023896649479866028,0.01720784790813923,0.003062743926420808,0.12541704765399755,0.2262294296476977,0.15800974806640392
1737286287.351623,21055,1737286287,343787392,base_link,0.02585180103778839,-0.002111774403601885,0.018123777583241463,0.34003778593173506,0.17985853163541993,0.24739734666215768
1737286287.4476314,21056,1737286287,443788160,base_link,0.024806395173072815,-0.00031623165705241263,0.01649811491370201,0.5083588755673876,0.42670380216796033,0.033968155238548306
1737286287.5522645,21057,1737286287,546788928,base_link,0.01699969172477722,-0.0014793791342526674,0.01620030403137207,0.5001500558051543,0.36669535511295986,0.027009178611605573
1737286287.650319,21058,1737286287,643789696,base_link,0.0039054250810295343,0.025840729475021362,0.0033523207530379295,-0.2637754803701573,-0.05285446493398226,-0.16562191291478284
1737286287.7501924,21059,1737286287,743790720,base_link,-0.00440601259469986,0.03457986190915108,0.003585649887099862,-0.49776462718354836,-0.21667574464952546,-0.07546712974464903
1737286287.850027,21060,1737286287,843791744,base_link,0.0012695547193288803,0.04613343998789787,-0.010968861170113087,-0.46258403616066646,-0.30307392137364053,-0.03236733537982091
