Time,header.seq,header.stamp.secs,header.stamp.nsecs,header.frame_id,twist.linear.x,twist.linear.y,twist.linear.z,twist.angular.x,twist.angular.y,twist.angular.z
1737286264.2993479,20725,1737286254,247182976,map,-0.019511297236512817,-0.022788358434701856,0.0,0.0,0.0,0.0
1737286264.30031,20726,1737286254,247184768,map,-0.019511297236512817,-0.022788358434701856,0.0,0.0,0.0,0.0
1737286264.3076842,20727,1737286254,447187840,map,-0.03251882872752137,-0.03798059739116977,0.0,0.0,0.0,0.0
1737286264.3078868,20728,1737286254,447189888,map,-0.03251882872752137,-0.03798059739116977,0.0,0.0,0.0,0.0
1737286264.3081305,20729,1737286254,647191680,map,-0.02601506298201709,-0.03038447791293581,0.0,0.0,0.0,0.0
1737286264.3083572,20730,1737286254,647193728,map,-0.02601506298201709,-0.03038447791293581,0.0,0.0,0.0,0.0
1737286264.3091862,20731,1737286254,847197056,map,-0.09105272043705984,-0.10634567269527534,0.0,0.0,0.0,0.0
1737286264.311189,20732,1737286254,847198848,map,-0.09105272043705984,-0.10634567269527534,0.0,0.0,0.0,0.0
1737286264.3115592,20733,1737286255,47197312,map,-0.08454895469155556,-0.09874955321704139,0.0,0.0,0.0,0.0
1737286264.3119223,20734,1737286255,47199360,map,-0.08454895469155556,-0.09874955321704139,0.0,0.0,0.0,0.0
1737286264.3120728,20735,1737286255,247202432,map,-0.22848954638729113,0.026315911379428573,0.0,0.0,0.0,0.0
1737286264.3127396,20736,1737286255,247204480,map,-0.22848954638729113,0.026315911379428573,0.0,0.0,0.0,0.0
1737286264.3129337,20737,1737286255,447206272,map,-0.17881790586831478,0.020595061079552796,0.0,0.0,0.0,0.0
1737286264.3138847,20738,1737286255,447208576,map,-0.17881790586831478,0.020595061079552796,0.0,0.0,0.0,0.0
1737286264.3140428,20739,1737286255,647210624,map,-0.18209117400358785,0.2752141063790065,0.0,0.0,0.0,0.0
1737286264.3143172,20740,1737286255,647212672,map,-0.18209117400358785,0.2752141063790065,0.0,0.0,0.0,0.0
1737286264.3145635,20741,1737286255,847216000,map,-0.11259206860119048,0.37339392883134137,0.0,0.0,0.0,0.0
1737286264.3149197,20742,1737286255,847218304,map,-0.11259206860119048,0.37339392883134137,0.0,0.0,0.0,0.0
1737286264.315075,20743,1737286256,47221888,map,-0.07911618283239302,0.5745786539839706,0.0,0.0,0.0,0.0
1737286264.3152554,20744,1737286256,47223936,map,-0.07911618283239302,0.5745786539839706,0.0,0.0,0.0,0.0
1737286264.3157868,20745,1737286256,247225984,map,-0.03676995161709627,0.6189086933127345,0.0,0.0,0.0,0.0
1737286264.3161807,20746,1737286256,247228288,map,-0.03676995161709627,0.6189086933127345,0.0,0.0,0.0,0.0
1737286264.3177238,20747,1737286256,447231872,map,-0.02585776859064228,0.5994425542147578,0.0,0.0,0.0,0.0
1737286264.3279219,20748,1737286256,447234176,map,-0.02585776859064228,0.5994425542147578,0.0,0.0,0.0,0.0
1737286264.328044,20749,1737286256,647236480,map,0.011288239178786259,0.659903459345564,0.0,0.0,0.0,0.0
1737286264.328115,20750,1737286256,647238784,map,0.011288239178786259,0.659903459345564,0.0,0.0,0.0,0.0
1737286264.3282259,20751,1737286256,847240832,map,0.020155418718482955,0.6596921699522306,0.0,0.0,0.0,0.0
1737286264.3350396,20752,1737286256,847243136,map,0.020155418718482955,0.6596921699522306,0.0,0.0,0.0,0.0
1737286264.3389642,20753,1737286257,47245952,map,0.015260945381960753,0.5497882351833738,0.0,0.0,0.0,0.0
1737286264.3389988,20754,1737286257,47248256,map,0.015260945381960753,0.5497882351833738,0.0,0.0,0.0,0.0
1737286264.3390617,20755,1737286257,247250816,map,0.05429548299217428,0.4467124360555082,0.0,0.0,0.0,0.0
1737286264.3425722,20756,1737286257,247253376,map,0.05429548299217428,0.4467124360555082,0.0,0.0,0.0,0.0
1737286264.3426197,20757,1737286257,447255680,map,0.06502287852457772,0.6165809154266599,0.0,0.0,0.0,0.0
1737286264.3427374,20758,1737286257,447258496,map,0.06502287852457772,0.6165809154266599,0.0,0.0,0.0,0.0
1737286264.3427546,20759,1737286257,647260800,map,0.08186476368672371,0.5438732944965371,0.0,0.0,0.0,0.0
1737286264.3428066,20760,1737286257,647263104,map,0.08186476368672371,0.5438732944965371,0.0,0.0,0.0,0.0
1737286264.3429952,20761,1737286257,847264896,map,0.1269302680334721,0.5966478920242247,0.0,0.0,0.0,0.0
1737286264.3430176,20762,1737286257,847267456,map,0.1269302680334721,0.5966478920242247,0.0,0.0,0.0,0.0
1737286264.3430598,20763,1737286258,47269504,map,0.1844044651490175,0.6024076636573482,0.0,0.0,0.0,0.0
1737286264.3431544,20764,1737286258,47271808,map,0.1844044651490175,0.6024076636573482,0.0,0.0,0.0,0.0
1737286264.3454957,20765,1737286258,247273856,map,0.15399589598655897,0.5695482982322894,0.0,0.0,0.0,0.0
1737286264.3455753,20766,1737286258,247276416,map,0.15399589598655897,0.5695482982322894,0.0,0.0,0.0,0.0
1737286264.3455951,20767,1737286258,447278464,map,0.1609032237010239,0.4095243003810864,0.0,0.0,0.0,0.0
1737286264.3463056,20768,1737286258,447281024,map,0.1609032237010239,0.4095243003810864,0.0,0.0,0.0,0.0
1737286264.3473253,20769,1737286258,647283328,map,0.11809526319652378,0.34007868032345656,0.0,0.0,0.0,0.0
1737286264.3474903,20770,1737286258,647286144,map,0.11809526319652378,0.34007868032345656,0.0,0.0,0.0,0.0
1737286264.3476675,20771,1737286258,847288192,map,0.09790272546218237,0.3671716987283695,0.0,0.0,0.0,0.0
1737286264.3476863,20772,1737286258,847290496,map,0.09790272546218237,0.3671716987283695,0.0,0.0,0.0,0.0
1737286264.3477066,20773,1737286259,47293056,map,0.06774459787462964,0.3637453359959475,0.0,0.0,0.0,0.0
1737286264.347748,20774,1737286259,47295872,map,0.06774459787462964,0.3637453359959475,0.0,0.0,0.0,0.0
1737286264.3477678,20775,1737286259,247298432,map,0.0057592327199069,0.2999447136364933,0.0,0.0,0.0,0.0
1737286264.347784,20776,1737286259,247300992,map,0.0057592327199069,0.2999447136364933,0.0,0.0,0.0,0.0
1737286264.3478072,20777,1737286259,447303040,map,-0.017462774583404516,0.20927267261601357,0.0,0.0,0.0,0.0
1737286264.3478296,20778,1737286259,447305856,map,-0.017462774583404516,0.20927267261601357,0.0,0.0,0.0,0.0
1737286264.3478596,20779,1737286259,647308416,map,-0.12143131346697177,0.21852788405529863,0.0,0.0,0.0,0.0
1737286264.3478982,20780,1737286259,647310976,map,-0.12143131346697177,0.21852788405529863,0.0,0.0,0.0,0.0
1737286264.3479226,20781,1737286259,847313792,map,-0.08743054569621966,0.15734007651981502,0.0,0.0,0.0,0.0
1737286264.3495364,20782,1737286259,847316608,map,-0.08743054569621966,0.15734007651981502,0.0,0.0,0.0,0.0
1737286264.349557,20783,1737286260,47319424,map,-0.07285878808018306,0.13111673043317917,0.0,0.0,0.0,0.0
1737286264.3495734,20784,1737286260,47322240,map,-0.07285878808018306,0.13111673043317917,0.0,0.0,0.0,0.0
1737286264.3497138,20785,1737286260,247325056,map,-0.08743054569621966,0.15734007651981502,0.0,0.0,0.0,0.0
1737286264.3497396,20786,1737286260,247327872,map,-0.08743054569621966,0.15734007651981502,0.0,0.0,0.0,0.0
1737286264.3498049,20787,1737286260,447330688,map,-0.06314428300282532,0.11363449970875529,0.0,0.0,0.0,0.0
1737286264.349825,20788,1737286260,447333504,map,-0.06314428300282532,0.11363449970875529,0.0,0.0,0.0,0.0
1737286264.350141,20789,1737286260,647336320,map,-0.07771604061886193,0.13985784579539112,0.0,0.0,0.0,0.0
1737286264.3510885,20790,1737286260,647339392,map,-0.07771604061886193,0.13985784579539112,0.0,0.0,0.0,0.0
1737286264.3511221,20791,1737286260,847342208,map,-0.05828703046414645,0.10489338434654334,0.0,0.0,0.0,0.0
1737286264.3511589,20792,1737286260,847345024,map,-0.05828703046414645,0.10489338434654334,0.0,0.0,0.0,0.0
1737286264.3512049,20793,1737286261,47348096,map,-0.0825732931575408,0.14859896115760307,0.0,0.0,0.0,0.0
1737286264.3513296,20794,1737286261,47349632,map,-0.0825732931575408,0.14859896115760307,0.0,0.0,0.0,0.0
1737286264.3513577,20795,1737286261,247350912,map,-0.0825732931575408,0.14859896115760307,0.0,0.0,0.0,0.0
1737286264.3514082,20796,1737286261,247352704,map,-0.0825732931575408,0.14859896115760307,0.0,0.0,0.0,0.0
1737286264.351456,20797,1737286261,447353728,map,-0.06800153554150419,0.12237561507096724,0.0,0.0,0.0,0.0
1737286264.3515973,20798,1737286261,447355008,map,-0.06800153554150419,0.12237561507096724,0.0,0.0,0.0,0.0
1737286264.3516269,20799,1737286261,647356288,map,-0.053429777925467575,0.0961522689843314,0.0,0.0,0.0,0.0
1737286264.351676,20800,1737286261,647357824,map,-0.053429777925467575,0.0961522689843314,0.0,0.0,0.0,0.0
1737286264.3517098,20801,1737286261,848360640,map,-0.03885802030943097,0.06992892289769556,0.0,0.0,0.0,0.0
1737286264.3517947,20802,1737286261,848362176,map,-0.03885802030943097,0.06992892289769556,0.0,0.0,0.0,0.0
1737286264.3518107,20803,1737286262,48364736,map,-0.04857252538678871,0.08741115362211946,0.0,0.0,0.0,0.0
1737286264.351826,20804,1737286262,48366016,map,-0.04857252538678871,0.08741115362211946,0.0,0.0,0.0,0.0
1737286264.3518438,20805,1737286262,248368832,map,-0.024286262693394355,0.04370557681105973,0.0,0.0,0.0,0.0
1737286264.3518784,20806,1737286262,248370368,map,-0.024286262693394355,0.04370557681105973,0.0,0.0,0.0,0.0
1737286264.3518953,20807,1737286262,448372928,map,-0.019429010154715484,0.03496446144884778,0.0,0.0,0.0,0.0
1737286264.3519113,20808,1737286262,448374464,map,-0.019429010154715484,0.03496446144884778,0.0,0.0,0.0,0.0
1737286264.3519886,20809,1737286262,648377024,map,-0.014571757616036612,0.026223346086635835,0.0,0.0,0.0,0.0
1737286264.352004,20810,1737286262,648378560,map,-0.014571757616036612,0.026223346086635835,0.0,0.0,0.0,0.0
1737286264.3520224,20811,1737286262,848379584,map,-0.014571757616036612,0.026223346086635835,0.0,0.0,0.0,0.0
1737286264.3520656,20812,1737286262,848379584,map,-0.014571757616036612,0.026223346086635835,0.0,0.0,0.0,0.0
1737286264.352086,20813,1737286263,48382656,map,-0.014571757616036612,0.026223346086635835,0.0,0.0,0.0,0.0
1737286264.352102,20814,1737286263,48384448,map,-0.014571757616036612,0.026223346086635835,0.0,0.0,0.0,0.0
1737286264.3534164,20815,1737286263,248385984,map,-0.05828703046414645,0.10489338434654334,0.0,0.0,0.0,0.0
1737286264.3536284,20816,1737286263,248387776,map,-0.05828703046414645,0.10489338434654334,0.0,0.0,0.0,0.0
1737286264.3538857,20817,1737286263,448389568,map,-0.006457390381795246,0.36994364720786477,0.0,0.0,0.0,0.0
1737286264.353904,20818,1737286263,448391104,map,-0.006457390381795246,0.36994364720786477,0.0,0.0,0.0,0.0
1737286264.3539233,20819,1737286263,648392640,map,0.1352028395273372,0.676624114397163,0.0,0.0,0.0,0.0
1737286264.35442,20820,1737286263,648394432,map,0.1352028395273372,0.676624114397163,0.0,0.0,0.0,0.0
1737286264.3547325,20821,1737286263,848396224,map,0.33917913719412524,1.2238698921422362,0.0,0.0,0.0,0.0
1737286264.357492,20822,1737286263,848398016,map,0.33917913719412524,1.2238698921422362,0.0,0.0,0.0,0.0
1737286264.3578365,20823,1737286264,48399808,map,0.5313070975426392,1.7302637856988214,0.0,0.0,0.0,0.0
1737286264.3581681,20824,1737286264,48401600,map,0.5313070975426392,1.7302637856988214,0.0,0.0,0.0,0.0
1737286264.3584604,20825,1737286264,248403392,map,0.6013906438116495,2.022480974826663,0.0,0.0,0.0,0.0
1737286264.4460268,20826,1737286264,248405184,map,0.6013906438116495,2.022480974826663,0.0,0.0,0.0,0.0
1737286264.5478253,20827,1737286264,448406720,map,0.6656770971006244,2.368221696209138,0.0,0.0,0.0,0.0
1737286264.644369,20828,1737286264,448408512,map,0.6656770971006244,2.368221696209138,0.0,0.0,0.0,0.0
1737286264.7469137,20829,1737286264,648410304,map,0.7375887622290154,2.4200956216301592,0.0,0.0,0.0,0.0
1737286264.84535,20830,1737286264,648412352,map,0.7375887622290154,2.4200956216301592,0.0,0.0,0.0,0.0
1737286264.946995,20831,1737286264,848415424,map,0.7952398434092838,2.475397663296622,0.0,0.0,0.0,0.0
1737286265.0466905,20832,1737286264,848417216,map,0.7952398434092838,2.475397663296622,0.0,0.0,0.0,0.0
1737286265.1466577,20833,1737286265,48419008,map,0.8114214709914906,2.512209226241717,0.0,0.0,0.0,0.0
1737286265.2507293,20834,1737286265,48421056,map,0.8114214709914906,2.512209226241717,0.0,0.0,0.0,0.0
1737286265.3495631,20835,1737286265,248423360,map,0.8825552846721716,2.593973047180179,0.0,0.0,0.0,0.0
1737286265.449905,20836,1737286265,248425664,map,0.8825552846721716,2.593973047180179,0.0,0.0,0.0,0.0
1737286265.5481386,20837,1737286265,448427456,map,0.9292756651228493,2.8314036692443705,0.0,0.0,0.0,0.0
1737286265.6483307,20838,1737286265,448429504,map,0.9292756651228493,2.8314036692443705,0.0,0.0,0.0,0.0
1737286265.7502913,20839,1737286265,648431552,map,0.9470185494513519,2.7410136568421284,0.0,0.0,0.0,0.0
1737286265.8487737,20840,1737286265,648434112,map,0.9470185494513519,2.7410136568421284,0.0,0.0,0.0,0.0
1737286265.9486299,20841,1737286265,848436160,map,0.9850516319522018,2.801887449985867,0.0,0.0,0.0,0.0
1737286266.0483813,20842,1737286265,848438464,map,0.9850516319522018,2.801887449985867,0.0,0.0,0.0,0.0
1737286266.149634,20843,1737286266,48440256,map,0.9112943010439886,2.9420983492882677,0.0,0.0,0.0,0.0
1737286266.247713,20844,1737286266,48442560,map,0.9112943010439886,2.9420983492882677,0.0,0.0,0.0,0.0
1737286266.3472226,20845,1737286266,248444352,map,0.8921398566966581,2.8538021087828196,0.0,0.0,0.0,0.0
1737286266.4475996,20846,1737286266,248446400,map,0.8921398566966581,2.8538021087828196,0.0,0.0,0.0,0.0
1737286266.549094,20847,1737286266,448448192,map,0.8697754151124708,2.850243976796711,0.0,0.0,0.0,0.0
1737286266.6515553,20848,1737286266,448450496,map,0.8697754151124708,2.850243976796711,0.0,0.0,0.0,0.0
1737286266.74813,20849,1737286266,648452544,map,0.7825001894207603,2.70926068394248,0.0,0.0,0.0,0.0
1737286266.8475711,20850,1737286266,648454848,map,0.7825001894207603,2.70926068394248,0.0,0.0,0.0,0.0
1737286266.947118,20851,1737286266,848457152,map,0.6703624788635446,2.4913879960640264,0.0,0.0,0.0,0.0
1737286267.0462239,20852,1737286266,848459968,map,0.6703624788635446,2.4913879960640264,0.0,0.0,0.0,0.0
1737286267.1882176,20853,1737286267,48462016,map,0.49800724660355794,2.2556792285984155,0.0,0.0,0.0,0.0
1737286267.2484431,20854,1737286267,48464320,map,0.49800724660355794,2.2556792285984155,0.0,0.0,0.0,0.0
1737286267.3469431,20855,1737286267,248466624,map,0.34069605770961153,1.991061575205832,0.0,0.0,0.0,0.0
1737286267.4512951,20856,1737286267,248468928,map,0.34069605770961153,1.991061575205832,0.0,0.0,0.0,0.0
1737286267.5476785,20857,1737286267,448470976,map,0.020999364867313713,1.8798827162020424,0.0,0.0,0.0,0.0
1737286267.6485844,20858,1737286267,448473280,map,0.020999364867313713,1.8798827162020424,0.0,0.0,0.0,0.0
1737286267.7496717,20859,1737286267,648475584,map,-0.04246727244599057,1.5494181265142726,0.0,0.0,0.0,0.0
1737286267.8468747,20860,1737286267,648478144,map,-0.04246727244599057,1.5494181265142726,0.0,0.0,0.0,0.0
1737286267.9553833,20861,1737286267,848479936,map,-0.17600595892090315,1.4090499999731496,0.0,0.0,0.0,0.0
1737286268.0492747,20862,1737286267,848482496,map,-0.17600595892090315,1.4090499999731496,0.0,0.0,0.0,0.0
1737286268.1456692,20863,1737286268,48478656,map,-0.21653833506368653,0.9865146473559562,0.0,0.0,0.0,0.0
1737286268.2472138,20864,1737286268,48481216,map,-0.21653833506368653,0.9865146473559562,0.0,0.0,0.0,0.0
1737286268.3466601,20865,1737286268,248483520,map,-0.8781595904499833,1.0645354544122603,0.0,0.0,0.0,0.0
1737286268.4507477,20866,1737286268,248486336,map,-0.8781595904499833,1.0645354544122603,0.0,0.0,0.0,0.0
1737286268.5471988,20867,1737286268,448488896,map,-0.7271739912014069,0.6864531932478836,0.0,0.0,0.0,0.0
1737286268.6524434,20868,1737286268,448488640,map,-0.7271739912014069,0.6864531932478836,0.0,0.0,0.0,0.0
1737286268.7462764,20869,1737286268,648491200,map,-0.7569769122815863,0.46806618578213455,0.0,0.0,0.0,0.0
1737286268.8457782,20870,1737286268,648492224,map,-0.7569769122815863,0.46806618578213455,0.0,0.0,0.0,0.0
1737286268.947704,20871,1737286268,848494528,map,-1.021349337354496,0.28362921409038966,0.0,0.0,0.0,0.0
1737286269.0469873,20872,1737286268,848495808,map,-1.021349337354496,0.28362921409038966,0.0,0.0,0.0,0.0
1737286269.149353,20873,1737286269,48498112,map,-0.9727990822640855,0.11858307445058444,0.0,0.0,0.0,0.0
1737286269.2489712,20874,1737286269,48499136,map,-0.9727990822640855,0.11858307445058444,0.0,0.0,0.0,0.0
1737286269.348401,20875,1737286269,248501696,map,-0.9771116971823818,-0.07518464756428213,0.0,0.0,0.0,0.0
1737286269.4486372,20876,1737286269,248502976,map,-0.9771116971823818,-0.07518464756428213,0.0,0.0,0.0,0.0
1737286269.5474768,20877,1737286269,448505536,map,-0.8344179998190215,-0.20819846680036636,0.0,0.0,0.0,0.0
1737286269.6478739,20878,1737286269,448506816,map,-0.8344179998190215,-0.20819846680036636,0.0,0.0,0.0,0.0
1737286269.7488582,20879,1737286269,648509376,map,-0.7444563663003464,-0.2643571801084367,0.0,0.0,0.0,0.0
1737286269.8483427,20880,1737286269,648510656,map,-0.7444563663003464,-0.2643571801084367,0.0,0.0,0.0,0.0
1737286269.9546268,20881,1737286269,848513472,map,-0.6315649205924184,-0.27789521600252876,0.0,0.0,0.0,0.0
1737286270.0487158,20882,1737286269,848514752,map,-0.6315649205924184,-0.27789521600252876,0.0,0.0,0.0,0.0
1737286270.1474068,20883,1737286270,48517568,map,-0.448578429166207,-0.2426466420265861,0.0,0.0,0.0,0.0
1737286270.2482955,20884,1737286270,48518848,map,-0.448578429166207,-0.2426466420265861,0.0,0.0,0.0,0.0
1737286270.347927,20885,1737286270,248521664,map,-0.2632383896607306,-0.16372400620808591,0.0,0.0,0.0,0.0
1737286270.4468207,20886,1737286270,248523200,map,-0.2632383896607306,-0.16372400620808591,0.0,0.0,0.0,0.0
1737286270.546393,20887,1737286270,448525760,map,-0.19678906018544273,-0.16992370579566055,0.0,0.0,0.0,0.0
1737286270.646098,20888,1737286270,448527040,map,-0.19678906018544273,-0.16992370579566055,0.0,0.0,0.0,0.0
1737286270.7471142,20889,1737286270,648529856,map,-0.1212119444110868,-0.13307014891433616,0.0,0.0,0.0,0.0
1737286270.8497055,20890,1737286270,648531136,map,-0.1212119444110868,-0.13307014891433616,0.0,0.0,0.0,0.0
1737286270.9516342,20891,1737286270,848533952,map,-0.09427595676417863,-0.10349900471115037,0.0,0.0,0.0,0.0
1737286271.0494695,20892,1737286270,848535232,map,-0.09427595676417863,-0.10349900471115037,0.0,0.0,0.0,0.0
1737286271.147148,20893,1737286271,48538304,map,-0.0606059722055434,-0.06653507445716808,0.0,0.0,0.0,0.0
1737286271.2469559,20894,1737286271,48539584,map,-0.0606059722055434,-0.06653507445716808,0.0,0.0,0.0,0.0
1737286271.3475585,20895,1737286271,248542400,map,-0.08754195985245158,-0.0961062186603539,0.0,0.0,0.0,0.0
1737286271.4474432,20896,1737286271,248544192,map,-0.08754195985245158,-0.0961062186603539,0.0,0.0,0.0,0.0
1737286271.546395,20897,1737286271,448546496,map,-0.09427595676417863,-0.10349900471115037,0.0,0.0,0.0,0.0
1737286271.6485617,20898,1737286271,448547776,map,-0.09427595676417863,-0.10349900471115037,0.0,0.0,0.0,0.0
1737286271.753165,20899,1737286271,648550592,map,-0.09427595676417863,-0.10349900471115037,0.0,0.0,0.0,0.0
1737286271.8496647,20900,1737286271,648552128,map,-0.09427595676417863,-0.10349900471115037,0.0,0.0,0.0,0.0
1737286271.95067,20901,1737286271,848553664,map,-0.09427595676417863,-0.10349900471115037,0.0,0.0,0.0,0.0
1737286272.049348,20902,1737286271,848555200,map,-0.09427595676417863,-0.10349900471115037,0.0,0.0,0.0,0.0
1737286272.148465,20903,1737286272,48558272,map,-0.08080796294072454,-0.08871343260955744,0.0,0.0,0.0,0.0
1737286272.2477732,20904,1737286272,48559808,map,-0.08080796294072454,-0.08871343260955744,0.0,0.0,0.0,0.0
1737286272.3474188,20905,1737286272,248561344,map,-0.08754195985245158,-0.0961062186603539,0.0,0.0,0.0,0.0
1737286272.449628,20906,1737286272,248563136,map,-0.08754195985245158,-0.0961062186603539,0.0,0.0,0.0,0.0
1737286272.548405,20907,1737286272,448564160,map,-0.06733996911727046,-0.07392786050796454,0.0,0.0,0.0,0.0
1737286272.6487575,20908,1737286272,448565952,map,-0.06733996911727046,-0.07392786050796454,0.0,0.0,0.0,0.0
1737286272.7483654,20909,1737286272,648567232,map,-0.06733996911727046,-0.07392786050796454,0.0,0.0,0.0,0.0
1737286272.847684,20910,1737286272,648569024,map,-0.06733996911727046,-0.07392786050796454,0.0,0.0,0.0,0.0
1737286272.947725,20911,1737286272,848570304,map,-0.0606059722055434,-0.06653507445716808,0.0,0.0,0.0,0.0
1737286273.0476265,20912,1737286272,848572096,map,-0.0606059722055434,-0.06653507445716808,0.0,0.0,0.0,0.0
1737286273.1490943,20913,1737286273,48567744,map,-0.08080796294072454,-0.08871343260955744,0.0,0.0,0.0,0.0
1737286273.2475228,20914,1737286273,48569536,map,-0.08080796294072454,-0.08871343260955744,0.0,0.0,0.0,0.0
1737286273.3488288,20915,1737286273,248571328,map,-0.08080796294072454,-0.08871343260955744,0.0,0.0,0.0,0.0
1737286273.44921,20916,1737286273,248573120,map,-0.08080796294072454,-0.08871343260955744,0.0,0.0,0.0,0.0
1737286273.5487826,20917,1737286273,448574912,map,-0.0606059722055434,-0.06653507445716808,0.0,0.0,0.0,0.0
1737286273.649036,20918,1737286273,448576704,map,-0.0606059722055434,-0.06653507445716808,0.0,0.0,0.0,0.0
1737286273.7487583,20919,1737286273,648578496,map,-0.047137978382089316,-0.05174950235557518,0.0,0.0,0.0,0.0
1737286273.846424,20920,1737286273,648580288,map,-0.047137978382089316,-0.05174950235557518,0.0,0.0,0.0,0.0
1737286273.9490378,20921,1737286273,848582080,map,-0.04040398147036227,-0.04435671630477872,0.0,0.0,0.0,0.0
1737286274.0484252,20922,1737286273,848584384,map,-0.04040398147036227,-0.04435671630477872,0.0,0.0,0.0,0.0
1737286274.1470664,20923,1737286274,48586432,map,-0.04040398147036227,-0.04435671630477872,0.0,0.0,0.0,0.0
1737286274.2469158,20924,1737286274,48588736,map,-0.04040398147036227,-0.04435671630477872,0.0,0.0,0.0,0.0
1737286274.3456385,20925,1737286274,248590528,map,-0.05387197529381636,-0.05914228840637163,0.0,0.0,0.0,0.0
1737286274.4459162,20926,1737286274,248592576,map,-0.05387197529381636,-0.05914228840637163,0.0,0.0,0.0,0.0
1737286274.5458176,20927,1737286274,448594624,map,-0.020201990735181134,-0.02217835815238936,0.0,0.0,0.0,0.0
1737286274.6480436,20928,1737286274,448596672,map,-0.020201990735181134,-0.02217835815238936,0.0,0.0,0.0,0.0
1737286274.7486377,20929,1737286274,648598720,map,-0.02693598764690818,-0.029571144203185816,0.0,0.0,0.0,0.0
1737286274.846463,20930,1737286274,648600768,map,-0.02693598764690818,-0.029571144203185816,0.0,0.0,0.0,0.0
1737286274.948356,20931,1737286274,848602816,map,-0.02693598764690818,-0.029571144203185816,0.0,0.0,0.0,0.0
1737286275.0474665,20932,1737286274,848604864,map,-0.02693598764690818,-0.029571144203185816,0.0,0.0,0.0,0.0
1737286275.1463223,20933,1737286275,48606912,map,-0.006733996911727045,-0.007392786050796454,0.0,0.0,0.0,0.0
1737286275.246642,20934,1737286275,48609216,map,-0.006733996911727045,-0.007392786050796454,0.0,0.0,0.0,0.0
1737286275.3475902,20935,1737286275,248611008,map,-0.020201990735181134,-0.02217835815238936,0.0,0.0,0.0,0.0
1737286275.4484692,20936,1737286275,248613056,map,-0.020201990735181134,-0.02217835815238936,0.0,0.0,0.0,0.0
1737286275.5482848,20937,1737286275,448614848,map,-0.03366998455863523,-0.03696393025398227,0.0,0.0,0.0,0.0
1737286275.6463413,20938,1737286275,448616896,map,-0.03366998455863523,-0.03696393025398227,0.0,0.0,0.0,0.0
1737286275.7461524,20939,1737286275,648618688,map,-0.05387197529381636,-0.05914228840637163,0.0,0.0,0.0,0.0
1737286275.848924,20940,1737286275,648620736,map,-0.05387197529381636,-0.05914228840637163,0.0,0.0,0.0,0.0
1737286275.9489024,20941,1737286275,848623040,map,-0.047137978382089316,-0.05174950235557518,0.0,0.0,0.0,0.0
1737286276.048186,20942,1737286275,848625344,map,-0.047137978382089316,-0.05174950235557518,0.0,0.0,0.0,0.0
1737286276.1472182,20943,1737286276,48627136,map,-0.020201990735181134,-0.02217835815238936,0.0,0.0,0.0,0.0
1737286276.2484126,20944,1737286276,48627904,map,-0.020201990735181134,-0.02217835815238936,0.0,0.0,0.0,0.0
1737286276.347773,20945,1737286276,248629952,map,-0.03366998455863523,-0.03696393025398227,0.0,0.0,0.0,0.0
1737286276.4484348,20946,1737286276,248630720,map,-0.03366998455863523,-0.03696393025398227,0.0,0.0,0.0,0.0
1737286276.549137,20947,1737286276,448632768,map,-0.02693598764690818,-0.029571144203185816,0.0,0.0,0.0,0.0
1737286276.6485941,20948,1737286276,448633536,map,-0.02693598764690818,-0.029571144203185816,0.0,0.0,0.0,0.0
1737286276.7481349,20949,1737286276,648635840,map,-0.047137978382089316,-0.05174950235557518,0.0,0.0,0.0,0.0
1737286276.8471525,20950,1737286276,648636864,map,-0.047137978382089316,-0.05174950235557518,0.0,0.0,0.0,0.0
1737286276.9538069,20951,1737286276,848638912,map,-0.020201990735181134,-0.02217835815238936,0.0,0.0,0.0,0.0
1737286277.047421,20952,1737286276,848639680,map,-0.020201990735181134,-0.02217835815238936,0.0,0.0,0.0,0.0
1737286277.148417,20953,1737286277,48641984,map,-0.020201990735181134,-0.02217835815238936,0.0,0.0,0.0,0.0
1737286277.248716,20954,1737286277,48643008,map,-0.020201990735181134,-0.02217835815238936,0.0,0.0,0.0,0.0
1737286277.3525932,20955,1737286277,248645312,map,-0.02693598764690818,-0.029571144203185816,0.0,0.0,0.0,0.0
1737286277.4485824,20956,1737286277,248646336,map,-0.02693598764690818,-0.029571144203185816,0.0,0.0,0.0,0.0
1737286277.5482223,20957,1737286277,448648384,map,-0.0,-0.0,0.0,0.0,0.0,0.0
1737286277.6488044,20958,1737286277,448649408,map,-0.0,-0.0,0.0,0.0,0.0,0.0
1737286277.7480044,20959,1737286277,648651712,map,-0.01346799382345409,-0.014785572101592908,0.0,0.0,0.0,0.0
1737286277.8478572,20960,1737286277,648652992,map,-0.01346799382345409,-0.014785572101592908,0.0,0.0,0.0,0.0
1737286277.9452417,20961,1737286277,848655040,map,-0.01346799382345409,-0.014785572101592908,0.0,0.0,0.0,0.0
1737286278.0536978,20962,1737286277,848656064,map,-0.01346799382345409,-0.014785572101592908,0.0,0.0,0.0,0.0
1737286278.1475265,20963,1737286278,48658368,map,-0.006733996911727045,-0.007392786050796454,0.0,0.0,0.0,0.0
1737286278.2471395,20964,1737286278,48659648,map,-0.006733996911727045,-0.007392786050796454,0.0,0.0,0.0,0.0
1737286278.3459225,20965,1737286278,248662208,map,-0.04040398147036227,-0.04435671630477872,0.0,0.0,0.0,0.0
1737286278.4472167,20966,1737286278,248663488,map,-0.04040398147036227,-0.04435671630477872,0.0,0.0,0.0,0.0
1737286278.5462806,20967,1737286278,448666304,map,-0.02693598764690818,-0.029571144203185816,0.0,0.0,0.0,0.0
1737286278.6474192,20968,1737286278,448667328,map,-0.02693598764690818,-0.029571144203185816,0.0,0.0,0.0,0.0
1737286278.7479677,20969,1737286278,648669888,map,-0.03366998455863523,-0.03696393025398227,0.0,0.0,0.0,0.0
1737286278.8478436,20970,1737286278,648671168,map,-0.03366998455863523,-0.03696393025398227,0.0,0.0,0.0,0.0
1737286278.9464424,20971,1737286278,848673984,map,-0.0606059722055434,-0.06653507445716808,0.0,0.0,0.0,0.0
1737286279.0477753,20972,1737286278,848675520,map,-0.0606059722055434,-0.06653507445716808,0.0,0.0,0.0,0.0
1737286279.1477866,20973,1737286279,48678336,map,-0.05387197529381636,-0.05914228840637163,0.0,0.0,0.0,0.0
1737286279.2485013,20974,1737286279,48679872,map,-0.05387197529381636,-0.05914228840637163,0.0,0.0,0.0,0.0
1737286279.3460472,20975,1737286279,248681408,map,-0.03366998455863523,-0.03696393025398227,0.0,0.0,0.0,0.0
1737286279.4466813,20976,1737286279,248682944,map,-0.03366998455863523,-0.03696393025398227,0.0,0.0,0.0,0.0
1737286279.547934,20977,1737286279,448684224,map,-0.01346799382345409,-0.014785572101592908,0.0,0.0,0.0,0.0
1737286279.6459348,20978,1737286279,448686016,map,-0.01346799382345409,-0.014785572101592908,0.0,0.0,0.0,0.0
1737286279.7465956,20979,1737286279,648687552,map,-0.020201990735181134,-0.02217835815238936,0.0,0.0,0.0,0.0
1737286279.849051,20980,1737286279,648689088,map,-0.020201990735181134,-0.02217835815238936,0.0,0.0,0.0,0.0
1737286279.9481647,20981,1737286279,848690624,map,-0.01346799382345409,-0.014785572101592908,0.0,0.0,0.0,0.0
1737286280.0475743,20982,1737286279,848692416,map,-0.01346799382345409,-0.014785572101592908,0.0,0.0,0.0,0.0
1737286280.1537013,20983,1737286280,48694208,map,-0.03366998455863523,-0.03696393025398227,0.0,0.0,0.0,0.0
1737286280.250574,20984,1737286280,48695488,map,-0.03366998455863523,-0.03696393025398227,0.0,0.0,0.0,0.0
1737286280.352891,20985,1737286280,248696768,map,-0.020201990735181134,-0.02217835815238936,0.0,0.0,0.0,0.0
1737286280.4480953,20986,1737286280,248698048,map,-0.020201990735181134,-0.02217835815238936,0.0,0.0,0.0,0.0
1737286280.5538678,20987,1737286280,448699328,map,-0.04040398147036227,-0.04435671630477872,0.0,0.0,0.0,0.0
1737286280.6472101,20988,1737286280,448700608,map,-0.04040398147036227,-0.04435671630477872,0.0,0.0,0.0,0.0
1737286280.7476947,20989,1737286280,648701888,map,-0.02693598764690818,-0.029571144203185816,0.0,0.0,0.0,0.0
1737286280.8491387,20990,1737286280,648703424,map,-0.02693598764690818,-0.029571144203185816,0.0,0.0,0.0,0.0
1737286280.9485064,20991,1737286280,848704704,map,-0.047137978382089316,-0.05174950235557518,0.0,0.0,0.0,0.0
1737286281.0483775,20992,1737286280,848705984,map,-0.047137978382089316,-0.05174950235557518,0.0,0.0,0.0,0.0
1737286281.1468954,20993,1737286281,48701120,map,-0.03366998455863523,-0.03696393025398227,0.0,0.0,0.0,0.0
1737286281.2470884,20994,1737286281,48702912,map,-0.03366998455863523,-0.03696393025398227,0.0,0.0,0.0,0.0
1737286281.3463125,20995,1737286281,248704192,map,-0.01346799382345409,-0.014785572101592908,0.0,0.0,0.0,0.0
1737286281.4463573,20996,1737286281,248705728,map,-0.01346799382345409,-0.014785572101592908,0.0,0.0,0.0,0.0
1737286281.5468442,20997,1737286281,448707264,map,-0.020201990735181134,-0.02217835815238936,0.0,0.0,0.0,0.0
1737286281.6455312,20998,1737286281,448708800,map,-0.020201990735181134,-0.02217835815238936,0.0,0.0,0.0,0.0
1737286281.749627,20999,1737286281,648710336,map,-0.01346799382345409,-0.014785572101592908,0.0,0.0,0.0,0.0
1737286281.8466494,21000,1737286281,648711872,map,-0.01346799382345409,-0.014785572101592908,0.0,0.0,0.0,0.0
1737286281.9463966,21001,1737286281,848713152,map,-0.01346799382345409,-0.014785572101592908,0.0,0.0,0.0,0.0
1737286282.0484173,21002,1737286281,848714688,map,-0.01346799382345409,-0.014785572101592908,0.0,0.0,0.0,0.0
1737286282.1478126,21003,1737286282,48715968,map,-0.01346799382345409,-0.014785572101592908,0.0,0.0,0.0,0.0
1737286282.2486255,21004,1737286282,48717248,map,-0.01346799382345409,-0.014785572101592908,0.0,0.0,0.0,0.0
1737286282.3502724,21005,1737286282,248718272,map,-0.06733996911727046,-0.07392786050796454,0.0,0.0,0.0,0.0
1737286282.4499254,21006,1737286282,248719808,map,-0.06733996911727046,-0.07392786050796454,0.0,0.0,0.0,0.0
1737286282.5515132,21007,1737286282,448721088,map,-0.03366998455863523,-0.03696393025398227,0.0,0.0,0.0,0.0
1737286282.6474278,21008,1737286282,448722624,map,-0.03366998455863523,-0.03696393025398227,0.0,0.0,0.0,0.0
1737286282.7455904,21009,1737286282,648723904,map,-0.04040398147036227,-0.04435671630477872,0.0,0.0,0.0,0.0
1737286282.8458905,21010,1737286282,648725440,map,-0.04040398147036227,-0.04435671630477872,0.0,0.0,0.0,0.0
1737286282.9478242,21011,1737286282,848726464,map,-0.04040398147036227,-0.04435671630477872,0.0,0.0,0.0,0.0
1737286283.0459301,21012,1737286282,848728256,map,-0.04040398147036227,-0.04435671630477872,0.0,0.0,0.0,0.0
1737286283.1476948,21013,1737286283,48730048,map,-0.02693598764690818,-0.029571144203185816,0.0,0.0,0.0,0.0
1737286283.246964,21014,1737286283,48731840,map,-0.02693598764690818,-0.029571144203185816,0.0,0.0,0.0,0.0
1737286283.3477669,21015,1737286283,248733632,map,-0.04040398147036227,-0.04435671630477872,0.0,0.0,0.0,0.0
1737286283.4467835,21016,1737286283,248735424,map,-0.04040398147036227,-0.04435671630477872,0.0,0.0,0.0,0.0
1737286283.5461845,21017,1737286283,448736960,map,-0.03366998455863523,-0.03696393025398227,0.0,0.0,0.0,0.0
1737286283.6465766,21018,1737286283,448737472,map,-0.03366998455863523,-0.03696393025398227,0.0,0.0,0.0,0.0
1737286283.747076,21019,1737286283,648739264,map,-0.06733996911727046,-0.07392786050796454,0.0,0.0,0.0,0.0
1737286283.8462312,21020,1737286283,648739520,map,-0.06733996911727046,-0.07392786050796454,0.0,0.0,0.0,0.0
1737286283.9505482,21021,1737286283,848741056,map,-0.047137978382089316,-0.05174950235557518,0.0,0.0,0.0,0.0
1737286284.050775,21022,1737286283,848741312,map,-0.047137978382089316,-0.05174950235557518,0.0,0.0,0.0,0.0
1737286284.1500993,21023,1737286284,48743104,map,-0.05387197529381636,-0.05914228840637163,0.0,0.0,0.0,0.0
1737286284.2477498,21024,1737286284,48743616,map,-0.05387197529381636,-0.05914228840637163,0.0,0.0,0.0,0.0
1737286284.3483279,21025,1737286284,248745408,map,-0.06733996911727046,-0.07392786050796454,0.0,0.0,0.0,0.0
1737286284.446232,21026,1737286284,248745920,map,-0.06733996911727046,-0.07392786050796454,0.0,0.0,0.0,0.0
1737286284.5471218,21027,1737286284,448747712,map,-0.05387197529381636,-0.05914228840637163,0.0,0.0,0.0,0.0
1737286284.6481118,21028,1737286284,448748224,map,-0.05387197529381636,-0.05914228840637163,0.0,0.0,0.0,0.0
1737286284.7474604,21029,1737286284,648750016,map,-0.02693598764690818,-0.029571144203185816,0.0,0.0,0.0,0.0
1737286284.849078,21030,1737286284,648750528,map,-0.02693598764690818,-0.029571144203185816,0.0,0.0,0.0,0.0
1737286284.9464324,21031,1737286284,848752320,map,-0.03366998455863523,-0.03696393025398227,0.0,0.0,0.0,0.0
1737286285.0492373,21032,1737286284,848753088,map,-0.03366998455863523,-0.03696393025398227,0.0,0.0,0.0,0.0
1737286285.1461034,21033,1737286285,48755392,map,-0.047137978382089316,-0.05174950235557518,0.0,0.0,0.0,0.0
1737286285.24868,21034,1737286285,48756160,map,-0.047137978382089316,-0.05174950235557518,0.0,0.0,0.0,0.0
1737286285.348368,21035,1737286285,248758464,map,-0.10100995367590566,-0.1108917907619468,0.0,0.0,0.0,0.0
1737286285.4487073,21036,1737286285,248759232,map,-0.10100995367590566,-0.1108917907619468,0.0,0.0,0.0,0.0
1737286285.5478463,21037,1737286285,448761280,map,-0.020201990735181134,-0.02217835815238936,0.0,0.0,0.0,0.0
1737286285.646899,21038,1737286285,448762048,map,-0.020201990735181134,-0.02217835815238936,0.0,0.0,0.0,0.0
1737286285.7582805,21039,1737286285,648764096,map,-0.02693598764690818,-0.029571144203185816,0.0,0.0,0.0,0.0
1737286285.848996,21040,1737286285,648764864,map,-0.02693598764690818,-0.029571144203185816,0.0,0.0,0.0,0.0
1737286285.947887,21041,1737286285,848767168,map,-0.02693598764690818,-0.029571144203185816,0.0,0.0,0.0,0.0
1737286286.0456593,21042,1737286285,848767936,map,-0.02693598764690818,-0.029571144203185816,0.0,0.0,0.0,0.0
1737286286.147115,21043,1737286286,48769984,map,-0.02693598764690818,-0.029571144203185816,0.0,0.0,0.0,0.0
1737286286.2482932,21044,1737286286,48771008,map,-0.02693598764690818,-0.029571144203185816,0.0,0.0,0.0,0.0
1737286286.3482215,21045,1737286286,248773312,map,-0.02693598764690818,-0.029571144203185816,0.0,0.0,0.0,0.0
1737286286.4493465,21046,1737286286,248774080,map,-0.02693598764690818,-0.029571144203185816,0.0,0.0,0.0,0.0
1737286286.54906,21047,1737286286,448776384,map,-0.02693598764690818,-0.029571144203185816,0.0,0.0,0.0,0.0
1737286286.647563,21048,1737286286,448777408,map,-0.02693598764690818,-0.029571144203185816,0.0,0.0,0.0,0.0
1737286286.7489204,21049,1737286286,648778176,map,-0.02693598764690818,-0.029571144203185816,0.0,0.0,0.0,0.0
1737286286.848119,21050,1737286286,648779200,map,-0.02693598764690818,-0.029571144203185816,0.0,0.0,0.0,0.0
1737286286.9488418,21051,1737286286,848781248,map,-0.03366998455863523,-0.03696393025398227,0.0,0.0,0.0,0.0
1737286287.04928,21052,1737286286,848782016,map,-0.03366998455863523,-0.03696393025398227,0.0,0.0,0.0,0.0
1737286287.1464593,21053,1737286287,48784320,map,-0.047137978382089316,-0.05174950235557518,0.0,0.0,0.0,0.0
1737286287.248026,21054,1737286287,48785088,map,-0.047137978382089316,-0.05174950235557518,0.0,0.0,0.0,0.0
1737286287.3514981,21055,1737286287,248787392,map,-0.02693598764690818,-0.029571144203185816,0.0,0.0,0.0,0.0
1737286287.447182,21056,1737286287,248788160,map,-0.02693598764690818,-0.029571144203185816,0.0,0.0,0.0,0.0
1737286287.550678,21057,1737286287,448788928,map,-0.047137978382089316,-0.05174950235557518,0.0,0.0,0.0,0.0
1737286287.649118,21058,1737286287,448789696,map,-0.047137978382089316,-0.05174950235557518,0.0,0.0,0.0,0.0
1737286287.7489367,21059,1737286287,648790720,map,-0.02693598764690818,-0.029571144203185816,0.0,0.0,0.0,0.0
1737286287.8475983,21060,1737286287,648791744,map,-0.02693598764690818,-0.029571144203185816,0.0,0.0,0.0,0.0
1737286287.9486706,21061,1737286287,848792000,map,-0.02693598764690818,-0.029571144203185816,0.0,0.0,0.0,0.0
1737286288.0465775,21062,1737286287,848793024,map,-0.02693598764690818,-0.029571144203185816,0.0,0.0,0.0,0.0
1737286288.1491122,21063,1737286288,48794048,map,-0.04040398147036227,-0.04435671630477872,0.0,0.0,0.0,0.0
1737286288.2486243,21064,1737286288,48795328,map,-0.04040398147036227,-0.04435671630477872,0.0,0.0,0.0,0.0
1737286288.348807,21065,1737286288,248796096,map,-0.01346799382345409,-0.014785572101592908,0.0,0.0,0.0,0.0
1737286288.4493413,21066,1737286288,248797120,map,-0.01346799382345409,-0.014785572101592908,0.0,0.0,0.0,0.0
1737286288.548556,21067,1737286288,448797888,map,-0.02693598764690818,-0.029571144203185816,0.0,0.0,0.0,0.0
1737286288.6474788,21068,1737286288,448799168,map,-0.02693598764690818,-0.029571144203185816,0.0,0.0,0.0,0.0
1737286288.7486322,21069,1737286288,648799936,map,-0.02693598764690818,-0.029571144203185816,0.0,0.0,0.0,0.0
1737286288.848604,21070,1737286288,648800960,map,-0.02693598764690818,-0.029571144203185816,0.0,0.0,0.0,0.0
1737286288.9470246,21071,1737286288,848802240,map,-0.04040398147036227,-0.04435671630477872,0.0,0.0,0.0,0.0
1737286289.045673,21072,1737286288,848803520,map,-0.04040398147036227,-0.04435671630477872,0.0,0.0,0.0,0.0
1737286289.1511183,21073,1737286289,48804544,map,-0.02693598764690818,-0.029571144203185816,0.0,0.0,0.0,0.0
1737286289.2507536,21074,1737286289,48805824,map,-0.02693598764690818,-0.029571144203185816,0.0,0.0,0.0,0.0
1737286289.3485227,21075,1737286289,248806848,map,-0.02693598764690818,-0.029571144203185816,0.0,0.0,0.0,0.0
1737286289.4470906,21076,1737286289,248808128,map,-0.02693598764690818,-0.029571144203185816,0.0,0.0,0.0,0.0
1737286289.5481415,21077,1737286289,448809152,map,-0.03366998455863523,-0.03696393025398227,0.0,0.0,0.0,0.0
1737286289.6482735,21078,1737286289,448810432,map,-0.03366998455863523,-0.03696393025398227,0.0,0.0,0.0,0.0
1737286289.7522833,21079,1737286289,648811712,map,-0.01346799382345409,-0.014785572101592908,0.0,0.0,0.0,0.0
1737286289.8492498,21080,1737286289,648812992,map,-0.01346799382345409,-0.014785572101592908,0.0,0.0,0.0,0.0
1737286289.9471958,21081,1737286289,848814528,map,-0.006733996911727045,-0.007392786050796454,0.0,0.0,0.0,0.0
1737286290.046324,21082,1737286289,848815808,map,-0.006733996911727045,-0.007392786050796454,0.0,0.0,0.0,0.0
1737286290.1465936,21083,1737286290,48817088,map,-0.02693598764690818,-0.029571144203185816,0.0,0.0,0.0,0.0
1737286290.2467158,21084,1737286290,48818624,map,-0.02693598764690818,-0.029571144203185816,0.0,0.0,0.0,0.0
1737286290.3471425,21085,1737286290,248820160,map,-0.01346799382345409,-0.014785572101592908,0.0,0.0,0.0,0.0
1737286290.4472091,21086,1737286290,248821696,map,-0.01346799382345409,-0.014785572101592908,0.0,0.0,0.0,0.0
1737286290.5456564,21087,1737286290,448822976,map,-0.006733996911727045,-0.007392786050796454,0.0,0.0,0.0,0.0
1737286290.6468432,21088,1737286290,448823232,map,-0.006733996911727045,-0.007392786050796454,0.0,0.0,0.0,0.0
1737286290.7472029,21089,1737286290,648825024,map,-0.02693598764690818,-0.029571144203185816,0.0,0.0,0.0,0.0
1737286290.8450515,21090,1737286290,648825280,map,-0.02693598764690818,-0.029571144203185816,0.0,0.0,0.0,0.0
1737286290.9454794,21091,1737286290,848826816,map,-0.02693598764690818,-0.029571144203185816,0.0,0.0,0.0,0.0
1737286291.0508254,21092,1737286290,848827072,map,-0.02693598764690818,-0.029571144203185816,0.0,0.0,0.0,0.0
1737286291.1483078,21093,1737286291,48828864,map,-0.01346799382345409,-0.014785572101592908,0.0,0.0,0.0,0.0
1737286291.248569,21094,1737286291,48829120,map,-0.01346799382345409,-0.014785572101592908,0.0,0.0,0.0,0.0
1737286291.347597,21095,1737286291,248830912,map,-0.03366998455863523,-0.03696393025398227,0.0,0.0,0.0,0.0
1737286291.4491093,21096,1737286291,248831168,map,-0.03366998455863523,-0.03696393025398227,0.0,0.0,0.0,0.0
1737286291.5487244,21097,1737286291,448832960,map,-0.04040398147036227,-0.04435671630477872,0.0,0.0,0.0,0.0
1737286291.6492145,21098,1737286291,448833216,map,-0.04040398147036227,-0.04435671630477872,0.0,0.0,0.0,0.0
1737286291.7494204,21099,1737286291,648834752,map,-0.020201990735181134,-0.02217835815238936,0.0,0.0,0.0,0.0
1737286291.8488095,21100,1737286291,648835264,map,-0.020201990735181134,-0.02217835815238936,0.0,0.0,0.0,0.0
1737286291.947899,21101,1737286291,848836800,map,-0.01346799382345409,-0.014785572101592908,0.0,0.0,0.0,0.0
1737286292.0478365,21102,1737286291,848837056,map,-0.01346799382345409,-0.014785572101592908,0.0,0.0,0.0,0.0
1737286292.1507242,21103,1737286292,48838592,map,-0.020201990735181134,-0.02217835815238936,0.0,0.0,0.0,0.0
1737286292.2494779,21104,1737286292,48839104,map,-0.020201990735181134,-0.02217835815238936,0.0,0.0,0.0,0.0
1737286292.351834,21105,1737286292,248840640,map,-0.03366998455863523,-0.03696393025398227,0.0,0.0,0.0,0.0
1737286292.4513338,21106,1737286292,248840896,map,-0.03366998455863523,-0.03696393025398227,0.0,0.0,0.0,0.0
1737286292.5466955,21107,1737286292,448842688,map,-0.03366998455863523,-0.03696393025398227,0.0,0.0,0.0,0.0
1737286292.6478636,21108,1737286292,448843200,map,-0.03366998455863523,-0.03696393025398227,0.0,0.0,0.0,0.0
1737286292.748739,21109,1737286292,648844736,map,-0.03366998455863523,-0.03696393025398227,0.0,0.0,0.0,0.0
1737286292.848318,21110,1737286292,648845504,map,-0.03366998455863523,-0.03696393025398227,0.0,0.0,0.0,0.0
1737286292.949783,21111,1737286292,848846784,map,-0.006733996911727045,-0.007392786050796454,0.0,0.0,0.0,0.0
1737286293.0485783,21112,1737286292,848847296,map,-0.006733996911727045,-0.007392786050796454,0.0,0.0,0.0,0.0
1737286293.1465082,21113,1737286293,48849088,map,-0.01346799382345409,-0.014785572101592908,0.0,0.0,0.0,0.0
1737286293.248714,21114,1737286293,48849856,map,-0.01346799382345409,-0.014785572101592908,0.0,0.0,0.0,0.0
1737286293.348159,21115,1737286293,248851904,map,-0.03366998455863523,-0.03696393025398227,0.0,0.0,0.0,0.0
1737286293.4481199,21116,1737286293,248852928,map,-0.03366998455863523,-0.03696393025398227,0.0,0.0,0.0,0.0
1737286293.548368,21117,1737286293,448854976,map,-0.006733996911727045,-0.007392786050796454,0.0,0.0,0.0,0.0
1737286293.649093,21118,1737286293,448855744,map,-0.006733996911727045,-0.007392786050796454,0.0,0.0,0.0,0.0
1737286293.7466295,21119,1737286293,648857792,map,-0.03366998455863523,-0.03696393025398227,0.0,0.0,0.0,0.0
1737286293.8475766,21120,1737286293,648858560,map,-0.03366998455863523,-0.03696393025398227,0.0,0.0,0.0,0.0
1737286293.9461763,21121,1737286293,848859584,map,-0.020201990735181134,-0.02217835815238936,0.0,0.0,0.0,0.0
1737286294.048499,21122,1737286293,848860608,map,-0.020201990735181134,-0.02217835815238936,0.0,0.0,0.0,0.0
1737286294.1473513,21123,1737286294,48862912,map,-0.01346799382345409,-0.014785572101592908,0.0,0.0,0.0,0.0
1737286294.247387,21124,1737286294,48863936,map,-0.01346799382345409,-0.014785572101592908,0.0,0.0,0.0,0.0
1737286294.3479333,21125,1737286294,248864960,map,-0.006733996911727045,-0.007392786050796454,0.0,0.0,0.0,0.0
1737286294.447265,21126,1737286294,248865472,map,-0.006733996911727045,-0.007392786050796454,0.0,0.0,0.0,0.0
1737286294.5467467,21127,1737286294,448866240,map,-0.02693598764690818,-0.029571144203185816,0.0,0.0,0.0,0.0
1737286294.647333,21128,1737286294,448867008,map,-0.02693598764690818,-0.029571144203185816,0.0,0.0,0.0,0.0
1737286294.7486024,21129,1737286294,648867520,map,-0.02693598764690818,-0.029571144203185816,0.0,0.0,0.0,0.0
1737286294.8480039,21130,1737286294,648868288,map,-0.02693598764690818,-0.029571144203185816,0.0,0.0,0.0,0.0
1737286294.9476619,21131,1737286294,848868800,map,-0.020201990735181134,-0.02217835815238936,0.0,0.0,0.0,0.0
1737286295.0494344,21132,1737286294,848869568,map,-0.020201990735181134,-0.02217835815238936,0.0,0.0,0.0,0.0
1737286295.153234,21133,1737286295,48870080,map,-0.006733996911727045,-0.007392786050796454,0.0,0.0,0.0,0.0
1737286295.2496874,21134,1737286295,48871104,map,-0.006733996911727045,-0.007392786050796454,0.0,0.0,0.0,0.0
1737286295.3480957,21135,1737286295,248871616,map,-0.02693598764690818,-0.029571144203185816,0.0,0.0,0.0,0.0
1737286295.4475951,21136,1737286295,248872640,map,-0.02693598764690818,-0.029571144203185816,0.0,0.0,0.0,0.0
1737286295.5497172,21137,1737286295,448872896,map,-0.0,-0.0,0.0,0.0,0.0,0.0
1737286295.6484432,21138,1737286295,448873664,map,-0.0,-0.0,0.0,0.0,0.0,0.0
1737286295.7471063,21139,1737286295,648874176,map,-0.01346799382345409,-0.014785572101592908,0.0,0.0,0.0,0.0
1737286295.8501382,21140,1737286295,648875200,map,-0.01346799382345409,-0.014785572101592908,0.0,0.0,0.0,0.0
1737286295.9493856,21141,1737286295,848875712,map,-0.01346799382345409,-0.014785572101592908,0.0,0.0,0.0,0.0
1737286296.0476444,21142,1737286295,848876480,map,-0.01346799382345409,-0.014785572101592908,0.0,0.0,0.0,0.0
1737286296.1484942,21143,1737286296,48876992,map,-0.04040398147036227,-0.04435671630477872,0.0,0.0,0.0,0.0
1737286296.2463267,21144,1737286296,48878016,map,-0.04040398147036227,-0.04435671630477872,0.0,0.0,0.0,0.0
1737286296.348378,21145,1737286296,248879040,map,-0.006733996911727045,-0.007392786050796454,0.0,0.0,0.0,0.0
1737286296.4484842,21146,1737286296,248880064,map,-0.006733996911727045,-0.007392786050796454,0.0,0.0,0.0,0.0
1737286296.5480134,21147,1737286296,448880576,map,-0.020201990735181134,-0.02217835815238936,0.0,0.0,0.0,0.0
1737286296.6483645,21148,1737286296,448881856,map,-0.020201990735181134,-0.02217835815238936,0.0,0.0,0.0,0.0
1737286296.748345,21149,1737286296,648882624,map,-0.01346799382345409,-0.014785572101592908,0.0,0.0,0.0,0.0
1737286296.8472557,21150,1737286296,648883392,map,-0.01346799382345409,-0.014785572101592908,0.0,0.0,0.0,0.0
1737286296.950617,21151,1737286296,848883904,map,-0.01346799382345409,-0.014785572101592908,0.0,0.0,0.0,0.0
1737286297.0486312,21152,1737286296,848888768,map,-0.01346799382345409,-0.014785572101592908,0.0,0.0,0.0,0.0
1737286297.1483517,21153,1737286297,48889280,map,-0.006733996911727045,-0.007392786050796454,0.0,0.0,0.0,0.0
1737286297.2501762,21154,1737286297,48890560,map,-0.006733996911727045,-0.007392786050796454,0.0,0.0,0.0,0.0
1737286297.3467996,21155,1737286297,248891328,map,-0.03366998455863523,-0.03696393025398227,0.0,0.0,0.0,0.0
1737286297.4459264,21156,1737286297,248892608,map,-0.03366998455863523,-0.03696393025398227,0.0,0.0,0.0,0.0
1737286297.5484004,21157,1737286297,448893376,map,-0.01346799382345409,-0.014785572101592908,0.0,0.0,0.0,0.0
1737286297.6485264,21158,1737286297,448894400,map,-0.01346799382345409,-0.014785572101592908,0.0,0.0,0.0,0.0
1737286297.7474735,21159,1737286297,648895424,map,-0.02693598764690818,-0.029571144203185816,0.0,0.0,0.0,0.0
1737286297.8470855,21160,1737286297,648896448,map,-0.02693598764690818,-0.029571144203185816,0.0,0.0,0.0,0.0
1737286297.9455972,21161,1737286297,848896960,map,-0.01346799382345409,-0.014785572101592908,0.0,0.0,0.0,0.0
1737286298.048772,21162,1737286297,848896704,map,-0.01346799382345409,-0.014785572101592908,0.0,0.0,0.0,0.0
1737286298.1486542,21163,1737286298,48898240,map,-0.020201990735181134,-0.02217835815238936,0.0,0.0,0.0,0.0
1737286298.248331,21164,1737286298,48897984,map,-0.020201990735181134,-0.02217835815238936,0.0,0.0,0.0,0.0
1737286298.3480225,21165,1737286298,248899008,map,-0.020201990735181134,-0.02217835815238936,0.0,0.0,0.0,0.0
1737286298.4475334,21166,1737286298,248898496,map,-0.020201990735181134,-0.02217835815238936,0.0,0.0,0.0,0.0
1737286298.5468314,21167,1737286298,448899520,map,-0.02693598764690818,-0.029571144203185816,0.0,0.0,0.0,0.0
1737286298.6469724,21168,1737286298,448899520,map,-0.02693598764690818,-0.029571144203185816,0.0,0.0,0.0,0.0
1737286298.745614,21169,1737286298,648900800,map,-0.020201990735181134,-0.02217835815238936,0.0,0.0,0.0,0.0
1737286298.847271,21170,1737286298,648900800,map,-0.020201990735181134,-0.02217835815238936,0.0,0.0,0.0,0.0
1737286298.9464717,21171,1737286298,848902080,map,-0.02693598764690818,-0.029571144203185816,0.0,0.0,0.0,0.0
1737286299.0482492,21172,1737286298,848902080,map,-0.02693598764690818,-0.029571144203185816,0.0,0.0,0.0,0.0
1737286299.1506214,21173,1737286299,48903104,map,-0.0606059722055434,-0.06653507445716808,0.0,0.0,0.0,0.0
1737286299.2475286,21174,1737286299,48903104,map,-0.0606059722055434,-0.06653507445716808,0.0,0.0,0.0,0.0
1737286299.3476653,21175,1737286299,248904640,map,-0.03366998455863523,-0.03696393025398227,0.0,0.0,0.0,0.0
1737286299.4481525,21176,1737286299,248904640,map,-0.03366998455863523,-0.03696393025398227,0.0,0.0,0.0,0.0
1737286299.5490267,21177,1737286299,448905920,map,-0.05387197529381636,-0.05914228840637163,0.0,0.0,0.0,0.0
1737286299.6480775,21178,1737286299,448905920,map,-0.05387197529381636,-0.05914228840637163,0.0,0.0,0.0,0.0
1737286299.747258,21179,1737286299,648906944,map,-0.02693598764690818,-0.029571144203185816,0.0,0.0,0.0,0.0
1737286299.8458288,21180,1737286299,648906944,map,-0.02693598764690818,-0.029571144203185816,0.0,0.0,0.0,0.0
1737286299.947178,21181,1737286299,848908736,map,-0.02693598764690818,-0.029571144203185816,0.0,0.0,0.0,0.0
1737286300.0459626,21182,1737286299,848908736,map,-0.02693598764690818,-0.029571144203185816,0.0,0.0,0.0,0.0
1737286300.1499736,21183,1737286300,48910272,map,-0.047137978382089316,-0.05174950235557518,0.0,0.0,0.0,0.0
1737286300.2489705,21184,1737286300,48910528,map,-0.047137978382089316,-0.05174950235557518,0.0,0.0,0.0,0.0
1737286300.3470309,21185,1737286300,248912320,map,-0.01346799382345409,-0.014785572101592908,0.0,0.0,0.0,0.0
1737286300.4482076,21186,1737286300,248912320,map,-0.01346799382345409,-0.014785572101592908,0.0,0.0,0.0,0.0
1737286300.5474179,21187,1737286300,448913856,map,-0.02693598764690818,-0.029571144203185816,0.0,0.0,0.0,0.0
1737286300.6522868,21188,1737286300,448913856,map,-0.02693598764690818,-0.029571144203185816,0.0,0.0,0.0,0.0
1737286300.7503242,21189,1737286300,648915648,map,-0.047137978382089316,-0.05174950235557518,0.0,0.0,0.0,0.0
1737286300.8488135,21190,1737286300,648915904,map,-0.047137978382089316,-0.05174950235557518,0.0,0.0,0.0,0.0
1737286300.9499495,21191,1737286300,848917696,map,-0.01346799382345409,-0.014785572101592908,0.0,0.0,0.0,0.0
1737286301.0461478,21192,1737286300,848917952,map,-0.01346799382345409,-0.014785572101592908,0.0,0.0,0.0,0.0
1737286301.1480262,21193,1737286301,48918208,map,-0.006733996911727045,-0.007392786050796454,0.0,0.0,0.0,0.0
1737286301.2489989,21194,1737286301,48918464,map,-0.006733996911727045,-0.007392786050796454,0.0,0.0,0.0,0.0
1737286301.346552,21195,1737286301,248918720,map,-0.02693598764690818,-0.029571144203185816,0.0,0.0,0.0,0.0
1737286301.4493902,21196,1737286301,248919232,map,-0.02693598764690818,-0.029571144203185816,0.0,0.0,0.0,0.0
1737286301.5490694,21197,1737286301,448920512,map,-0.03366998455863523,-0.03696393025398227,0.0,0.0,0.0,0.0
1737286301.6492133,21198,1737286301,448920768,map,-0.03366998455863523,-0.03696393025398227,0.0,0.0,0.0,0.0
1737286301.7491891,21199,1737286301,648921024,map,-0.0,-0.0,0.0,0.0,0.0,0.0
1737286301.8457363,21200,1737286301,648921280,map,-0.0,-0.0,0.0,0.0,0.0,0.0
1737286301.9462523,21201,1737286301,848922048,map,-0.02693598764690818,-0.029571144203185816,0.0,0.0,0.0,0.0
1737286302.0459244,21202,1737286301,848922560,map,-0.02693598764690818,-0.029571144203185816,0.0,0.0,0.0,0.0
1737286302.148158,21203,1737286302,48923328,map,-0.01346799382345409,-0.014785572101592908,0.0,0.0,0.0,0.0
1737286302.2471755,21204,1737286302,48923840,map,-0.01346799382345409,-0.014785572101592908,0.0,0.0,0.0,0.0
1737286302.3465707,21205,1737286302,248924352,map,-0.006733996911727045,-0.007392786050796454,0.0,0.0,0.0,0.0
1737286302.4468737,21206,1737286302,248924864,map,-0.006733996911727045,-0.007392786050796454,0.0,0.0,0.0,0.0
1737286302.549688,21207,1737286302,448925376,map,-0.01346799382345409,-0.014785572101592908,0.0,0.0,0.0,0.0
1737286302.6486742,21208,1737286302,448926400,map,-0.01346799382345409,-0.014785572101592908,0.0,0.0,0.0,0.0
1737286302.747902,21209,1737286302,648926912,map,-0.006733996911727045,-0.007392786050796454,0.0,0.0,0.0,0.0
1737286302.84942,21210,1737286302,648927424,map,-0.006733996911727045,-0.007392786050796454,0.0,0.0,0.0,0.0
1737286302.9474196,21211,1737286302,848927424,map,-0.01346799382345409,-0.014785572101592908,0.0,0.0,0.0,0.0
1737286303.048534,21212,1737286302,848928448,map,-0.01346799382345409,-0.014785572101592908,0.0,0.0,0.0,0.0
1737286303.1481729,21213,1737286303,48928704,map,-0.020201990735181134,-0.02217835815238936,0.0,0.0,0.0,0.0
1737286303.2488735,21214,1737286303,48929728,map,-0.020201990735181134,-0.02217835815238936,0.0,0.0,0.0,0.0
1737286303.3477826,21215,1737286303,248930496,map,-0.006733996911727045,-0.007392786050796454,0.0,0.0,0.0,0.0
1737286303.4481447,21216,1737286303,248931264,map,-0.006733996911727045,-0.007392786050796454,0.0,0.0,0.0,0.0
1737286303.5479095,21217,1737286303,448932032,map,-0.0,-0.0,0.0,0.0,0.0,0.0
1737286303.6529002,21218,1737286303,448932800,map,-0.0,-0.0,0.0,0.0,0.0,0.0
1737286303.7529197,21219,1737286303,648933568,map,-0.006733996911727045,-0.007392786050796454,0.0,0.0,0.0,0.0
1737286303.8449519,21220,1737286303,648934336,map,-0.006733996911727045,-0.007392786050796454,0.0,0.0,0.0,0.0
1737286303.9467964,21221,1737286303,848935360,map,-0.02693598764690818,-0.029571144203185816,0.0,0.0,0.0,0.0
1737286304.046167,21222,1737286303,848936640,map,-0.02693598764690818,-0.029571144203185816,0.0,0.0,0.0,0.0
1737286304.1495566,21223,1737286304,48937664,map,-0.020201990735181134,-0.02217835815238936,0.0,0.0,0.0,0.0
1737286304.24854,21224,1737286304,48938432,map,-0.020201990735181134,-0.02217835815238936,0.0,0.0,0.0,0.0
1737286304.3479478,21225,1737286304,248939200,map,-0.02693598764690818,-0.029571144203185816,0.0,0.0,0.0,0.0
1737286304.4478614,21226,1737286304,248940224,map,-0.02693598764690818,-0.029571144203185816,0.0,0.0,0.0,0.0
1737286304.5475118,21227,1737286304,448941248,map,-0.020201990735181134,-0.02217835815238936,0.0,0.0,0.0,0.0
1737286304.6464765,21228,1737286304,448942528,map,-0.020201990735181134,-0.02217835815238936,0.0,0.0,0.0,0.0
1737286304.7475085,21229,1737286304,648943552,map,-0.006733996911727045,-0.007392786050796454,0.0,0.0,0.0,0.0
1737286304.8466818,21230,1737286304,648945088,map,-0.006733996911727045,-0.007392786050796454,0.0,0.0,0.0,0.0
1737286304.94834,21231,1737286304,848945856,map,-0.03366998455863523,-0.03696393025398227,0.0,0.0,0.0,0.0
1737286305.0484252,21232,1737286304,848947136,map,-0.03366998455863523,-0.03696393025398227,0.0,0.0,0.0,0.0
1737286305.1472178,21233,1737286305,48945600,map,-0.03366998455863523,-0.03696393025398227,0.0,0.0,0.0,0.0
1737286305.2486167,21234,1737286305,48944832,map,-0.03366998455863523,-0.03696393025398227,0.0,0.0,0.0,0.0
1737286305.3473763,21235,1737286305,248943552,map,-0.02693598764690818,-0.029571144203185816,0.0,0.0,0.0,0.0
1737286305.4494438,21236,1737286305,248942784,map,-0.02693598764690818,-0.029571144203185816,0.0,0.0,0.0,0.0
1737286305.545785,21237,1737286305,448942272,map,-0.02693598764690818,-0.029571144203185816,0.0,0.0,0.0,0.0
1737286305.649763,21238,1737286305,448941760,map,-0.02693598764690818,-0.029571144203185816,0.0,0.0,0.0,0.0
1737286305.7466254,21239,1737286305,648941248,map,-0.020201990735181134,-0.02217835815238936,0.0,0.0,0.0,0.0
1737286305.8471594,21240,1737286305,648940992,map,-0.020201990735181134,-0.02217835815238936,0.0,0.0,0.0,0.0
1737286305.9460127,21241,1737286305,848939968,map,-0.006733996911727045,-0.007392786050796454,0.0,0.0,0.0,0.0
1737286306.0478847,21242,1737286305,848939712,map,-0.006733996911727045,-0.007392786050796454,0.0,0.0,0.0,0.0
1737286306.1470861,21243,1737286306,48939200,map,-0.020201990735181134,-0.02217835815238936,0.0,0.0,0.0,0.0
1737286306.2481184,21244,1737286306,48938944,map,-0.020201990735181134,-0.02217835815238936,0.0,0.0,0.0,0.0
1737286306.3475854,21245,1737286306,248938432,map,-0.0,-0.0,0.0,0.0,0.0,0.0
1737286306.4481425,21246,1737286306,248938432,map,-0.0,-0.0,0.0,0.0,0.0,0.0
1737286306.546468,21247,1737286306,448937920,map,-0.006733996911727045,-0.007392786050796454,0.0,0.0,0.0,0.0
1737286306.6482725,21248,1737286306,448937664,map,-0.006733996911727045,-0.007392786050796454,0.0,0.0,0.0,0.0
1737286306.7523522,21249,1737286306,648937152,map,-0.020201990735181134,-0.02217835815238936,0.0,0.0,0.0,0.0
1737286306.8454013,21250,1737286306,648936896,map,-0.020201990735181134,-0.02217835815238936,0.0,0.0,0.0,0.0
1737286306.9461975,21251,1737286306,848936384,map,-0.01346799382345409,-0.014785572101592908,0.0,0.0,0.0,0.0
1737286307.0455284,21252,1737286306,848936384,map,-0.01346799382345409,-0.014785572101592908,0.0,0.0,0.0,0.0
1737286307.1462402,21253,1737286307,48935616,map,-0.006733996911727045,-0.007392786050796454,0.0,0.0,0.0,0.0
1737286307.2479856,21254,1737286307,48935616,map,-0.006733996911727045,-0.007392786050796454,0.0,0.0,0.0,0.0
1737286307.3461607,21255,1737286307,248935360,map,-0.006733996911727045,-0.007392786050796454,0.0,0.0,0.0,0.0
1737286307.4480898,21256,1737286307,248935616,map,-0.006733996911727045,-0.007392786050796454,0.0,0.0,0.0,0.0
1737286307.54736,21257,1737286307,448935360,map,-0.01346799382345409,-0.014785572101592908,0.0,0.0,0.0,0.0
1737286307.6482055,21258,1737286307,448935360,map,-0.01346799382345409,-0.014785572101592908,0.0,0.0,0.0,0.0
1737286307.7479656,21259,1737286307,648935360,map,-0.01346799382345409,-0.014785572101592908,0.0,0.0,0.0,0.0
1737286307.8462536,21260,1737286307,648935360,map,-0.01346799382345409,-0.014785572101592908,0.0,0.0,0.0,0.0
1737286307.9489474,21261,1737286307,848934848,map,-0.020201990735181134,-0.02217835815238936,0.0,0.0,0.0,0.0
1737286308.0480607,21262,1737286307,848934848,map,-0.020201990735181134,-0.02217835815238936,0.0,0.0,0.0,0.0
1737286308.1497445,21263,1737286308,48934848,map,-0.01346799382345409,-0.014785572101592908,0.0,0.0,0.0,0.0
1737286308.2494888,21264,1737286308,48935360,map,-0.01346799382345409,-0.014785572101592908,0.0,0.0,0.0,0.0
1737286308.3495948,21265,1737286308,248935360,map,-0.04040398147036227,-0.04435671630477872,0.0,0.0,0.0,0.0
1737286308.4475994,21266,1737286308,248936128,map,-0.04040398147036227,-0.04435671630477872,0.0,0.0,0.0,0.0
1737286308.5466654,21267,1737286308,448935616,map,-0.03366998455863523,-0.03696393025398227,0.0,0.0,0.0,0.0
1737286308.6467266,21268,1737286308,448935872,map,-0.03366998455863523,-0.03696393025398227,0.0,0.0,0.0,0.0
1737286308.746151,21269,1737286308,648935872,map,-0.0,-0.0,0.0,0.0,0.0,0.0
1737286308.8459957,21270,1737286308,648936128,map,-0.0,-0.0,0.0,0.0,0.0,0.0
1737286308.9461627,21271,1737286308,848936384,map,-0.01346799382345409,-0.014785572101592908,0.0,0.0,0.0,0.0
1737286309.0484004,21272,1737286308,848936640,map,-0.01346799382345409,-0.014785572101592908,0.0,0.0,0.0,0.0
1737286309.1460195,21273,1737286309,48936896,map,-0.02693598764690818,-0.029571144203185816,0.0,0.0,0.0,0.0
1737286309.2458203,21274,1737286309,48937408,map,-0.02693598764690818,-0.029571144203185816,0.0,0.0,0.0,0.0
1737286309.3456395,21275,1737286309,248937408,map,-0.006733996911727045,-0.007392786050796454,0.0,0.0,0.0,0.0
1737286309.4472659,21276,1737286309,248937920,map,-0.006733996911727045,-0.007392786050796454,0.0,0.0,0.0,0.0
1737286309.5451374,21277,1737286309,448937664,map,-0.02693598764690818,-0.029571144203185816,0.0,0.0,0.0,0.0
1737286309.6460588,21278,1737286309,448937920,map,-0.02693598764690818,-0.029571144203185816,0.0,0.0,0.0,0.0
1737286309.7451305,21279,1737286309,648937664,map,-0.01346799382345409,-0.014785572101592908,0.0,0.0,0.0,0.0
1737286309.8479233,21280,1737286309,648938176,map,-0.01346799382345409,-0.014785572101592908,0.0,0.0,0.0,0.0
1737286309.947497,21281,1737286309,848937920,map,-0.01346799382345409,-0.014785572101592908,0.0,0.0,0.0,0.0
1737286310.0476913,21282,1737286309,848938688,map,-0.01346799382345409,-0.014785572101592908,0.0,0.0,0.0,0.0
1737286310.1461868,21283,1737286310,48938432,map,-0.020201990735181134,-0.02217835815238936,0.0,0.0,0.0,0.0
1737286310.2470784,21284,1737286310,48938944,map,-0.020201990735181134,-0.02217835815238936,0.0,0.0,0.0,0.0
