Time,header.seq,header.stamp.secs,header.stamp.nsecs,header.frame_id,child_frame_id,pose.pose.position.x,pose.pose.position.y,pose.pose.position.z,pose.pose.orientation.x,pose.pose.orientation.y,pose.pose.orientation.z,pose.pose.orientation.w,pose.covariance,twist.twist.linear.x,twist.twist.linear.y,twist.twist.linear.z,twist.twist.angular.x,twist.twist.angular.y,twist.twist.angular.z,twist.covariance
1737286264.2995503,20725,1737286254,341182976,map,base_link,2.2824705055256387,3.948928083333791,1.972,-0.012876224284031002,-0.00848295787998375,-0.7411198588098401,0.6711956474467609,"(0.45158400000000004, 0.0, 0.0, 0.0, 0.0, 0.0, 0.0, 0.45158400000000004, 0.0, 0.0, 0.0, 0.0, 0.0, 0.0, 1.0221209999999998, 0.0, 0.0, 0.0, 0.0, 0.0, 0.0, 99999.0, 0.0, 0.0, 0.0, 0.0, 0.0, 0.0, 99999.0, 0.0, 0.0, 0.0, 0.0, 0.0, 0.0, 99999.0)",0.03,0.0,-0.06,0.0,0.0,0.0,"(-1.0, 0.0, 0.0, 0.0, 0.0, 0.0, 0.0, 0.0, 0.0, 0.0, 0.0, 0.0, 0.0, 0.0, 0.0, 0.0, 0.0, 0.0, 0.0, 0.0, 0.0, 0.0, 0.0, 0.0, 0.0, 0.0, 0.0, 0.0, 0.0, 0.0, 0.0, 0.0, 0.0, 0.0, 0.0, 0.0)"
1737286264.2996736,20726,1737286254,441184768,map,base_link,2.2917488376343735,3.960020579392601,1.97,-0.012476708827029828,-0.004729765313508291,-0.7411826604700374,0.6711707866672103,"(0.45158400000000004, 0.0, 0.0, 0.0, 0.0, 0.0, 0.0, 0.45158400000000004, 0.0, 0.0, 0.0, 0.0, 0.0, 0.0, 1.024144, 0.0, 0.0, 0.0, 0.0, 0.0, 0.0, 99999.0, 0.0, 0.0, 0.0, 0.0, 0.0, 0.0, 99999.0, 0.0, 0.0, 0.0, 0.0, 0.0, 0.0, 99999.0)",0.02,0.0,-0.08,0.0,0.0,0.0,"(-1.0, 0.0, 0.0, 0.0, 0.0, 0.0, 0.0, 0.0, 0.0, 0.0, 0.0, 0.0, 0.0, 0.0, 0.0, 0.0, 0.0, 0.0, 0.0, 0.0, 0.0, 0.0, 0.0, 0.0, 0.0, 0.0, 0.0, 0.0, 0.0, 0.0, 0.0, 0.0, 0.0, 0.0, 0.0, 0.0)"
1737286264.3002048,20727,1737286254,541187840,map,base_link,2.2917488340469094,3.9600205729136904,1.968,-0.013902257764241302,0.0003406631794855645,-0.741618195424628,0.6706780624060793,"(0.45158400000000004, 0.0, 0.0, 0.0, 0.0, 0.0, 0.0, 0.45158400000000004, 0.0, 0.0, 0.0, 0.0, 0.0, 0.0, 1.024144, 0.0, 0.0, 0.0, 0.0, 0.0, 0.0, 99999.0, 0.0, 0.0, 0.0, 0.0, 0.0, 0.0, 99999.0, 0.0, 0.0, 0.0, 0.0, 0.0, 0.0, 99999.0)",0.0,0.02,-0.08,0.0,0.0,0.0,"(-1.0, 0.0, 0.0, 0.0, 0.0, 0.0, 0.0, 0.0, 0.0, 0.0, 0.0, 0.0, 0.0, 0.0, 0.0, 0.0, 0.0, 0.0, 0.0, 0.0, 0.0, 0.0, 0.0, 0.0, 0.0, 0.0, 0.0, 0.0, 0.0, 0.0, 0.0, 0.0, 0.0, 0.0, 0.0, 0.0)"
1737286264.304277,20728,1737286254,641189888,map,base_link,2.2917488340469094,3.9600205729136904,1.967,-0.013187869881110108,-0.001954054646301407,-0.7420171396179309,0.6702483317932706,"(0.4529290000000001, 0.0, 0.0, 0.0, 0.0, 0.0, 0.0, 0.4529290000000001, 0.0, 0.0, 0.0, 0.0, 0.0, 0.0, 1.024144, 0.0, 0.0, 0.0, 0.0, 0.0, 0.0, 99999.0, 0.0, 0.0, 0.0, 0.0, 0.0, 0.0, 99999.0, 0.0, 0.0, 0.0, 0.0, 0.0, 0.0, 99999.0)",-0.02,0.04,-0.08,0.0,0.0,0.0,"(-1.0, 0.0, 0.0, 0.0, 0.0, 0.0, 0.0, 0.0, 0.0, 0.0, 0.0, 0.0, 0.0, 0.0, 0.0, 0.0, 0.0, 0.0, 0.0, 0.0, 0.0, 0.0, 0.0, 0.0, 0.0, 0.0, 0.0, 0.0, 0.0, 0.0, 0.0, 0.0, 0.0, 0.0, 0.0, 0.0)"
1737286264.3044765,20729,1737286254,741191680,map,base_link,2.2917488340469094,3.9600205729136904,1.967,-0.015253748617480438,-0.007866181046442355,-0.7421938025931011,0.6699655257856574,"(0.4529290000000001, 0.0, 0.0, 0.0, 0.0, 0.0, 0.0, 0.4529290000000001, 0.0, 0.0, 0.0, 0.0, 0.0, 0.0, 1.024144, 0.0, 0.0, 0.0, 0.0, 0.0, 0.0, 99999.0, 0.0, 0.0, 0.0, 0.0, 0.0, 0.0, 99999.0, 0.0, 0.0, 0.0, 0.0, 0.0, 0.0, 99999.0)",-0.02,0.05,-0.07,0.0,0.0,0.0,"(-1.0, 0.0, 0.0, 0.0, 0.0, 0.0, 0.0, 0.0, 0.0, 0.0, 0.0, 0.0, 0.0, 0.0, 0.0, 0.0, 0.0, 0.0, 0.0, 0.0, 0.0, 0.0, 0.0, 0.0, 0.0, 0.0, 0.0, 0.0, 0.0, 0.0, 0.0, 0.0, 0.0, 0.0, 0.0, 0.0)"
1737286264.3046186,20730,1737286254,841193728,map,base_link,2.291748831488078,3.9711130677405686,1.968,-0.017955313559656967,-0.0108906284981801,-0.7405440008923797,0.671679673407046,"(0.4529290000000001, 0.0, 0.0, 0.0, 0.0, 0.0, 0.0, 0.4529290000000001, 0.0, 0.0, 0.0, 0.0, 0.0, 0.0, 1.024144, 0.0, 0.0, 0.0, 0.0, 0.0, 0.0, 99999.0, 0.0, 0.0, 0.0, 0.0, 0.0, 0.0, 99999.0, 0.0, 0.0, 0.0, 0.0, 0.0, 0.0, 99999.0)",0.0,0.05,-0.1,0.0,0.0,0.0,"(-1.0, 0.0, 0.0, 0.0, 0.0, 0.0, 0.0, 0.0, 0.0, 0.0, 0.0, 0.0, 0.0, 0.0, 0.0, 0.0, 0.0, 0.0, 0.0, 0.0, 0.0, 0.0, 0.0, 0.0, 0.0, 0.0, 0.0, 0.0, 0.0, 0.0, 0.0, 0.0, 0.0, 0.0, 0.0, 0.0)"
1737286264.305367,20731,1737286254,941197056,map,base_link,2.291748828756382,3.982205561223285,1.967,-0.0227429894000729,-0.009293502701239888,-0.7392333551999426,0.6730010652298594,"(0.4529290000000001, 0.0, 0.0, 0.0, 0.0, 0.0, 0.0, 0.4529290000000001, 0.0, 0.0, 0.0, 0.0, 0.0, 0.0, 1.024144, 0.0, 0.0, 0.0, 0.0, 0.0, 0.0, 99999.0, 0.0, 0.0, 0.0, 0.0, 0.0, 0.0, 99999.0, 0.0, 0.0, 0.0, 0.0, 0.0, 0.0, 99999.0)",-0.02,0.08,-0.08,0.0,0.0,0.0,"(-1.0, 0.0, 0.0, 0.0, 0.0, 0.0, 0.0, 0.0, 0.0, 0.0, 0.0, 0.0, 0.0, 0.0, 0.0, 0.0, 0.0, 0.0, 0.0, 0.0, 0.0, 0.0, 0.0, 0.0, 0.0, 0.0, 0.0, 0.0, 0.0, 0.0, 0.0, 0.0, 0.0, 0.0, 0.0, 0.0)"
1737286264.3056798,20732,1737286255,41198848,map,base_link,2.291748826346896,3.9932980552323993,1.968,-0.02305472416366313,-0.006362429632126368,-0.7374914947511164,0.6749328072872719,"(0.45427600000000007, 0.0, 0.0, 0.0, 0.0, 0.0, 0.0, 0.45427600000000007, 0.0, 0.0, 0.0, 0.0, 0.0, 0.0, 1.0221209999999998, 0.0, 0.0, 0.0, 0.0, 0.0, 0.0, 99999.0, 0.0, 0.0, 0.0, 0.0, 0.0, 0.0, 99999.0, 0.0, 0.0, 0.0, 0.0, 0.0, 0.0, 99999.0)",-0.05,0.12,-0.07,0.0,0.0,0.0,"(-1.0, 0.0, 0.0, 0.0, 0.0, 0.0, 0.0, 0.0, 0.0, 0.0, 0.0, 0.0, 0.0, 0.0, 0.0, 0.0, 0.0, 0.0, 0.0, 0.0, 0.0, 0.0, 0.0, 0.0, 0.0, 0.0, 0.0, 0.0, 0.0, 0.0, 0.0, 0.0, 0.0, 0.0, 0.0, 0.0)"
1737286264.3059716,20733,1737286255,141197312,map,base_link,2.2824704888978515,4.004390546463465,1.969,-0.024713909674025536,-0.00882482788911488,-0.7362052438102986,0.6762493505117552,"(0.45427600000000007, 0.0, 0.0, 0.0, 0.0, 0.0, 0.0, 0.45427600000000007, 0.0, 0.0, 0.0, 0.0, 0.0, 0.0, 1.0221209999999998, 0.0, 0.0, 0.0, 0.0, 0.0, 0.0, 99999.0, 0.0, 0.0, 0.0, 0.0, 0.0, 0.0, 99999.0, 0.0, 0.0, 0.0, 0.0, 0.0, 0.0, 99999.0)",-0.03,0.15,-0.07,0.0,0.0,0.0,"(-1.0, 0.0, 0.0, 0.0, 0.0, 0.0, 0.0, 0.0, 0.0, 0.0, 0.0, 0.0, 0.0, 0.0, 0.0, 0.0, 0.0, 0.0, 0.0, 0.0, 0.0, 0.0, 0.0, 0.0, 0.0, 0.0, 0.0, 0.0, 0.0, 0.0, 0.0, 0.0, 0.0, 0.0, 0.0, 0.0)"
1737286264.3063025,20734,1737286255,241199360,map,base_link,2.2824704872445705,4.026575539945535,1.97,-0.02894405083885885,-0.014528483742815785,-0.7367455836144579,0.6753940406205582,"(0.45427600000000007, 0.0, 0.0, 0.0, 0.0, 0.0, 0.0, 0.45427600000000007, 0.0, 0.0, 0.0, 0.0, 0.0, 0.0, 1.0221209999999998, 0.0, 0.0, 0.0, 0.0, 0.0, 0.0, 99999.0, 0.0, 0.0, 0.0, 0.0, 0.0, 0.0, 99999.0, 0.0, 0.0, 0.0, 0.0, 0.0, 0.0, 99999.0)",-0.03,0.17,-0.08,0.0,0.0,0.0,"(-1.0, 0.0, 0.0, 0.0, 0.0, 0.0, 0.0, 0.0, 0.0, 0.0, 0.0, 0.0, 0.0, 0.0, 0.0, 0.0, 0.0, 0.0, 0.0, 0.0, 0.0, 0.0, 0.0, 0.0, 0.0, 0.0, 0.0, 0.0, 0.0, 0.0, 0.0, 0.0, 0.0, 0.0, 0.0, 0.0)"
1737286264.30689,20735,1737286255,341202432,map,base_link,2.2731921473362586,4.048760526104457,1.973,-0.030205124556985527,-0.014088587316059272,-0.7469888800517649,0.6640005837625029,"(0.45427600000000007, 0.0, 0.0, 0.0, 0.0, 0.0, 0.0, 0.45427600000000007, 0.0, 0.0, 0.0, 0.0, 0.0, 0.0, 1.0221209999999998, 0.0, 0.0, 0.0, 0.0, 0.0, 0.0, 99999.0, 0.0, 0.0, 0.0, 0.0, 0.0, 0.0, 99999.0, 0.0, 0.0, 0.0, 0.0, 0.0, 0.0, 99999.0)",-0.04,0.23,-0.07,0.0,0.0,0.0,"(-1.0, 0.0, 0.0, 0.0, 0.0, 0.0, 0.0, 0.0, 0.0, 0.0, 0.0, 0.0, 0.0, 0.0, 0.0, 0.0, 0.0, 0.0, 0.0, 0.0, 0.0, 0.0, 0.0, 0.0, 0.0, 0.0, 0.0, 0.0, 0.0, 0.0, 0.0, 0.0, 0.0, 0.0, 0.0, 0.0)"
1737286264.3071668,20736,1737286255,441204480,map,base_link,2.273192139264253,4.08203800881551,1.977,-0.03096595098242227,-0.010901962335233897,-0.7676667113613891,0.6400078728926585,"(0.45427600000000007, 0.0, 0.0, 0.0, 0.0, 0.0, 0.0, 0.45427600000000007, 0.0, 0.0, 0.0, 0.0, 0.0, 0.0, 1.0221209999999998, 0.0, 0.0, 0.0, 0.0, 0.0, 0.0, 99999.0, 0.0, 0.0, 0.0, 0.0, 0.0, 0.0, 99999.0, 0.0, 0.0, 0.0, 0.0, 0.0, 0.0, 99999.0)",-0.01,0.28,-0.05,0.0,0.0,0.0,"(-1.0, 0.0, 0.0, 0.0, 0.0, 0.0, 0.0, 0.0, 0.0, 0.0, 0.0, 0.0, 0.0, 0.0, 0.0, 0.0, 0.0, 0.0, 0.0, 0.0, 0.0, 0.0, 0.0, 0.0, 0.0, 0.0, 0.0, 0.0, 0.0, 0.0, 0.0, 0.0, 0.0, 0.0, 0.0, 0.0)"
1737286264.3075554,20737,1737286255,541206272,map,base_link,2.273192134929057,4.115315496024634,1.982,-0.03145228032410186,-0.008943509466414262,-0.7970544689039829,0.6030215098162155,"(0.45427600000000007, 0.0, 0.0, 0.0, 0.0, 0.0, 0.0, 0.45427600000000007, 0.0, 0.0, 0.0, 0.0, 0.0, 0.0, 1.0221209999999998, 0.0, 0.0, 0.0, 0.0, 0.0, 0.0, 99999.0, 0.0, 0.0, 0.0, 0.0, 0.0, 0.0, 99999.0, 0.0, 0.0, 0.0, 0.0, 0.0, 0.0, 99999.0)",-0.02,0.31,-0.08,0.0,0.0,0.0,"(-1.0, 0.0, 0.0, 0.0, 0.0, 0.0, 0.0, 0.0, 0.0, 0.0, 0.0, 0.0, 0.0, 0.0, 0.0, 0.0, 0.0, 0.0, 0.0, 0.0, 0.0, 0.0, 0.0, 0.0, 0.0, 0.0, 0.0, 0.0, 0.0, 0.0, 0.0, 0.0, 0.0, 0.0, 0.0, 0.0)"
1737286264.3078144,20738,1737286255,641208576,map,base_link,2.2731921270796986,4.148592978773414,1.988,-0.030499356516483205,-0.01033206608840501,-0.8307622383121305,0.5556951871818254,"(0.45427600000000007, 0.0, 0.0, 0.0, 0.0, 0.0, 0.0, 0.45427600000000007, 0.0, 0.0, 0.0, 0.0, 0.0, 0.0, 1.0201, 0.0, 0.0, 0.0, 0.0, 0.0, 0.0, 99999.0, 0.0, 0.0, 0.0, 0.0, 0.0, 0.0, 99999.0, 0.0, 0.0, 0.0, 0.0, 0.0, 0.0, 99999.0)",-0.02,0.36,-0.07,0.0,0.0,0.0,"(-1.0, 0.0, 0.0, 0.0, 0.0, 0.0, 0.0, 0.0, 0.0, 0.0, 0.0, 0.0, 0.0, 0.0, 0.0, 0.0, 0.0, 0.0, 0.0, 0.0, 0.0, 0.0, 0.0, 0.0, 0.0, 0.0, 0.0, 0.0, 0.0, 0.0, 0.0, 0.0, 0.0, 0.0, 0.0, 0.0)"
1737286264.3079636,20739,1737286255,741210624,map,base_link,2.2731921226947214,4.181870466125895,1.991,-0.029581104801219366,-0.014458995143662693,-0.8651358088300531,0.5004557202971552,"(0.45427600000000007, 0.0, 0.0, 0.0, 0.0, 0.0, 0.0, 0.45427600000000007, 0.0, 0.0, 0.0, 0.0, 0.0, 0.0, 1.0201, 0.0, 0.0, 0.0, 0.0, 0.0, 0.0, 99999.0, 0.0, 0.0, 0.0, 0.0, 0.0, 0.0, 99999.0, 0.0, 0.0, 0.0, 0.0, 0.0, 0.0, 99999.0)",0.0,0.4,-0.05,0.0,0.0,0.0,"(-1.0, 0.0, 0.0, 0.0, 0.0, 0.0, 0.0, 0.0, 0.0, 0.0, 0.0, 0.0, 0.0, 0.0, 0.0, 0.0, 0.0, 0.0, 0.0, 0.0, 0.0, 0.0, 0.0, 0.0, 0.0, 0.0, 0.0, 0.0, 0.0, 0.0, 0.0, 0.0, 0.0, 0.0, 0.0, 0.0)"
1737286264.308552,20740,1737286255,841212672,map,base_link,2.2731921121136662,4.2262404419697,1.992,-0.02937387755615594,-0.012155254984861426,-0.8976022870823449,0.439658457576006,"(0.45427600000000007, 0.0, 0.0, 0.0, 0.0, 0.0, 0.0, 0.45427600000000007, 0.0, 0.0, 0.0, 0.0, 0.0, 0.0, 1.0201, 0.0, 0.0, 0.0, 0.0, 0.0, 0.0, 99999.0, 0.0, 0.0, 0.0, 0.0, 0.0, 0.0, 99999.0, 0.0, 0.0, 0.0, 0.0, 0.0, 0.0, 99999.0)",0.01,0.46,-0.01,0.0,0.0,0.0,"(-1.0, 0.0, 0.0, 0.0, 0.0, 0.0, 0.0, 0.0, 0.0, 0.0, 0.0, 0.0, 0.0, 0.0, 0.0, 0.0, 0.0, 0.0, 0.0, 0.0, 0.0, 0.0, 0.0, 0.0, 0.0, 0.0, 0.0, 0.0, 0.0, 0.0, 0.0, 0.0, 0.0, 0.0, 0.0, 0.0)"
1737286264.3104112,20741,1737286255,941216000,map,base_link,2.2731921017552583,4.270610417851231,1.991,-0.024362868354135953,-0.016068574839779633,-0.9270624780355867,0.373769197990812,"(0.45427600000000007, 0.0, 0.0, 0.0, 0.0, 0.0, 0.0, 0.45427600000000007, 0.0, 0.0, 0.0, 0.0, 0.0, 0.0, 1.0201, 0.0, 0.0, 0.0, 0.0, 0.0, 0.0, 99999.0, 0.0, 0.0, 0.0, 0.0, 0.0, 0.0, 99999.0, 0.0, 0.0, 0.0, 0.0, 0.0, 0.0, 99999.0)",0.02,0.51,-0.03,0.0,0.0,0.0,"(-1.0, 0.0, 0.0, 0.0, 0.0, 0.0, 0.0, 0.0, 0.0, 0.0, 0.0, 0.0, 0.0, 0.0, 0.0, 0.0, 0.0, 0.0, 0.0, 0.0, 0.0, 0.0, 0.0, 0.0, 0.0, 0.0, 0.0, 0.0, 0.0, 0.0, 0.0, 0.0, 0.0, 0.0, 0.0, 0.0)"
1737286264.3105624,20742,1737286256,41218304,map,base_link,2.273192088665154,4.326072887603173,1.99,-0.02104109817289685,-0.016209656222249496,-0.9511440715491826,0.30760278670662006,"(0.45562500000000006, 0.0, 0.0, 0.0, 0.0, 0.0, 0.0, 0.45562500000000006, 0.0, 0.0, 0.0, 0.0, 0.0, 0.0, 1.0201, 0.0, 0.0, 0.0, 0.0, 0.0, 0.0, 99999.0, 0.0, 0.0, 0.0, 0.0, 0.0, 0.0, 99999.0, 0.0, 0.0, 0.0, 0.0, 0.0, 0.0, 99999.0)",0.03,0.55,-0.03,0.0,0.0,0.0,"(-1.0, 0.0, 0.0, 0.0, 0.0, 0.0, 0.0, 0.0, 0.0, 0.0, 0.0, 0.0, 0.0, 0.0, 0.0, 0.0, 0.0, 0.0, 0.0, 0.0, 0.0, 0.0, 0.0, 0.0, 0.0, 0.0, 0.0, 0.0, 0.0, 0.0, 0.0, 0.0, 0.0, 0.0, 0.0, 0.0)"
1737286264.3108861,20743,1737286256,141221888,map,base_link,2.2639137361072224,4.381535347803891,1.987,-0.015997757136272307,-0.01942959869164631,-0.9701386511481997,0.24124170454057475,"(0.45562500000000006, 0.0, 0.0, 0.0, 0.0, 0.0, 0.0, 0.45562500000000006, 0.0, 0.0, 0.0, 0.0, 0.0, 0.0, 1.0201, 0.0, 0.0, 0.0, 0.0, 0.0, 0.0, 99999.0, 0.0, 0.0, 0.0, 0.0, 0.0, 0.0, 99999.0, 0.0, 0.0, 0.0, 0.0, 0.0, 0.0, 99999.0)",0.03,0.57,-0.04,0.0,0.0,0.0,"(-1.0, 0.0, 0.0, 0.0, 0.0, 0.0, 0.0, 0.0, 0.0, 0.0, 0.0, 0.0, 0.0, 0.0, 0.0, 0.0, 0.0, 0.0, 0.0, 0.0, 0.0, 0.0, 0.0, 0.0, 0.0, 0.0, 0.0, 0.0, 0.0, 0.0, 0.0, 0.0, 0.0, 0.0, 0.0, 0.0)"
1737286264.3115082,20744,1737286256,241223936,map,base_link,2.263913723189983,4.436997817349224,1.982,-0.010289005870616515,-0.016047100684661298,-0.9837632636439055,0.178455787304594,"(0.45562500000000006, 0.0, 0.0, 0.0, 0.0, 0.0, 0.0, 0.45562500000000006, 0.0, 0.0, 0.0, 0.0, 0.0, 0.0, 1.0201, 0.0, 0.0, 0.0, 0.0, 0.0, 0.0, 99999.0, 0.0, 0.0, 0.0, 0.0, 0.0, 0.0, 99999.0, 0.0, 0.0, 0.0, 0.0, 0.0, 0.0, 99999.0)",0.02,0.6,-0.05,0.0,0.0,0.0,"(-1.0, 0.0, 0.0, 0.0, 0.0, 0.0, 0.0, 0.0, 0.0, 0.0, 0.0, 0.0, 0.0, 0.0, 0.0, 0.0, 0.0, 0.0, 0.0, 0.0, 0.0, 0.0, 0.0, 0.0, 0.0, 0.0, 0.0, 0.0, 0.0, 0.0, 0.0, 0.0, 0.0, 0.0, 0.0, 0.0)"
1737286264.31181,20745,1737286256,341225984,map,base_link,2.2639137040766664,4.5035527738351115,1.979,-0.007747147207010108,-0.006226771136507382,-0.9928665634650637,0.11881580780536333,"(0.45562500000000006, 0.0, 0.0, 0.0, 0.0, 0.0, 0.0, 0.45562500000000006, 0.0, 0.0, 0.0, 0.0, 0.0, 0.0, 1.0201, 0.0, 0.0, 0.0, 0.0, 0.0, 0.0, 99999.0, 0.0, 0.0, 0.0, 0.0, 0.0, 0.0, 99999.0, 0.0, 0.0, 0.0, 0.0, 0.0, 0.0, 99999.0)",0.03,0.64,-0.03,0.0,0.0,0.0,"(-1.0, 0.0, 0.0, 0.0, 0.0, 0.0, 0.0, 0.0, 0.0, 0.0, 0.0, 0.0, 0.0, 0.0, 0.0, 0.0, 0.0, 0.0, 0.0, 0.0, 0.0, 0.0, 0.0, 0.0, 0.0, 0.0, 0.0, 0.0, 0.0, 0.0, 0.0, 0.0, 0.0, 0.0, 0.0, 0.0)"
1737286264.3120885,20746,1737286256,441228288,map,base_link,2.2639136857195545,4.581200230569341,1.977,-0.008179469675723897,0.0010194641376758927,-0.9980036993171928,0.06261527862985183,"(0.45562500000000006, 0.0, 0.0, 0.0, 0.0, 0.0, 0.0, 0.45562500000000006, 0.0, 0.0, 0.0, 0.0, 0.0, 0.0, 1.0221209999999998, 0.0, 0.0, 0.0, 0.0, 0.0, 0.0, 99999.0, 0.0, 0.0, 0.0, 0.0, 0.0, 0.0, 99999.0, 0.0, 0.0, 0.0, 0.0, 0.0, 0.0, 99999.0)",0.03,0.66,-0.02,0.0,0.0,0.0,"(-1.0, 0.0, 0.0, 0.0, 0.0, 0.0, 0.0, 0.0, 0.0, 0.0, 0.0, 0.0, 0.0, 0.0, 0.0, 0.0, 0.0, 0.0, 0.0, 0.0, 0.0, 0.0, 0.0, 0.0, 0.0, 0.0, 0.0, 0.0, 0.0, 0.0, 0.0, 0.0, 0.0, 0.0, 0.0, 0.0)"
1737286264.3129754,20747,1737286256,541231872,map,base_link,2.25463533853026,4.636662697938474,1.976,-0.006992468721759918,0.013316152834352906,-0.9998311365139783,0.010558594226213802,"(0.45562500000000006, 0.0, 0.0, 0.0, 0.0, 0.0, 0.0, 0.45562500000000006, 0.0, 0.0, 0.0, 0.0, 0.0, 0.0, 1.0221209999999998, 0.0, 0.0, 0.0, 0.0, 0.0, 0.0, 99999.0, 0.0, 0.0, 0.0, 0.0, 0.0, 0.0, 99999.0, 0.0, 0.0, 0.0, 0.0, 0.0, 0.0, 99999.0)",0.05,0.68,0.0,0.0,0.0,0.0,"(-1.0, 0.0, 0.0, 0.0, 0.0, 0.0, 0.0, 0.0, 0.0, 0.0, 0.0, 0.0, 0.0, 0.0, 0.0, 0.0, 0.0, 0.0, 0.0, 0.0, 0.0, 0.0, 0.0, 0.0, 0.0, 0.0, 0.0, 0.0, 0.0, 0.0, 0.0, 0.0, 0.0, 0.0, 0.0, 0.0)"
1737286264.313036,20748,1737286256,641234176,map,base_link,2.254635322682198,4.703217661539954,1.974,-0.007878578231815744,0.0207356625278783,-0.9989660967121143,-0.039682463687849334,"(0.45562500000000006, 0.0, 0.0, 0.0, 0.0, 0.0, 0.0, 0.45562500000000006, 0.0, 0.0, 0.0, 0.0, 0.0, 0.0, 1.0221209999999998, 0.0, 0.0, 0.0, 0.0, 0.0, 0.0, 99999.0, 0.0, 0.0, 0.0, 0.0, 0.0, 0.0, 99999.0, 0.0, 0.0, 0.0, 0.0, 0.0, 0.0, 99999.0)",0.06,0.65,0.02,0.0,0.0,0.0,"(-1.0, 0.0, 0.0, 0.0, 0.0, 0.0, 0.0, 0.0, 0.0, 0.0, 0.0, 0.0, 0.0, 0.0, 0.0, 0.0, 0.0, 0.0, 0.0, 0.0, 0.0, 0.0, 0.0, 0.0, 0.0, 0.0, 0.0, 0.0, 0.0, 0.0, 0.0, 0.0, 0.0, 0.0, 0.0, 0.0)"
1737286264.3132305,20749,1737286256,741236480,map,base_link,2.2639136412790553,4.769772627498714,1.971,-0.007568754810234711,0.026927380550550436,-0.9957913608982937,-0.0872765471798263,"(0.45562500000000006, 0.0, 0.0, 0.0, 0.0, 0.0, 0.0, 0.45562500000000006, 0.0, 0.0, 0.0, 0.0, 0.0, 0.0, 1.0221209999999998, 0.0, 0.0, 0.0, 0.0, 0.0, 0.0, 99999.0, 0.0, 0.0, 0.0, 0.0, 0.0, 0.0, 99999.0, 0.0, 0.0, 0.0, 0.0, 0.0, 0.0, 99999.0)",0.05,0.61,0.02,0.0,0.0,0.0,"(-1.0, 0.0, 0.0, 0.0, 0.0, 0.0, 0.0, 0.0, 0.0, 0.0, 0.0, 0.0, 0.0, 0.0, 0.0, 0.0, 0.0, 0.0, 0.0, 0.0, 0.0, 0.0, 0.0, 0.0, 0.0, 0.0, 0.0, 0.0, 0.0, 0.0, 0.0, 0.0, 0.0, 0.0, 0.0, 0.0)"
1737286264.3133981,20750,1737286256,841238784,map,base_link,2.2639136246747875,4.825235088525696,1.967,-0.007764449739271611,0.03050192205670249,-0.9903059635538998,-0.13529022366998744,"(0.45697600000000005, 0.0, 0.0, 0.0, 0.0, 0.0, 0.0, 0.45697600000000005, 0.0, 0.0, 0.0, 0.0, 0.0, 0.0, 1.0221209999999998, 0.0, 0.0, 0.0, 0.0, 0.0, 0.0, 99999.0, 0.0, 0.0, 0.0, 0.0, 0.0, 0.0, 99999.0, 0.0, 0.0, 0.0, 0.0, 0.0, 0.0, 99999.0)",0.06,0.57,0.03,0.0,0.0,0.0,"(-1.0, 0.0, 0.0, 0.0, 0.0, 0.0, 0.0, 0.0, 0.0, 0.0, 0.0, 0.0, 0.0, 0.0, 0.0, 0.0, 0.0, 0.0, 0.0, 0.0, 0.0, 0.0, 0.0, 0.0, 0.0, 0.0, 0.0, 0.0, 0.0, 0.0, 0.0, 0.0, 0.0, 0.0, 0.0, 0.0)"
1737286264.3134909,20751,1737286256,941240832,map,base_link,2.26391361150864,4.880697558787815,1.964,-0.007210349090264879,0.0328721835361348,-0.9825384603284294,-0.18299072214460127,"(0.45697600000000005, 0.0, 0.0, 0.0, 0.0, 0.0, 0.0, 0.45697600000000005, 0.0, 0.0, 0.0, 0.0, 0.0, 0.0, 1.0221209999999998, 0.0, 0.0, 0.0, 0.0, 0.0, 0.0, 99999.0, 0.0, 0.0, 0.0, 0.0, 0.0, 0.0, 99999.0, 0.0, 0.0, 0.0, 0.0, 0.0, 0.0, 99999.0)",0.08,0.53,0.03,0.0,0.0,0.0,"(-1.0, 0.0, 0.0, 0.0, 0.0, 0.0, 0.0, 0.0, 0.0, 0.0, 0.0, 0.0, 0.0, 0.0, 0.0, 0.0, 0.0, 0.0, 0.0, 0.0, 0.0, 0.0, 0.0, 0.0, 0.0, 0.0, 0.0, 0.0, 0.0, 0.0, 0.0, 0.0, 0.0, 0.0, 0.0, 0.0)"
1737286264.3137887,20752,1737286257,41243136,map,base_link,2.2731919332327046,4.9361600318703625,1.961,-0.006849831850186771,0.03474321468037297,-0.9722237289050912,-0.2313590495121755,"(0.45697600000000005, 0.0, 0.0, 0.0, 0.0, 0.0, 0.0, 0.45697600000000005, 0.0, 0.0, 0.0, 0.0, 0.0, 0.0, 1.0221209999999998, 0.0, 0.0, 0.0, 0.0, 0.0, 0.0, 99999.0, 0.0, 0.0, 0.0, 0.0, 0.0, 0.0, 99999.0, 0.0, 0.0, 0.0, 0.0, 0.0, 0.0, 99999.0)",0.06,0.46,0.01,0.0,0.0,0.0,"(-1.0, 0.0, 0.0, 0.0, 0.0, 0.0, 0.0, 0.0, 0.0, 0.0, 0.0, 0.0, 0.0, 0.0, 0.0, 0.0, 0.0, 0.0, 0.0, 0.0, 0.0, 0.0, 0.0, 0.0, 0.0, 0.0, 0.0, 0.0, 0.0, 0.0, 0.0, 0.0, 0.0, 0.0, 0.0, 0.0)"
1737286264.314023,20753,1737286257,141245952,map,base_link,2.273191919310352,4.980529998394908,1.954,-0.01006960952593288,0.02863568190542398,-0.9592472862656287,-0.2809328113229807,"(0.45697600000000005, 0.0, 0.0, 0.0, 0.0, 0.0, 0.0, 0.45697600000000005, 0.0, 0.0, 0.0, 0.0, 0.0, 0.0, 1.0221209999999998, 0.0, 0.0, 0.0, 0.0, 0.0, 0.0, 99999.0, 0.0, 0.0, 0.0, 0.0, 0.0, 0.0, 99999.0, 0.0, 0.0, 0.0, 0.0, 0.0, 0.0, 99999.0)",0.06,0.43,0.01,0.0,0.0,0.0,"(-1.0, 0.0, 0.0, 0.0, 0.0, 0.0, 0.0, 0.0, 0.0, 0.0, 0.0, 0.0, 0.0, 0.0, 0.0, 0.0, 0.0, 0.0, 0.0, 0.0, 0.0, 0.0, 0.0, 0.0, 0.0, 0.0, 0.0, 0.0, 0.0, 0.0, 0.0, 0.0, 0.0, 0.0, 0.0, 0.0)"
1737286264.314275,20754,1737286257,241248256,map,base_link,2.2824702389921137,5.0248999685332425,1.948,-0.005182572863188112,0.01198056265328176,-0.9439449219055478,-0.3298447990582202,"(0.45832900000000004, 0.0, 0.0, 0.0, 0.0, 0.0, 0.0, 0.45832900000000004, 0.0, 0.0, 0.0, 0.0, 0.0, 0.0, 1.0201, 0.0, 0.0, 0.0, 0.0, 0.0, 0.0, 99999.0, 0.0, 0.0, 0.0, 0.0, 0.0, 0.0, 99999.0, 0.0, 0.0, 0.0, 0.0, 0.0, 0.0, 99999.0)",0.09,0.43,0.02,0.0,0.0,0.0,"(-1.0, 0.0, 0.0, 0.0, 0.0, 0.0, 0.0, 0.0, 0.0, 0.0, 0.0, 0.0, 0.0, 0.0, 0.0, 0.0, 0.0, 0.0, 0.0, 0.0, 0.0, 0.0, 0.0, 0.0, 0.0, 0.0, 0.0, 0.0, 0.0, 0.0, 0.0, 0.0, 0.0, 0.0, 0.0, 0.0)"
1737286264.3146312,20755,1737286257,341250816,map,base_link,2.2824702283350153,5.06926994411184,1.942,-0.0013720953050448265,-0.020179347635135625,-0.9248531853123232,-0.3797861199427171,"(0.45832900000000004, 0.0, 0.0, 0.0, 0.0, 0.0, 0.0, 0.45832900000000004, 0.0, 0.0, 0.0, 0.0, 0.0, 0.0, 1.0201, 0.0, 0.0, 0.0, 0.0, 0.0, 0.0, 99999.0, 0.0, 0.0, 0.0, 0.0, 0.0, 0.0, 99999.0, 0.0, 0.0, 0.0, 0.0, 0.0, 0.0, 99999.0)",0.1,0.44,0.0,0.0,0.0,0.0,"(-1.0, 0.0, 0.0, 0.0, 0.0, 0.0, 0.0, 0.0, 0.0, 0.0, 0.0, 0.0, 0.0, 0.0, 0.0, 0.0, 0.0, 0.0, 0.0, 0.0, 0.0, 0.0, 0.0, 0.0, 0.0, 0.0, 0.0, 0.0, 0.0, 0.0, 0.0, 0.0, 0.0, 0.0, 0.0, 0.0)"
1737286264.3147373,20756,1737286257,441253376,map,base_link,2.3010268831296368,5.113639915945252,1.939,0.004349476534177141,-0.029459212985870356,-0.9026190774601499,-0.4294089400898866,"(0.45832900000000004, 0.0, 0.0, 0.0, 0.0, 0.0, 0.0, 0.45832900000000004, 0.0, 0.0, 0.0, 0.0, 0.0, 0.0, 1.0201, 0.0, 0.0, 0.0, 0.0, 0.0, 0.0, 99999.0, 0.0, 0.0, 0.0, 0.0, 0.0, 0.0, 99999.0, 0.0, 0.0, 0.0, 0.0, 0.0, 0.0, 99999.0)",0.14,0.48,0.0,0.0,0.0,0.0,"(-1.0, 0.0, 0.0, 0.0, 0.0, 0.0, 0.0, 0.0, 0.0, 0.0, 0.0, 0.0, 0.0, 0.0, 0.0, 0.0, 0.0, 0.0, 0.0, 0.0, 0.0, 0.0, 0.0, 0.0, 0.0, 0.0, 0.0, 0.0, 0.0, 0.0, 0.0, 0.0, 0.0, 0.0, 0.0, 0.0)"
1737286264.3149927,20757,1737286257,541255680,map,base_link,2.310305200859427,5.180194880425801,1.938,0.009144334981800945,-0.018845216885875045,-0.8774234820435595,-0.4792590866085069,"(0.45832900000000004, 0.0, 0.0, 0.0, 0.0, 0.0, 0.0, 0.45832900000000004, 0.0, 0.0, 0.0, 0.0, 0.0, 0.0, 1.0201, 0.0, 0.0, 0.0, 0.0, 0.0, 0.0, 99999.0, 0.0, 0.0, 0.0, 0.0, 0.0, 0.0, 99999.0, 0.0, 0.0, 0.0, 0.0, 0.0, 0.0, 99999.0)",0.18,0.53,-0.02,0.0,0.0,0.0,"(-1.0, 0.0, 0.0, 0.0, 0.0, 0.0, 0.0, 0.0, 0.0, 0.0, 0.0, 0.0, 0.0, 0.0, 0.0, 0.0, 0.0, 0.0, 0.0, 0.0, 0.0, 0.0, 0.0, 0.0, 0.0, 0.0, 0.0, 0.0, 0.0, 0.0, 0.0, 0.0, 0.0, 0.0, 0.0, 0.0)"
1737286264.3164272,20758,1737286257,641258496,map,base_link,2.3195835258985276,5.2356573593175035,1.94,0.009707873263639871,0.0006986713289475555,-0.8494359098021902,-0.5276020320218604,"(0.45697600000000005, 0.0, 0.0, 0.0, 0.0, 0.0, 0.0, 0.45697600000000005, 0.0, 0.0, 0.0, 0.0, 0.0, 0.0, 1.0201, 0.0, 0.0, 0.0, 0.0, 0.0, 0.0, 99999.0, 0.0, 0.0, 0.0, 0.0, 0.0, 0.0, 99999.0, 0.0, 0.0, 0.0, 0.0, 0.0, 0.0, 99999.0)",0.18,0.56,-0.03,0.0,0.0,0.0,"(-1.0, 0.0, 0.0, 0.0, 0.0, 0.0, 0.0, 0.0, 0.0, 0.0, 0.0, 0.0, 0.0, 0.0, 0.0, 0.0, 0.0, 0.0, 0.0, 0.0, 0.0, 0.0, 0.0, 0.0, 0.0, 0.0, 0.0, 0.0, 0.0, 0.0, 0.0, 0.0, 0.0, 0.0, 0.0, 0.0)"
1737286264.3280113,20759,1737286257,741260800,map,base_link,2.3381401777012454,5.30221232809845,1.943,0.005336377251384893,0.017035683056036355,-0.8182444947361387,-0.5745931216214183,"(0.45697600000000005, 0.0, 0.0, 0.0, 0.0, 0.0, 0.0, 0.45697600000000005, 0.0, 0.0, 0.0, 0.0, 0.0, 0.0, 1.0201, 0.0, 0.0, 0.0, 0.0, 0.0, 0.0, 99999.0, 0.0, 0.0, 0.0, 0.0, 0.0, 0.0, 99999.0, 0.0, 0.0, 0.0, 0.0, 0.0, 0.0, 99999.0)",0.18,0.57,-0.03,0.0,0.0,0.0,"(-1.0, 0.0, 0.0, 0.0, 0.0, 0.0, 0.0, 0.0, 0.0, 0.0, 0.0, 0.0, 0.0, 0.0, 0.0, 0.0, 0.0, 0.0, 0.0, 0.0, 0.0, 0.0, 0.0, 0.0, 0.0, 0.0, 0.0, 0.0, 0.0, 0.0, 0.0, 0.0, 0.0, 0.0, 0.0, 0.0)"
1737286264.3281722,20760,1737286257,841263104,map,base_link,2.347418497940085,5.357674800221632,1.945,-0.004475235042221496,0.024126804646655405,-0.7847483647761396,-0.6193285667156279,"(0.45697600000000005, 0.0, 0.0, 0.0, 0.0, 0.0, 0.0, 0.45697600000000005, 0.0, 0.0, 0.0, 0.0, 0.0, 0.0, 1.0201, 0.0, 0.0, 0.0, 0.0, 0.0, 0.0, 99999.0, 0.0, 0.0, 0.0, 0.0, 0.0, 0.0, 99999.0, 0.0, 0.0, 0.0, 0.0, 0.0, 0.0, 99999.0)",0.17,0.56,-0.05,0.0,0.0,0.0,"(-1.0, 0.0, 0.0, 0.0, 0.0, 0.0, 0.0, 0.0, 0.0, 0.0, 0.0, 0.0, 0.0, 0.0, 0.0, 0.0, 0.0, 0.0, 0.0, 0.0, 0.0, 0.0, 0.0, 0.0, 0.0, 0.0, 0.0, 0.0, 0.0, 0.0, 0.0, 0.0, 0.0, 0.0, 0.0, 0.0)"
1737286264.329678,20761,1737286257,941264896,map,base_link,2.3659751524011976,5.413137273501292,1.947,-0.007474669692048944,0.025949111876808994,-0.7492230350550361,-0.6617670410716445,"(0.45697600000000005, 0.0, 0.0, 0.0, 0.0, 0.0, 0.0, 0.45697600000000005, 0.0, 0.0, 0.0, 0.0, 0.0, 0.0, 1.0201, 0.0, 0.0, 0.0, 0.0, 0.0, 0.0, 99999.0, 0.0, 0.0, 0.0, 0.0, 0.0, 0.0, 99999.0, 0.0, 0.0, 0.0, 0.0, 0.0, 0.0, 99999.0)",0.19,0.51,-0.04,0.0,0.0,0.0,"(-1.0, 0.0, 0.0, 0.0, 0.0, 0.0, 0.0, 0.0, 0.0, 0.0, 0.0, 0.0, 0.0, 0.0, 0.0, 0.0, 0.0, 0.0, 0.0, 0.0, 0.0, 0.0, 0.0, 0.0, 0.0, 0.0, 0.0, 0.0, 0.0, 0.0, 0.0, 0.0, 0.0, 0.0, 0.0, 0.0)"
1737286264.329759,20762,1737286258,41267456,map,base_link,2.384531810300429,5.468599756403782,1.951,0.0007098227104564997,0.021662817209387026,-0.7128177526427428,-0.7010143151317393,"(0.45832900000000004, 0.0, 0.0, 0.0, 0.0, 0.0, 0.0, 0.45832900000000004, 0.0, 0.0, 0.0, 0.0, 0.0, 0.0, 1.0201, 0.0, 0.0, 0.0, 0.0, 0.0, 0.0, 99999.0, 0.0, 0.0, 0.0, 0.0, 0.0, 0.0, 99999.0, 0.0, 0.0, 0.0, 0.0, 0.0, 0.0, 99999.0)",0.19,0.49,-0.03,0.0,0.0,0.0,"(-1.0, 0.0, 0.0, 0.0, 0.0, 0.0, 0.0, 0.0, 0.0, 0.0, 0.0, 0.0, 0.0, 0.0, 0.0, 0.0, 0.0, 0.0, 0.0, 0.0, 0.0, 0.0, 0.0, 0.0, 0.0, 0.0, 0.0, 0.0, 0.0, 0.0, 0.0, 0.0, 0.0, 0.0, 0.0, 0.0)"
1737286264.3298097,20763,1737286258,141269504,map,base_link,2.3938101301437573,5.524062226757384,1.956,0.01720934973657433,0.008756523531012476,-0.6757421476903054,-0.7368851412616408,"(0.45832900000000004, 0.0, 0.0, 0.0, 0.0, 0.0, 0.0, 0.45832900000000004, 0.0, 0.0, 0.0, 0.0, 0.0, 0.0, 1.0201, 0.0, 0.0, 0.0, 0.0, 0.0, 0.0, 99999.0, 0.0, 0.0, 0.0, 0.0, 0.0, 0.0, 99999.0, 0.0, 0.0, 0.0, 0.0, 0.0, 0.0, 99999.0)",0.21,0.46,-0.05,0.0,0.0,0.0,"(-1.0, 0.0, 0.0, 0.0, 0.0, 0.0, 0.0, 0.0, 0.0, 0.0, 0.0, 0.0, 0.0, 0.0, 0.0, 0.0, 0.0, 0.0, 0.0, 0.0, 0.0, 0.0, 0.0, 0.0, 0.0, 0.0, 0.0, 0.0, 0.0, 0.0, 0.0, 0.0, 0.0, 0.0, 0.0, 0.0)"
1737286264.3299067,20764,1737286258,241271808,map,base_link,2.4123667903791737,5.568432216346039,1.962,0.0205693025012636,0.0025314246892234583,-0.6411701292568661,-0.767118870210079,"(0.45832900000000004, 0.0, 0.0, 0.0, 0.0, 0.0, 0.0, 0.45832900000000004, 0.0, 0.0, 0.0, 0.0, 0.0, 0.0, 1.0221209999999998, 0.0, 0.0, 0.0, 0.0, 0.0, 0.0, 99999.0, 0.0, 0.0, 0.0, 0.0, 0.0, 0.0, 99999.0, 0.0, 0.0, 0.0, 0.0, 0.0, 0.0, 99999.0)",0.18,0.48,-0.07,0.0,0.0,0.0,"(-1.0, 0.0, 0.0, 0.0, 0.0, 0.0, 0.0, 0.0, 0.0, 0.0, 0.0, 0.0, 0.0, 0.0, 0.0, 0.0, 0.0, 0.0, 0.0, 0.0, 0.0, 0.0, 0.0, 0.0, 0.0, 0.0, 0.0, 0.0, 0.0, 0.0, 0.0, 0.0, 0.0, 0.0, 0.0, 0.0)"
1737286264.3301392,20765,1737286258,341273856,map,base_link,2.430923441414388,5.634987184137442,1.967,0.01822667569221255,0.006823991653839709,-0.614664955303074,-0.7885481685689146,"(0.45832900000000004, 0.0, 0.0, 0.0, 0.0, 0.0, 0.0, 0.45832900000000004, 0.0, 0.0, 0.0, 0.0, 0.0, 0.0, 1.0221209999999998, 0.0, 0.0, 0.0, 0.0, 0.0, 0.0, 99999.0, 0.0, 0.0, 0.0, 0.0, 0.0, 0.0, 99999.0, 0.0, 0.0, 0.0, 0.0, 0.0, 0.0, 99999.0)",0.2,0.48,-0.06,0.0,0.0,0.0,"(-1.0, 0.0, 0.0, 0.0, 0.0, 0.0, 0.0, 0.0, 0.0, 0.0, 0.0, 0.0, 0.0, 0.0, 0.0, 0.0, 0.0, 0.0, 0.0, 0.0, 0.0, 0.0, 0.0, 0.0, 0.0, 0.0, 0.0, 0.0, 0.0, 0.0, 0.0, 0.0, 0.0, 0.0, 0.0, 0.0)"
1737286264.330555,20766,1737286258,441276416,map,base_link,2.4494800989914096,5.690449668064304,1.971,0.012964976439430417,0.014351936532438412,-0.598869230643631,-0.800613249885361,"(0.45832900000000004, 0.0, 0.0, 0.0, 0.0, 0.0, 0.0, 0.45832900000000004, 0.0, 0.0, 0.0, 0.0, 0.0, 0.0, 1.0221209999999998, 0.0, 0.0, 0.0, 0.0, 0.0, 0.0, 99999.0, 0.0, 0.0, 0.0, 0.0, 0.0, 0.0, 99999.0, 0.0, 0.0, 0.0, 0.0, 0.0, 0.0, 99999.0)",0.18,0.5,-0.06,0.0,0.0,0.0,"(-1.0, 0.0, 0.0, 0.0, 0.0, 0.0, 0.0, 0.0, 0.0, 0.0, 0.0, 0.0, 0.0, 0.0, 0.0, 0.0, 0.0, 0.0, 0.0, 0.0, 0.0, 0.0, 0.0, 0.0, 0.0, 0.0, 0.0, 0.0, 0.0, 0.0, 0.0, 0.0, 0.0, 0.0, 0.0, 0.0)"
1737286264.3306134,20767,1737286258,541278464,map,base_link,2.46803675390797,5.734819648402723,1.971,0.006232312222382888,0.02242939055980678,-0.5932931921862387,-0.8046497802329542,"(0.45832900000000004, 0.0, 0.0, 0.0, 0.0, 0.0, 0.0, 0.45832900000000004, 0.0, 0.0, 0.0, 0.0, 0.0, 0.0, 1.0221209999999998, 0.0, 0.0, 0.0, 0.0, 0.0, 0.0, 99999.0, 0.0, 0.0, 0.0, 0.0, 0.0, 0.0, 99999.0, 0.0, 0.0, 0.0, 0.0, 0.0, 0.0, 99999.0)",0.15,0.5,-0.05,0.0,0.0,0.0,"(-1.0, 0.0, 0.0, 0.0, 0.0, 0.0, 0.0, 0.0, 0.0, 0.0, 0.0, 0.0, 0.0, 0.0, 0.0, 0.0, 0.0, 0.0, 0.0, 0.0, 0.0, 0.0, 0.0, 0.0, 0.0, 0.0, 0.0, 0.0, 0.0, 0.0, 0.0, 0.0, 0.0, 0.0, 0.0, 0.0)"
1737286264.3342283,20768,1737286258,641281024,map,base_link,2.4865934056823593,5.77918961962384,1.969,0.009390717898577473,0.02748587059326618,-0.5955458927266476,-0.8027960083305721,"(0.45968400000000004, 0.0, 0.0, 0.0, 0.0, 0.0, 0.0, 0.45968400000000004, 0.0, 0.0, 0.0, 0.0, 0.0, 0.0, 1.0221209999999998, 0.0, 0.0, 0.0, 0.0, 0.0, 0.0, 99999.0, 0.0, 0.0, 0.0, 0.0, 0.0, 0.0, 99999.0, 0.0, 0.0, 0.0, 0.0, 0.0, 0.0, 99999.0)",0.16,0.47,-0.03,0.0,0.0,0.0,"(-1.0, 0.0, 0.0, 0.0, 0.0, 0.0, 0.0, 0.0, 0.0, 0.0, 0.0, 0.0, 0.0, 0.0, 0.0, 0.0, 0.0, 0.0, 0.0, 0.0, 0.0, 0.0, 0.0, 0.0, 0.0, 0.0, 0.0, 0.0, 0.0, 0.0, 0.0, 0.0, 0.0, 0.0, 0.0, 0.0)"
1737286264.3352606,20769,1737286258,741283328,map,base_link,2.495871731484155,5.812467103331796,1.961,0.0093610123955023,0.03111646504911839,-0.6033233449494176,-0.7968344109592811,"(0.45968400000000004, 0.0, 0.0, 0.0, 0.0, 0.0, 0.0, 0.45968400000000004, 0.0, 0.0, 0.0, 0.0, 0.0, 0.0, 1.0221209999999998, 0.0, 0.0, 0.0, 0.0, 0.0, 0.0, 99999.0, 0.0, 0.0, 0.0, 0.0, 0.0, 0.0, 99999.0, 0.0, 0.0, 0.0, 0.0, 0.0, 0.0, 99999.0)",0.13,0.44,-0.03,0.0,0.0,0.0,"(-1.0, 0.0, 0.0, 0.0, 0.0, 0.0, 0.0, 0.0, 0.0, 0.0, 0.0, 0.0, 0.0, 0.0, 0.0, 0.0, 0.0, 0.0, 0.0, 0.0, 0.0, 0.0, 0.0, 0.0, 0.0, 0.0, 0.0, 0.0, 0.0, 0.0, 0.0, 0.0, 0.0, 0.0, 0.0, 0.0)"
1737286264.3390179,20770,1737286258,841286144,map,base_link,2.5051500490860534,5.8568370720899985,1.956,0.013950776630339869,0.033369003842076174,-0.6139046589036871,-0.7885511747441287,"(0.45968400000000004, 0.0, 0.0, 0.0, 0.0, 0.0, 0.0, 0.45968400000000004, 0.0, 0.0, 0.0, 0.0, 0.0, 0.0, 1.024144, 0.0, 0.0, 0.0, 0.0, 0.0, 0.0, 99999.0, 0.0, 0.0, 0.0, 0.0, 0.0, 0.0, 99999.0, 0.0, 0.0, 0.0, 0.0, 0.0, 0.0, 99999.0)",0.1,0.41,-0.02,0.0,0.0,0.0,"(-1.0, 0.0, 0.0, 0.0, 0.0, 0.0, 0.0, 0.0, 0.0, 0.0, 0.0, 0.0, 0.0, 0.0, 0.0, 0.0, 0.0, 0.0, 0.0, 0.0, 0.0, 0.0, 0.0, 0.0, 0.0, 0.0, 0.0, 0.0, 0.0, 0.0, 0.0, 0.0, 0.0, 0.0, 0.0, 0.0)"
1737286264.3392842,20771,1737286258,941288192,map,base_link,2.514428376160582,5.879022062539823,1.956,0.016835062003057715,0.03178263216821895,-0.6265661116215222,-0.778537958449875,"(0.45968400000000004, 0.0, 0.0, 0.0, 0.0, 0.0, 0.0, 0.45968400000000004, 0.0, 0.0, 0.0, 0.0, 0.0, 0.0, 1.024144, 0.0, 0.0, 0.0, 0.0, 0.0, 0.0, 99999.0, 0.0, 0.0, 0.0, 0.0, 0.0, 0.0, 99999.0, 0.0, 0.0, 0.0, 0.0, 0.0, 0.0, 99999.0)",0.09,0.36,-0.02,0.0,0.0,0.0,"(-1.0, 0.0, 0.0, 0.0, 0.0, 0.0, 0.0, 0.0, 0.0, 0.0, 0.0, 0.0, 0.0, 0.0, 0.0, 0.0, 0.0, 0.0, 0.0, 0.0, 0.0, 0.0, 0.0, 0.0, 0.0, 0.0, 0.0, 0.0, 0.0, 0.0, 0.0, 0.0, 0.0, 0.0, 0.0, 0.0)"
1737286264.3393617,20772,1737286259,41290496,map,base_link,2.514428367789886,5.912299543784865,1.957,0.01644103785651436,0.030521462578519225,-0.6409420797566601,-0.766805961761824,"(0.4610410000000001, 0.0, 0.0, 0.0, 0.0, 0.0, 0.0, 0.4610410000000001, 0.0, 0.0, 0.0, 0.0, 0.0, 0.0, 1.024144, 0.0, 0.0, 0.0, 0.0, 0.0, 0.0, 99999.0, 0.0, 0.0, 0.0, 0.0, 0.0, 0.0, 99999.0, 0.0, 0.0, 0.0, 0.0, 0.0, 0.0, 99999.0)",0.02,0.35,-0.05,0.0,0.0,0.0,"(-1.0, 0.0, 0.0, 0.0, 0.0, 0.0, 0.0, 0.0, 0.0, 0.0, 0.0, 0.0, 0.0, 0.0, 0.0, 0.0, 0.0, 0.0, 0.0, 0.0, 0.0, 0.0, 0.0, 0.0, 0.0, 0.0, 0.0, 0.0, 0.0, 0.0, 0.0, 0.0, 0.0, 0.0, 0.0, 0.0)"
1737286264.3393927,20773,1737286259,141293056,map,base_link,2.514428358874334,5.945577026404247,1.959,0.01929441723224903,0.030524030024826756,-0.6540652165050727,-0.7555757418107624,"(0.4610410000000001, 0.0, 0.0, 0.0, 0.0, 0.0, 0.0, 0.4610410000000001, 0.0, 0.0, 0.0, 0.0, 0.0, 0.0, 1.024144, 0.0, 0.0, 0.0, 0.0, 0.0, 0.0, 99999.0, 0.0, 0.0, 0.0, 0.0, 0.0, 0.0, 99999.0, 0.0, 0.0, 0.0, 0.0, 0.0, 0.0, 99999.0)",0.0,0.32,-0.06,0.0,0.0,0.0,"(-1.0, 0.0, 0.0, 0.0, 0.0, 0.0, 0.0, 0.0, 0.0, 0.0, 0.0, 0.0, 0.0, 0.0, 0.0, 0.0, 0.0, 0.0, 0.0, 0.0, 0.0, 0.0, 0.0, 0.0, 0.0, 0.0, 0.0, 0.0, 0.0, 0.0, 0.0, 0.0, 0.0, 0.0, 0.0, 0.0)"
1737286264.339474,20774,1737286259,241295872,map,base_link,2.505150024035969,5.967762020591727,1.962,0.015708284314782973,0.029691858475421717,-0.6650486674668348,-0.7460441764699656,"(0.4624000000000001, 0.0, 0.0, 0.0, 0.0, 0.0, 0.0, 0.4624000000000001, 0.0, 0.0, 0.0, 0.0, 0.0, 0.0, 1.0261689999999999, 0.0, 0.0, 0.0, 0.0, 0.0, 0.0, 99999.0, 0.0, 0.0, 0.0, 0.0, 0.0, 0.0, 99999.0, 0.0, 0.0, 0.0, 0.0, 0.0, 0.0, 99999.0)",-0.01,0.28,-0.05,0.0,0.0,0.0,"(-1.0, 0.0, 0.0, 0.0, 0.0, 0.0, 0.0, 0.0, 0.0, 0.0, 0.0, 0.0, 0.0, 0.0, 0.0, 0.0, 0.0, 0.0, 0.0, 0.0, 0.0, 0.0, 0.0, 0.0, 0.0, 0.0, 0.0, 0.0, 0.0, 0.0, 0.0, 0.0, 0.0, 0.0, 0.0, 0.0)"
1737286264.3395593,20775,1737286259,341298432,map,base_link,2.4958716853874936,5.989947005936415,1.967,0.010881841159734307,0.028724329143822586,-0.6750818184653754,-0.7371031385265523,"(0.4624000000000001, 0.0, 0.0, 0.0, 0.0, 0.0, 0.0, 0.4624000000000001, 0.0, 0.0, 0.0, 0.0, 0.0, 0.0, 1.0261689999999999, 0.0, 0.0, 0.0, 0.0, 0.0, 0.0, 99999.0, 0.0, 0.0, 0.0, 0.0, 0.0, 0.0, 99999.0, 0.0, 0.0, 0.0, 0.0, 0.0, 0.0, 99999.0)",-0.04,0.26,-0.05,0.0,0.0,0.0,"(-1.0, 0.0, 0.0, 0.0, 0.0, 0.0, 0.0, 0.0, 0.0, 0.0, 0.0, 0.0, 0.0, 0.0, 0.0, 0.0, 0.0, 0.0, 0.0, 0.0, 0.0, 0.0, 0.0, 0.0, 0.0, 0.0, 0.0, 0.0, 0.0, 0.0, 0.0, 0.0, 0.0, 0.0, 0.0, 0.0)"
1737286264.3396378,20776,1737286259,441300992,map,base_link,2.486593349435896,6.0121320003229535,1.973,0.006371089012553675,0.030193731186554232,-0.68259779216766,-0.730142453189557,"(0.4637610000000001, 0.0, 0.0, 0.0, 0.0, 0.0, 0.0, 0.4637610000000001, 0.0, 0.0, 0.0, 0.0, 0.0, 0.0, 1.028196, 0.0, 0.0, 0.0, 0.0, 0.0, 0.0, 99999.0, 0.0, 0.0, 0.0, 0.0, 0.0, 0.0, 99999.0, 0.0, 0.0, 0.0, 0.0, 0.0, 0.0, 99999.0)",-0.06,0.22,-0.06,0.0,0.0,0.0,"(-1.0, 0.0, 0.0, 0.0, 0.0, 0.0, 0.0, 0.0, 0.0, 0.0, 0.0, 0.0, 0.0, 0.0, 0.0, 0.0, 0.0, 0.0, 0.0, 0.0, 0.0, 0.0, 0.0, 0.0, 0.0, 0.0, 0.0, 0.0, 0.0, 0.0, 0.0, 0.0, 0.0, 0.0, 0.0, 0.0)"
1737286264.33974,20777,1737286259,541303040,map,base_link,2.4865933473843604,6.034316998828806,1.98,0.004545656052007524,0.028548462743868963,-0.6868266726882176,-0.7262461318107318,"(0.4637610000000001, 0.0, 0.0, 0.0, 0.0, 0.0, 0.0, 0.4637610000000001, 0.0, 0.0, 0.0, 0.0, 0.0, 0.0, 1.028196, 0.0, 0.0, 0.0, 0.0, 0.0, 0.0, 99999.0, 0.0, 0.0, 0.0, 0.0, 0.0, 0.0, 99999.0, 0.0, 0.0, 0.0, 0.0, 0.0, 0.0, 99999.0)",-0.08,0.19,-0.05,0.0,0.0,0.0,"(-1.0, 0.0, 0.0, 0.0, 0.0, 0.0, 0.0, 0.0, 0.0, 0.0, 0.0, 0.0, 0.0, 0.0, 0.0, 0.0, 0.0, 0.0, 0.0, 0.0, 0.0, 0.0, 0.0, 0.0, 0.0, 0.0, 0.0, 0.0, 0.0, 0.0, 0.0, 0.0, 0.0, 0.0, 0.0, 0.0)"
1737286264.3398106,20778,1737286259,641305856,map,base_link,2.46803667793951,6.045409486566811,1.986,0.0070950414118297,0.02479131329959935,-0.6885027123410192,-0.7247751832611994,"(0.4651240000000001, 0.0, 0.0, 0.0, 0.0, 0.0, 0.0, 0.4651240000000001, 0.0, 0.0, 0.0, 0.0, 0.0, 0.0, 1.0302249999999997, 0.0, 0.0, 0.0, 0.0, 0.0, 0.0, 99999.0, 0.0, 0.0, 0.0, 0.0, 0.0, 0.0, 99999.0, 0.0, 0.0, 0.0, 0.0, 0.0, 0.0, 99999.0)",-0.1,0.17,-0.07,0.0,0.0,0.0,"(-1.0, 0.0, 0.0, 0.0, 0.0, 0.0, 0.0, 0.0, 0.0, 0.0, 0.0, 0.0, 0.0, 0.0, 0.0, 0.0, 0.0, 0.0, 0.0, 0.0, 0.0, 0.0, 0.0, 0.0, 0.0, 0.0, 0.0, 0.0, 0.0, 0.0, 0.0, 0.0, 0.0, 0.0, 0.0, 0.0)"
1737286264.3398929,20779,1737286259,741308416,map,base_link,2.4587583459324054,6.056501988147936,1.993,0.011959031067469582,0.021547013940901985,-0.6883124317142699,-0.7249956579964781,"(0.4651240000000001, 0.0, 0.0, 0.0, 0.0, 0.0, 0.0, 0.4651240000000001, 0.0, 0.0, 0.0, 0.0, 0.0, 0.0, 1.0302249999999997, 0.0, 0.0, 0.0, 0.0, 0.0, 0.0, 99999.0, 0.0, 0.0, 0.0, 0.0, 0.0, 0.0, 99999.0, 0.0, 0.0, 0.0, 0.0, 0.0, 0.0, 99999.0)",-0.12,0.15,-0.07,0.0,0.0,0.0,"(-1.0, 0.0, 0.0, 0.0, 0.0, 0.0, 0.0, 0.0, 0.0, 0.0, 0.0, 0.0, 0.0, 0.0, 0.0, 0.0, 0.0, 0.0, 0.0, 0.0, 0.0, 0.0, 0.0, 0.0, 0.0, 0.0, 0.0, 0.0, 0.0, 0.0, 0.0, 0.0, 0.0, 0.0, 0.0, 0.0)"
1737286264.3400137,20780,1737286259,841310976,map,base_link,2.4402016801981024,6.0675944873416,2.001,0.013653551907191811,0.012130893970750302,-0.686586248421733,-0.7268189220225065,"(0.4651240000000001, 0.0, 0.0, 0.0, 0.0, 0.0, 0.0, 0.4651240000000001, 0.0, 0.0, 0.0, 0.0, 0.0, 0.0, 1.032256, 0.0, 0.0, 0.0, 0.0, 0.0, 0.0, 99999.0, 0.0, 0.0, 0.0, 0.0, 0.0, 0.0, 99999.0, 0.0, 0.0, 0.0, 0.0, 0.0, 0.0, 99999.0)",-0.11,0.14,-0.07,0.0,0.0,0.0,"(-1.0, 0.0, 0.0, 0.0, 0.0, 0.0, 0.0, 0.0, 0.0, 0.0, 0.0, 0.0, 0.0, 0.0, 0.0, 0.0, 0.0, 0.0, 0.0, 0.0, 0.0, 0.0, 0.0, 0.0, 0.0, 0.0, 0.0, 0.0, 0.0, 0.0, 0.0, 0.0, 0.0, 0.0, 0.0, 0.0)"
1737286264.3402307,20781,1737286259,941313792,map,base_link,2.4309233471388447,6.067594485067319,2.006,0.01563088205804912,0.00835128099858963,-0.6860978210780674,-0.7272934150284176,"(0.4651240000000001, 0.0, 0.0, 0.0, 0.0, 0.0, 0.0, 0.4651240000000001, 0.0, 0.0, 0.0, 0.0, 0.0, 0.0, 1.032256, 0.0, 0.0, 0.0, 0.0, 0.0, 0.0, 99999.0, 0.0, 0.0, 0.0, 0.0, 0.0, 0.0, 99999.0, 0.0, 0.0, 0.0, 0.0, 0.0, 0.0, 99999.0)",-0.11,0.13,-0.05,0.0,0.0,0.0,"(-1.0, 0.0, 0.0, 0.0, 0.0, 0.0, 0.0, 0.0, 0.0, 0.0, 0.0, 0.0, 0.0, 0.0, 0.0, 0.0, 0.0, 0.0, 0.0, 0.0, 0.0, 0.0, 0.0, 0.0, 0.0, 0.0, 0.0, 0.0, 0.0, 0.0, 0.0, 0.0, 0.0, 0.0, 0.0, 0.0)"
1737286264.3405347,20782,1737286260,41316608,map,base_link,2.412366677149137,6.0786869741796625,2.009,0.01201016786904143,0.010418038028959395,-0.6844273362625076,-0.7289077045332921,"(0.4664890000000001, 0.0, 0.0, 0.0, 0.0, 0.0, 0.0, 0.4664890000000001, 0.0, 0.0, 0.0, 0.0, 0.0, 0.0, 1.032256, 0.0, 0.0, 0.0, 0.0, 0.0, 0.0, 99999.0, 0.0, 0.0, 0.0, 0.0, 0.0, 0.0, 99999.0, 0.0, 0.0, 0.0, 0.0, 0.0, 0.0, 99999.0)",-0.08,0.11,-0.01,0.0,0.0,0.0,"(-1.0, 0.0, 0.0, 0.0, 0.0, 0.0, 0.0, 0.0, 0.0, 0.0, 0.0, 0.0, 0.0, 0.0, 0.0, 0.0, 0.0, 0.0, 0.0, 0.0, 0.0, 0.0, 0.0, 0.0, 0.0, 0.0, 0.0, 0.0, 0.0, 0.0, 0.0, 0.0, 0.0, 0.0, 0.0, 0.0)"
1737286264.3405735,20783,1737286260,141319424,map,base_link,2.4030883467369755,6.078686980702898,2.011,0.008122588574903111,0.009689981112375992,-0.6827723039338793,-0.7305218058358743,"(0.4664890000000001, 0.0, 0.0, 0.0, 0.0, 0.0, 0.0, 0.4664890000000001, 0.0, 0.0, 0.0, 0.0, 0.0, 0.0, 1.032256, 0.0, 0.0, 0.0, 0.0, 0.0, 0.0, 99999.0, 0.0, 0.0, 0.0, 0.0, 0.0, 0.0, 99999.0, 0.0, 0.0, 0.0, 0.0, 0.0, 0.0, 99999.0)",-0.06,0.11,-0.01,0.0,0.0,0.0,"(-1.0, 0.0, 0.0, 0.0, 0.0, 0.0, 0.0, 0.0, 0.0, 0.0, 0.0, 0.0, 0.0, 0.0, 0.0, 0.0, 0.0, 0.0, 0.0, 0.0, 0.0, 0.0, 0.0, 0.0, 0.0, 0.0, 0.0, 0.0, 0.0, 0.0, 0.0, 0.0, 0.0, 0.0, 0.0, 0.0)"
1737286264.3408682,20784,1737286260,241322240,map,base_link,2.39381001124197,6.0897794731922446,2.012,0.006938474804446921,0.010049080195108352,-0.6809821490078493,-0.7321981878475745,"(0.46922500000000006, 0.0, 0.0, 0.0, 0.0, 0.0, 0.0, 0.46922500000000006, 0.0, 0.0, 0.0, 0.0, 0.0, 0.0, 1.0342889999999998, 0.0, 0.0, 0.0, 0.0, 0.0, 0.0, 99999.0, 0.0, 0.0, 0.0, 0.0, 0.0, 0.0, 99999.0, 0.0, 0.0, 0.0, 0.0, 0.0, 0.0, 99999.0)",-0.04,0.08,0.0,0.0,0.0,0.0,"(-1.0, 0.0, 0.0, 0.0, 0.0, 0.0, 0.0, 0.0, 0.0, 0.0, 0.0, 0.0, 0.0, 0.0, 0.0, 0.0, 0.0, 0.0, 0.0, 0.0, 0.0, 0.0, 0.0, 0.0, 0.0, 0.0, 0.0, 0.0, 0.0, 0.0, 0.0, 0.0, 0.0, 0.0, 0.0, 0.0)"
1737286264.3410246,20785,1737286260,341325056,map,base_link,2.3845316756474007,6.100871964805227,2.012,0.007228276995491084,0.0074618094812077375,-0.6801267209553356,-0.7330209525337497,"(0.46922500000000006, 0.0, 0.0, 0.0, 0.0, 0.0, 0.0, 0.46922500000000006, 0.0, 0.0, 0.0, 0.0, 0.0, 0.0, 1.0342889999999998, 0.0, 0.0, 0.0, 0.0, 0.0, 0.0, 99999.0, 0.0, 0.0, 0.0, 0.0, 0.0, 0.0, 99999.0, 0.0, 0.0, 0.0, 0.0, 0.0, 0.0, 99999.0)",-0.04,0.1,0.0,0.0,0.0,0.0,"(-1.0, 0.0, 0.0, 0.0, 0.0, 0.0, 0.0, 0.0, 0.0, 0.0, 0.0, 0.0, 0.0, 0.0, 0.0, 0.0, 0.0, 0.0, 0.0, 0.0, 0.0, 0.0, 0.0, 0.0, 0.0, 0.0, 0.0, 0.0, 0.0, 0.0, 0.0, 0.0, 0.0, 0.0, 0.0, 0.0)"
1737286264.3411126,20786,1737286260,441327872,map,base_link,2.375253341697556,6.100871962380041,2.013,0.010258130847642608,0.008792614963394622,-0.6797367509697624,-0.7333317189749051,"(0.47059600000000007, 0.0, 0.0, 0.0, 0.0, 0.0, 0.0, 0.47059600000000007, 0.0, 0.0, 0.0, 0.0, 0.0, 0.0, 1.0342889999999998, 0.0, 0.0, 0.0, 0.0, 0.0, 0.0, 99999.0, 0.0, 0.0, 0.0, 0.0, 0.0, 0.0, 99999.0, 0.0, 0.0, 0.0, 0.0, 0.0, 0.0, 99999.0)",-0.05,0.1,0.0,0.0,0.0,0.0,"(-1.0, 0.0, 0.0, 0.0, 0.0, 0.0, 0.0, 0.0, 0.0, 0.0, 0.0, 0.0, 0.0, 0.0, 0.0, 0.0, 0.0, 0.0, 0.0, 0.0, 0.0, 0.0, 0.0, 0.0, 0.0, 0.0, 0.0, 0.0, 0.0, 0.0, 0.0, 0.0, 0.0, 0.0, 0.0, 0.0)"
1737286264.341138,20787,1737286260,541330688,map,base_link,2.3659750061527687,6.111964454237359,2.014,0.01323264876589776,0.008137321258939366,-0.6793329211747097,-0.733665770782311,"(0.47059600000000007, 0.0, 0.0, 0.0, 0.0, 0.0, 0.0, 0.47059600000000007, 0.0, 0.0, 0.0, 0.0, 0.0, 0.0, 1.0342889999999998, 0.0, 0.0, 0.0, 0.0, 0.0, 0.0, 99999.0, 0.0, 0.0, 0.0, 0.0, 0.0, 0.0, 99999.0, 0.0, 0.0, 0.0, 0.0, 0.0, 0.0, 99999.0)",-0.03,0.1,0.0,0.0,0.0,0.0,"(-1.0, 0.0, 0.0, 0.0, 0.0, 0.0, 0.0, 0.0, 0.0, 0.0, 0.0, 0.0, 0.0, 0.0, 0.0, 0.0, 0.0, 0.0, 0.0, 0.0, 0.0, 0.0, 0.0, 0.0, 0.0, 0.0, 0.0, 0.0, 0.0, 0.0, 0.0, 0.0, 0.0, 0.0, 0.0, 0.0)"
1737286264.3411868,20788,1737286260,641333504,map,base_link,2.356696671980277,6.111964451774446,2.016,0.01641842348125017,0.004540670104501028,-0.6773530426421285,-0.7354608577680006,"(0.4719690000000001, 0.0, 0.0, 0.0, 0.0, 0.0, 0.0, 0.4719690000000001, 0.0, 0.0, 0.0, 0.0, 0.0, 0.0, 1.036324, 0.0, 0.0, 0.0, 0.0, 0.0, 0.0, 99999.0, 0.0, 0.0, 0.0, 0.0, 0.0, 0.0, 99999.0, 0.0, 0.0, 0.0, 0.0, 0.0, 0.0, 99999.0)",0.0,0.09,0.01,0.0,0.0,0.0,"(-1.0, 0.0, 0.0, 0.0, 0.0, 0.0, 0.0, 0.0, 0.0, 0.0, 0.0, 0.0, 0.0, 0.0, 0.0, 0.0, 0.0, 0.0, 0.0, 0.0, 0.0, 0.0, 0.0, 0.0, 0.0, 0.0, 0.0, 0.0, 0.0, 0.0, 0.0, 0.0, 0.0, 0.0, 0.0, 0.0)"
1737286264.3426611,20789,1737286260,741336320,map,base_link,2.3474183367079178,6.123056943138442,2.018,0.011844334982543859,0.007657345298738714,-0.6755911934698762,-0.7371415170086039,"(0.4719690000000001, 0.0, 0.0, 0.0, 0.0, 0.0, 0.0, 0.4719690000000001, 0.0, 0.0, 0.0, 0.0, 0.0, 0.0, 1.036324, 0.0, 0.0, 0.0, 0.0, 0.0, 0.0, 99999.0, 0.0, 0.0, 0.0, 0.0, 0.0, 0.0, 99999.0, 0.0, 0.0, 0.0, 0.0, 0.0, 0.0, 99999.0)",0.0,0.08,0.01,0.0,0.0,0.0,"(-1.0, 0.0, 0.0, 0.0, 0.0, 0.0, 0.0, 0.0, 0.0, 0.0, 0.0, 0.0, 0.0, 0.0, 0.0, 0.0, 0.0, 0.0, 0.0, 0.0, 0.0, 0.0, 0.0, 0.0, 0.0, 0.0, 0.0, 0.0, 0.0, 0.0, 0.0, 0.0, 0.0, 0.0, 0.0, 0.0)"
1737286264.342723,20790,1737286260,841339392,map,base_link,2.3381400044283844,6.1341494452128895,2.02,0.007728577419831092,0.01267128601231926,-0.675128298472547,-0.7375510071875864,"(0.47334399999999993, 0.0, 0.0, 0.0, 0.0, 0.0, 0.0, 0.47334399999999993, 0.0, 0.0, 0.0, 0.0, 0.0, 0.0, 1.0383609999999999, 0.0, 0.0, 0.0, 0.0, 0.0, 0.0, 99999.0, 0.0, 0.0, 0.0, 0.0, 0.0, 0.0, 99999.0, 0.0, 0.0, 0.0, 0.0, 0.0, 0.0, 99999.0)",-0.01,0.09,0.01,0.0,0.0,0.0,"(-1.0, 0.0, 0.0, 0.0, 0.0, 0.0, 0.0, 0.0, 0.0, 0.0, 0.0, 0.0, 0.0, 0.0, 0.0, 0.0, 0.0, 0.0, 0.0, 0.0, 0.0, 0.0, 0.0, 0.0, 0.0, 0.0, 0.0, 0.0, 0.0, 0.0, 0.0, 0.0, 0.0, 0.0, 0.0, 0.0)"
1737286264.3429587,20791,1737286260,941342208,map,base_link,2.32886167047854,6.134149442400011,2.023,0.01335327938448379,0.017136788833216086,-0.6755310972859389,-0.7370113682961894,"(0.47334399999999993, 0.0, 0.0, 0.0, 0.0, 0.0, 0.0, 0.47334399999999993, 0.0, 0.0, 0.0, 0.0, 0.0, 0.0, 1.0383609999999999, 0.0, 0.0, 0.0, 0.0, 0.0, 0.0, 99999.0, 0.0, 0.0, 0.0, 0.0, 0.0, 0.0, 99999.0, 0.0, 0.0, 0.0, 0.0, 0.0, 0.0, 99999.0)",-0.04,0.1,0.0,0.0,0.0,0.0,"(-1.0, 0.0, 0.0, 0.0, 0.0, 0.0, 0.0, 0.0, 0.0, 0.0, 0.0, 0.0, 0.0, 0.0, 0.0, 0.0, 0.0, 0.0, 0.0, 0.0, 0.0, 0.0, 0.0, 0.0, 0.0, 0.0, 0.0, 0.0, 0.0, 0.0, 0.0, 0.0, 0.0, 0.0, 0.0, 0.0)"
1737286264.343038,20792,1737286261,41345024,map,base_link,2.3195833351563993,6.145241934295056,2.024,0.0147189262876799,0.019172497376463808,-0.6762224124964922,-0.7363009013920271,"(0.47472099999999995, 0.0, 0.0, 0.0, 0.0, 0.0, 0.0, 0.47472099999999995, 0.0, 0.0, 0.0, 0.0, 0.0, 0.0, 1.0404, 0.0, 0.0, 0.0, 0.0, 0.0, 0.0, 99999.0, 0.0, 0.0, 0.0, 0.0, 0.0, 0.0, 99999.0, 0.0, 0.0, 0.0, 0.0, 0.0, 0.0, 99999.0)",-0.04,0.09,0.0,0.0,0.0,0.0,"(-1.0, 0.0, 0.0, 0.0, 0.0, 0.0, 0.0, 0.0, 0.0, 0.0, 0.0, 0.0, 0.0, 0.0, 0.0, 0.0, 0.0, 0.0, 0.0, 0.0, 0.0, 0.0, 0.0, 0.0, 0.0, 0.0, 0.0, 0.0, 0.0, 0.0, 0.0, 0.0, 0.0, 0.0, 0.0, 0.0)"
1737286264.3431113,20793,1737286261,141348096,map,base_link,2.3103049981761683,6.156334426600422,2.023,0.013487564127603739,0.01517424260557591,-0.6770201007878338,-0.7356844507698134,"(0.47472099999999995, 0.0, 0.0, 0.0, 0.0, 0.0, 0.0, 0.47472099999999995, 0.0, 0.0, 0.0, 0.0, 0.0, 0.0, 1.0404, 0.0, 0.0, 0.0, 0.0, 0.0, 0.0, 99999.0, 0.0, 0.0, 0.0, 0.0, 0.0, 0.0, 99999.0, 0.0, 0.0, 0.0, 0.0, 0.0, 0.0, 99999.0)",-0.05,0.1,0.0,0.0,0.0,0.0,"(-1.0, 0.0, 0.0, 0.0, 0.0, 0.0, 0.0, 0.0, 0.0, 0.0, 0.0, 0.0, 0.0, 0.0, 0.0, 0.0, 0.0, 0.0, 0.0, 0.0, 0.0, 0.0, 0.0, 0.0, 0.0, 0.0, 0.0, 0.0, 0.0, 0.0, 0.0, 0.0, 0.0, 0.0, 0.0, 0.0)"
1737286264.3431876,20794,1737286261,241349632,map,base_link,2.3010266658346317,6.156334423908271,2.023,0.016289480945934864,0.010845798211389713,-0.6762242230108088,-0.736435891089712,"(0.4760999999999999, 0.0, 0.0, 0.0, 0.0, 0.0, 0.0, 0.4760999999999999, 0.0, 0.0, 0.0, 0.0, 0.0, 0.0, 1.0424409999999997, 0.0, 0.0, 0.0, 0.0, 0.0, 0.0, 99999.0, 0.0, 0.0, 0.0, 0.0, 0.0, 0.0, 99999.0, 0.0, 0.0, 0.0, 0.0, 0.0, 0.0, 99999.0)",-0.04,0.08,0.01,0.0,0.0,0.0,"(-1.0, 0.0, 0.0, 0.0, 0.0, 0.0, 0.0, 0.0, 0.0, 0.0, 0.0, 0.0, 0.0, 0.0, 0.0, 0.0, 0.0, 0.0, 0.0, 0.0, 0.0, 0.0, 0.0, 0.0, 0.0, 0.0, 0.0, 0.0, 0.0, 0.0, 0.0, 0.0, 0.0, 0.0, 0.0, 0.0)"
1737286264.3432488,20795,1737286261,341350912,map,base_link,2.2917483285086715,6.167426916626853,2.024,0.01126420339668897,0.007016380639258854,-0.6736836408409517,-0.7389006971087809,"(0.4760999999999999, 0.0, 0.0, 0.0, 0.0, 0.0, 0.0, 0.4760999999999999, 0.0, 0.0, 0.0, 0.0, 0.0, 0.0, 1.0424409999999997, 0.0, 0.0, 0.0, 0.0, 0.0, 0.0, 99999.0, 0.0, 0.0, 0.0, 0.0, 0.0, 0.0, 99999.0, 0.0, 0.0, 0.0, 0.0, 0.0, 0.0, 99999.0)",-0.02,0.07,0.03,0.0,0.0,0.0,"(-1.0, 0.0, 0.0, 0.0, 0.0, 0.0, 0.0, 0.0, 0.0, 0.0, 0.0, 0.0, 0.0, 0.0, 0.0, 0.0, 0.0, 0.0, 0.0, 0.0, 0.0, 0.0, 0.0, 0.0, 0.0, 0.0, 0.0, 0.0, 0.0, 0.0, 0.0, 0.0, 0.0, 0.0, 0.0, 0.0)"
1737286264.343277,20796,1737286261,441352704,map,base_link,2.28246999318653,6.178519407358822,2.023,0.005205572950610511,0.003632022181396569,-0.6717553531351059,-0.7407458781251901,"(0.4760999999999999, 0.0, 0.0, 0.0, 0.0, 0.0, 0.0, 0.4760999999999999, 0.0, 0.0, 0.0, 0.0, 0.0, 0.0, 1.0465289999999998, 0.0, 0.0, 0.0, 0.0, 0.0, 0.0, 99999.0, 0.0, 0.0, 0.0, 0.0, 0.0, 0.0, 99999.0, 0.0, 0.0, 0.0, 0.0, 0.0, 0.0, 99999.0)",-0.03,0.09,0.02,0.0,0.0,0.0,"(-1.0, 0.0, 0.0, 0.0, 0.0, 0.0, 0.0, 0.0, 0.0, 0.0, 0.0, 0.0, 0.0, 0.0, 0.0, 0.0, 0.0, 0.0, 0.0, 0.0, 0.0, 0.0, 0.0, 0.0, 0.0, 0.0, 0.0, 0.0, 0.0, 0.0, 0.0, 0.0, 0.0, 0.0, 0.0, 0.0)"
1737286264.3433309,20797,1737286261,541353728,map,base_link,2.2824699872130996,6.189611891623257,2.019,0.00582637502673556,0.004916049957363032,-0.6694053181689483,-0.7428582676486769,"(0.4760999999999999, 0.0, 0.0, 0.0, 0.0, 0.0, 0.0, 0.4760999999999999, 0.0, 0.0, 0.0, 0.0, 0.0, 0.0, 1.0465289999999998, 0.0, 0.0, 0.0, 0.0, 0.0, 0.0, 99999.0, 0.0, 0.0, 0.0, 0.0, 0.0, 0.0, 99999.0, 0.0, 0.0, 0.0, 0.0, 0.0, 0.0, 99999.0)",-0.01,0.09,0.01,0.0,0.0,0.0,"(-1.0, 0.0, 0.0, 0.0, 0.0, 0.0, 0.0, 0.0, 0.0, 0.0, 0.0, 0.0, 0.0, 0.0, 0.0, 0.0, 0.0, 0.0, 0.0, 0.0, 0.0, 0.0, 0.0, 0.0, 0.0, 0.0, 0.0, 0.0, 0.0, 0.0, 0.0, 0.0, 0.0, 0.0, 0.0, 0.0)"
1737286264.3434298,20798,1737286261,641355008,map,base_link,2.273191651668312,6.200704383868268,2.014,0.004186583154337888,0.007847386110747078,-0.6664127287192014,-0.7455299900431563,"(0.47748099999999993, 0.0, 0.0, 0.0, 0.0, 0.0, 0.0, 0.47748099999999993, 0.0, 0.0, 0.0, 0.0, 0.0, 0.0, 1.048576, 0.0, 0.0, 0.0, 0.0, 0.0, 0.0, 99999.0, 0.0, 0.0, 0.0, 0.0, 0.0, 0.0, 99999.0, 0.0, 0.0, 0.0, 0.0, 0.0, 0.0, 99999.0)",0.02,0.07,0.04,0.0,0.0,0.0,"(-1.0, 0.0, 0.0, 0.0, 0.0, 0.0, 0.0, 0.0, 0.0, 0.0, 0.0, 0.0, 0.0, 0.0, 0.0, 0.0, 0.0, 0.0, 0.0, 0.0, 0.0, 0.0, 0.0, 0.0, 0.0, 0.0, 0.0, 0.0, 0.0, 0.0, 0.0, 0.0, 0.0, 0.0, 0.0, 0.0)"
1737286264.3434584,20799,1737286261,741356288,map,base_link,2.273191651668312,6.200704383868268,2.01,0.0032249342584618344,0.008464259553274178,-0.6666040186388901,-0.7453569872508916,"(0.47748099999999993, 0.0, 0.0, 0.0, 0.0, 0.0, 0.0, 0.47748099999999993, 0.0, 0.0, 0.0, 0.0, 0.0, 0.0, 1.048576, 0.0, 0.0, 0.0, 0.0, 0.0, 0.0, 99999.0, 0.0, 0.0, 0.0, 0.0, 0.0, 0.0, 99999.0, 0.0, 0.0, 0.0, 0.0, 0.0, 0.0, 99999.0)",0.01,0.08,0.02,0.0,0.0,0.0,"(-1.0, 0.0, 0.0, 0.0, 0.0, 0.0, 0.0, 0.0, 0.0, 0.0, 0.0, 0.0, 0.0, 0.0, 0.0, 0.0, 0.0, 0.0, 0.0, 0.0, 0.0, 0.0, 0.0, 0.0, 0.0, 0.0, 0.0, 0.0, 0.0, 0.0, 0.0, 0.0, 0.0, 0.0, 0.0, 0.0)"
1737286264.3435175,20800,1737286261,841357824,map,base_link,2.273191645472235,6.211796868094977,2.006,0.009075736939276486,0.012269277398586088,-0.6662406963026408,-0.745580599547291,"(0.47748099999999993, 0.0, 0.0, 0.0, 0.0, 0.0, 0.0, 0.47748099999999993, 0.0, 0.0, 0.0, 0.0, 0.0, 0.0, 1.050625, 0.0, 0.0, 0.0, 0.0, 0.0, 0.0, 99999.0, 0.0, 0.0, 0.0, 0.0, 0.0, 0.0, 99999.0, 0.0, 0.0, 0.0, 0.0, 0.0, 0.0, 99999.0)",0.06,0.05,0.02,0.0,0.0,0.0,"(-1.0, 0.0, 0.0, 0.0, 0.0, 0.0, 0.0, 0.0, 0.0, 0.0, 0.0, 0.0, 0.0, 0.0, 0.0, 0.0, 0.0, 0.0, 0.0, 0.0, 0.0, 0.0, 0.0, 0.0, 0.0, 0.0, 0.0, 0.0, 0.0, 0.0, 0.0, 0.0, 0.0, 0.0, 0.0, 0.0)"
1737286264.3436058,20801,1737286261,941360640,map,base_link,2.273191642986705,6.222889362614269,2.004,0.007897942991344999,0.013755968939894928,-0.6659284084081124,-0.7458470021995585,"(0.47748099999999993, 0.0, 0.0, 0.0, 0.0, 0.0, 0.0, 0.47748099999999993, 0.0, 0.0, 0.0, 0.0, 0.0, 0.0, 1.050625, 0.0, 0.0, 0.0, 0.0, 0.0, 0.0, 99999.0, 0.0, 0.0, 0.0, 0.0, 0.0, 0.0, 99999.0, 0.0, 0.0, 0.0, 0.0, 0.0, 0.0, 99999.0)",0.05,0.05,0.03,0.0,0.0,0.0,"(-1.0, 0.0, 0.0, 0.0, 0.0, 0.0, 0.0, 0.0, 0.0, 0.0, 0.0, 0.0, 0.0, 0.0, 0.0, 0.0, 0.0, 0.0, 0.0, 0.0, 0.0, 0.0, 0.0, 0.0, 0.0, 0.0, 0.0, 0.0, 0.0, 0.0, 0.0, 0.0, 0.0, 0.0, 0.0, 0.0)"
1737286264.343657,20802,1737286262,41362176,map,base_link,2.2824699754278046,6.222889364632012,2.002,0.011536169383318083,0.015556962697766581,-0.6683080750100546,-0.7436324458924144,"(0.47886399999999996, 0.0, 0.0, 0.0, 0.0, 0.0, 0.0, 0.47886399999999996, 0.0, 0.0, 0.0, 0.0, 0.0, 0.0, 1.052676, 0.0, 0.0, 0.0, 0.0, 0.0, 0.0, 99999.0, 0.0, 0.0, 0.0, 0.0, 0.0, 0.0, 99999.0, 0.0, 0.0, 0.0, 0.0, 0.0, 0.0, 99999.0)",0.04,0.06,0.01,0.0,0.0,0.0,"(-1.0, 0.0, 0.0, 0.0, 0.0, 0.0, 0.0, 0.0, 0.0, 0.0, 0.0, 0.0, 0.0, 0.0, 0.0, 0.0, 0.0, 0.0, 0.0, 0.0, 0.0, 0.0, 0.0, 0.0, 0.0, 0.0, 0.0, 0.0, 0.0, 0.0, 0.0, 0.0, 0.0, 0.0, 0.0, 0.0)"
1737286264.3437054,20803,1737286262,141364736,map,base_link,2.2824699754278046,6.222889364632012,2.001,0.012021389905316404,0.016121740228070912,-0.6699169310942367,-0.7421636484698255,"(0.47886399999999996, 0.0, 0.0, 0.0, 0.0, 0.0, 0.0, 0.47886399999999996, 0.0, 0.0, 0.0, 0.0, 0.0, 0.0, 1.052676, 0.0, 0.0, 0.0, 0.0, 0.0, 0.0, 99999.0, 0.0, 0.0, 0.0, 0.0, 0.0, 0.0, 99999.0, 0.0, 0.0, 0.0, 0.0, 0.0, 0.0, 99999.0)",0.07,0.02,0.02,0.0,0.0,0.0,"(-1.0, 0.0, 0.0, 0.0, 0.0, 0.0, 0.0, 0.0, 0.0, 0.0, 0.0, 0.0, 0.0, 0.0, 0.0, 0.0, 0.0, 0.0, 0.0, 0.0, 0.0, 0.0, 0.0, 0.0, 0.0, 0.0, 0.0, 0.0, 0.0, 0.0, 0.0, 0.0, 0.0, 0.0, 0.0, 0.0)"
1737286264.343753,20804,1737286262,241366016,map,base_link,2.2824699728191917,6.233981857663785,2.0,0.00861930150959166,0.015736603029235175,-0.6721982334120794,-0.7401537691346756,"(0.4802489999999999, 0.0, 0.0, 0.0, 0.0, 0.0, 0.0, 0.4802489999999999, 0.0, 0.0, 0.0, 0.0, 0.0, 0.0, 1.052676, 0.0, 0.0, 0.0, 0.0, 0.0, 0.0, 99999.0, 0.0, 0.0, 0.0, 0.0, 0.0, 0.0, 99999.0, 0.0, 0.0, 0.0, 0.0, 0.0, 0.0, 99999.0)",0.06,0.03,0.01,0.0,0.0,0.0,"(-1.0, 0.0, 0.0, 0.0, 0.0, 0.0, 0.0, 0.0, 0.0, 0.0, 0.0, 0.0, 0.0, 0.0, 0.0, 0.0, 0.0, 0.0, 0.0, 0.0, 0.0, 0.0, 0.0, 0.0, 0.0, 0.0, 0.0, 0.0, 0.0, 0.0, 0.0, 0.0, 0.0, 0.0, 0.0, 0.0)"
1737286264.3442018,20805,1737286262,341368832,map,base_link,2.282469969281509,6.233981848327671,1.998,0.006310178226290255,0.01570752195087407,-0.6744640205702654,-0.7381136364822883,"(0.4802489999999999, 0.0, 0.0, 0.0, 0.0, 0.0, 0.0, 0.4802489999999999, 0.0, 0.0, 0.0, 0.0, 0.0, 0.0, 1.052676, 0.0, 0.0, 0.0, 0.0, 0.0, 0.0, 99999.0, 0.0, 0.0, 0.0, 0.0, 0.0, 0.0, 99999.0, 0.0, 0.0, 0.0, 0.0, 0.0, 0.0, 99999.0)",0.04,0.03,0.0,0.0,0.0,0.0,"(-1.0, 0.0, 0.0, 0.0, 0.0, 0.0, 0.0, 0.0, 0.0, 0.0, 0.0, 0.0, 0.0, 0.0, 0.0, 0.0, 0.0, 0.0, 0.0, 0.0, 0.0, 0.0, 0.0, 0.0, 0.0, 0.0, 0.0, 0.0, 0.0, 0.0, 0.0, 0.0, 0.0, 0.0, 0.0, 0.0)"
1737286264.3442216,20806,1737286262,441370368,map,base_link,2.282469969281509,6.233981848327671,1.996,0.011062842286253899,0.016799125023693344,-0.6766256552058734,-0.7360523932684481,"(0.4802489999999999, 0.0, 0.0, 0.0, 0.0, 0.0, 0.0, 0.4802489999999999, 0.0, 0.0, 0.0, 0.0, 0.0, 0.0, 1.050625, 0.0, 0.0, 0.0, 0.0, 0.0, 0.0, 99999.0, 0.0, 0.0, 0.0, 0.0, 0.0, 0.0, 99999.0, 0.0, 0.0, 0.0, 0.0, 0.0, 0.0, 99999.0)",0.04,0.03,0.0,0.0,0.0,0.0,"(-1.0, 0.0, 0.0, 0.0, 0.0, 0.0, 0.0, 0.0, 0.0, 0.0, 0.0, 0.0, 0.0, 0.0, 0.0, 0.0, 0.0, 0.0, 0.0, 0.0, 0.0, 0.0, 0.0, 0.0, 0.0, 0.0, 0.0, 0.0, 0.0, 0.0, 0.0, 0.0, 0.0, 0.0, 0.0, 0.0)"
1737286264.3442683,20807,1737286262,541372928,map,base_link,2.282469969281509,6.233981848327671,1.993,0.013083991598648733,0.018525232687864164,-0.676953358345322,-0.7356764068139586,"(0.4802489999999999, 0.0, 0.0, 0.0, 0.0, 0.0, 0.0, 0.4802489999999999, 0.0, 0.0, 0.0, 0.0, 0.0, 0.0, 1.050625, 0.0, 0.0, 0.0, 0.0, 0.0, 0.0, 99999.0, 0.0, 0.0, 0.0, 0.0, 0.0, 0.0, 99999.0, 0.0, 0.0, 0.0, 0.0, 0.0, 0.0, 99999.0)",0.07,0.0,0.01,0.0,0.0,0.0,"(-1.0, 0.0, 0.0, 0.0, 0.0, 0.0, 0.0, 0.0, 0.0, 0.0, 0.0, 0.0, 0.0, 0.0, 0.0, 0.0, 0.0, 0.0, 0.0, 0.0, 0.0, 0.0, 0.0, 0.0, 0.0, 0.0, 0.0, 0.0, 0.0, 0.0, 0.0, 0.0, 0.0, 0.0, 0.0, 0.0)"
1737286264.3443556,20808,1737286262,641374464,map,base_link,2.2917483018954736,6.233981850526499,1.99,0.012387423157345477,0.01763240512551925,-0.6758750099643474,-0.736701174793894,"(0.48163599999999995, 0.0, 0.0, 0.0, 0.0, 0.0, 0.0, 0.48163599999999995, 0.0, 0.0, 0.0, 0.0, 0.0, 0.0, 1.050625, 0.0, 0.0, 0.0, 0.0, 0.0, 0.0, 99999.0, 0.0, 0.0, 0.0, 0.0, 0.0, 0.0, 99999.0, 0.0, 0.0, 0.0, 0.0, 0.0, 0.0, 99999.0)",0.07,0.0,0.02,0.0,0.0,0.0,"(-1.0, 0.0, 0.0, 0.0, 0.0, 0.0, 0.0, 0.0, 0.0, 0.0, 0.0, 0.0, 0.0, 0.0, 0.0, 0.0, 0.0, 0.0, 0.0, 0.0, 0.0, 0.0, 0.0, 0.0, 0.0, 0.0, 0.0, 0.0, 0.0, 0.0, 0.0, 0.0, 0.0, 0.0, 0.0, 0.0)"
1737286264.3456407,20809,1737286262,741377024,map,base_link,2.291748298407573,6.2339818402716425,1.986,0.011001119183252112,0.017111949310776725,-0.6738551501254342,-0.7385833691716391,"(0.48163599999999995, 0.0, 0.0, 0.0, 0.0, 0.0, 0.0, 0.48163599999999995, 0.0, 0.0, 0.0, 0.0, 0.0, 0.0, 1.050625, 0.0, 0.0, 0.0, 0.0, 0.0, 0.0, 99999.0, 0.0, 0.0, 0.0, 0.0, 0.0, 0.0, 99999.0, 0.0, 0.0, 0.0, 0.0, 0.0, 0.0, 99999.0)",0.06,0.0,0.02,0.0,0.0,0.0,"(-1.0, 0.0, 0.0, 0.0, 0.0, 0.0, 0.0, 0.0, 0.0, 0.0, 0.0, 0.0, 0.0, 0.0, 0.0, 0.0, 0.0, 0.0, 0.0, 0.0, 0.0, 0.0, 0.0, 0.0, 0.0, 0.0, 0.0, 0.0, 0.0, 0.0, 0.0, 0.0, 0.0, 0.0, 0.0, 0.0)"
1737286264.345691,20810,1737286262,841378560,map,base_link,2.291748298407573,6.2339818402716425,1.981,0.011005535941200913,0.017191848345715043,-0.6729614704795255,-0.7393958194222766,"(0.48163599999999995, 0.0, 0.0, 0.0, 0.0, 0.0, 0.0, 0.48163599999999995, 0.0, 0.0, 0.0, 0.0, 0.0, 0.0, 1.050625, 0.0, 0.0, 0.0, 0.0, 0.0, 0.0, 99999.0, 0.0, 0.0, 0.0, 0.0, 0.0, 0.0, 99999.0, 0.0, 0.0, 0.0, 0.0, 0.0, 0.0, 99999.0)",0.02,0.0,0.0,0.0,0.0,0.0,"(-1.0, 0.0, 0.0, 0.0, 0.0, 0.0, 0.0, 0.0, 0.0, 0.0, 0.0, 0.0, 0.0, 0.0, 0.0, 0.0, 0.0, 0.0, 0.0, 0.0, 0.0, 0.0, 0.0, 0.0, 0.0, 0.0, 0.0, 0.0, 0.0, 0.0, 0.0, 0.0, 0.0, 0.0, 0.0, 0.0)"
1737286264.3458028,20811,1737286262,941379584,map,base_link,2.301026629092163,6.233981832867391,1.975,0.0159516968526737,0.01936388433015068,-0.6711944504875688,-0.7408566615654202,"(0.48163599999999995, 0.0, 0.0, 0.0, 0.0, 0.0, 0.0, 0.48163599999999995, 0.0, 0.0, 0.0, 0.0, 0.0, 0.0, 1.050625, 0.0, 0.0, 0.0, 0.0, 0.0, 0.0, 99999.0, 0.0, 0.0, 0.0, 0.0, 0.0, 0.0, 99999.0, 0.0, 0.0, 0.0, 0.0, 0.0, 0.0, 99999.0)",0.03,0.0,0.0,0.0,0.0,0.0,"(-1.0, 0.0, 0.0, 0.0, 0.0, 0.0, 0.0, 0.0, 0.0, 0.0, 0.0, 0.0, 0.0, 0.0, 0.0, 0.0, 0.0, 0.0, 0.0, 0.0, 0.0, 0.0, 0.0, 0.0, 0.0, 0.0, 0.0, 0.0, 0.0, 0.0, 0.0, 0.0, 0.0, 0.0, 0.0, 0.0)"
1737286264.3458574,20812,1737286263,41379584,map,base_link,2.301026629092163,6.233981832867391,1.972,0.017753892567089695,0.019382579280849938,-0.6690857136260482,-0.742720285666589,"(0.4830249999999999, 0.0, 0.0, 0.0, 0.0, 0.0, 0.0, 0.4830249999999999, 0.0, 0.0, 0.0, 0.0, 0.0, 0.0, 1.050625, 0.0, 0.0, 0.0, 0.0, 0.0, 0.0, 99999.0, 0.0, 0.0, 0.0, 0.0, 0.0, 0.0, 99999.0, 0.0, 0.0, 0.0, 0.0, 0.0, 0.0, 99999.0)",0.04,0.0,0.0,0.0,0.0,0.0,"(-1.0, 0.0, 0.0, 0.0, 0.0, 0.0, 0.0, 0.0, 0.0, 0.0, 0.0, 0.0, 0.0, 0.0, 0.0, 0.0, 0.0, 0.0, 0.0, 0.0, 0.0, 0.0, 0.0, 0.0, 0.0, 0.0, 0.0, 0.0, 0.0, 0.0, 0.0, 0.0, 0.0, 0.0, 0.0, 0.0)"
1737286264.3462033,20813,1737286263,141382656,map,base_link,2.301026629092163,6.233981832867391,1.97,0.02414045266944742,0.006019209097192065,-0.6665268423739906,-0.7450657528444828,"(0.4830249999999999, 0.0, 0.0, 0.0, 0.0, 0.0, 0.0, 0.4830249999999999, 0.0, 0.0, 0.0, 0.0, 0.0, 0.0, 1.050625, 0.0, 0.0, 0.0, 0.0, 0.0, 0.0, 99999.0, 0.0, 0.0, 0.0, 0.0, 0.0, 0.0, 99999.0, 0.0, 0.0, 0.0, 0.0, 0.0, 0.0, 99999.0)",0.05,0.02,0.0,0.0,0.0,0.0,"(-1.0, 0.0, 0.0, 0.0, 0.0, 0.0, 0.0, 0.0, 0.0, 0.0, 0.0, 0.0, 0.0, 0.0, 0.0, 0.0, 0.0, 0.0, 0.0, 0.0, 0.0, 0.0, 0.0, 0.0, 0.0, 0.0, 0.0, 0.0, 0.0, 0.0, 0.0, 0.0, 0.0, 0.0, 0.0, 0.0)"
1737286264.3464346,20814,1737286263,241384448,map,base_link,2.3010266228960856,6.2450743170941,1.966,0.03450713919054325,-0.021478465831271137,-0.6645549448927824,-0.7461331369594637,"(0.4830249999999999, 0.0, 0.0, 0.0, 0.0, 0.0, 0.0, 0.4830249999999999, 0.0, 0.0, 0.0, 0.0, 0.0, 0.0, 1.050625, 0.0, 0.0, 0.0, 0.0, 0.0, 0.0, 99999.0, 0.0, 0.0, 0.0, 0.0, 0.0, 0.0, 99999.0, 0.0, 0.0, 0.0, 0.0, 0.0, 0.0, 99999.0)",0.06,0.08,0.02,0.0,0.0,0.0,"(-1.0, 0.0, 0.0, 0.0, 0.0, 0.0, 0.0, 0.0, 0.0, 0.0, 0.0, 0.0, 0.0, 0.0, 0.0, 0.0, 0.0, 0.0, 0.0, 0.0, 0.0, 0.0, 0.0, 0.0, 0.0, 0.0, 0.0, 0.0, 0.0, 0.0, 0.0, 0.0, 0.0, 0.0, 0.0, 0.0)"
1737286264.3475685,20815,1737286263,341385984,map,base_link,2.301026619965263,6.256166810374863,1.961,0.049619279080878195,-0.05318604943964163,-0.66272476953415,-0.7453221123342614,"(0.4830249999999999, 0.0, 0.0, 0.0, 0.0, 0.0, 0.0, 0.4830249999999999, 0.0, 0.0, 0.0, 0.0, 0.0, 0.0, 1.050625, 0.0, 0.0, 0.0, 0.0, 0.0, 0.0, 99999.0, 0.0, 0.0, 0.0, 0.0, 0.0, 0.0, 99999.0, 0.0, 0.0, 0.0, 0.0, 0.0, 0.0, 99999.0)",0.06,0.22,0.01,0.0,0.0,0.0,"(-1.0, 0.0, 0.0, 0.0, 0.0, 0.0, 0.0, 0.0, 0.0, 0.0, 0.0, 0.0, 0.0, 0.0, 0.0, 0.0, 0.0, 0.0, 0.0, 0.0, 0.0, 0.0, 0.0, 0.0, 0.0, 0.0, 0.0, 0.0, 0.0, 0.0, 0.0, 0.0, 0.0, 0.0, 0.0, 0.0)"
1737286264.3476207,20816,1737286263,441387776,map,base_link,2.310304941016579,6.28944428562017,1.956,0.06640820402600801,-0.0805407668412508,-0.655577057240641,-0.7478782369706748,"(0.48441599999999996, 0.0, 0.0, 0.0, 0.0, 0.0, 0.0, 0.48441599999999996, 0.0, 0.0, 0.0, 0.0, 0.0, 0.0, 1.050625, 0.0, 0.0, 0.0, 0.0, 0.0, 0.0, 99999.0, 0.0, 0.0, 0.0, 0.0, 0.0, 0.0, 99999.0, 0.0, 0.0, 0.0, 0.0, 0.0, 0.0, 99999.0)",0.12,0.4,0.0,0.0,0.0,0.0,"(-1.0, 0.0, 0.0, 0.0, 0.0, 0.0, 0.0, 0.0, 0.0, 0.0, 0.0, 0.0, 0.0, 0.0, 0.0, 0.0, 0.0, 0.0, 0.0, 0.0, 0.0, 0.0, 0.0, 0.0, 0.0, 0.0, 0.0, 0.0, 0.0, 0.0, 0.0, 0.0, 0.0, 0.0, 0.0, 0.0)"
1737286264.3476562,20817,1737286263,541389568,map,base_link,2.328861593843121,6.344906759145922,1.951,0.08463908291593338,-0.09976606769845166,-0.6390700986919977,-0.7579395532210585,"(0.48441599999999996, 0.0, 0.0, 0.0, 0.0, 0.0, 0.0, 0.48441599999999996, 0.0, 0.0, 0.0, 0.0, 0.0, 0.0, 1.050625, 0.0, 0.0, 0.0, 0.0, 0.0, 0.0, 99999.0, 0.0, 0.0, 0.0, 0.0, 0.0, 0.0, 99999.0, 0.0, 0.0, 0.0, 0.0, 0.0, 0.0, 99999.0)",0.22,0.59,0.02,0.0,0.0,0.0,"(-1.0, 0.0, 0.0, 0.0, 0.0, 0.0, 0.0, 0.0, 0.0, 0.0, 0.0, 0.0, 0.0, 0.0, 0.0, 0.0, 0.0, 0.0, 0.0, 0.0, 0.0, 0.0, 0.0, 0.0, 0.0, 0.0, 0.0, 0.0, 0.0, 0.0, 0.0, 0.0, 0.0, 0.0, 0.0, 0.0)"
1737286264.3477528,20818,1737286263,641391104,map,base_link,2.347418237566283,6.422554211177992,1.947,0.09712654165399279,-0.10873922044997629,-0.6140293184490994,-0.7756998214046469,"(0.48441599999999996, 0.0, 0.0, 0.0, 0.0, 0.0, 0.0, 0.48441599999999996, 0.0, 0.0, 0.0, 0.0, 0.0, 0.0, 1.048576, 0.0, 0.0, 0.0, 0.0, 0.0, 0.0, 99999.0, 0.0, 0.0, 0.0, 0.0, 0.0, 0.0, 99999.0, 0.0, 0.0, 0.0, 0.0, 0.0, 0.0, 99999.0)",0.3,0.86,0.0,0.0,0.0,0.0,"(-1.0, 0.0, 0.0, 0.0, 0.0, 0.0, 0.0, 0.0, 0.0, 0.0, 0.0, 0.0, 0.0, 0.0, 0.0, 0.0, 0.0, 0.0, 0.0, 0.0, 0.0, 0.0, 0.0, 0.0, 0.0, 0.0, 0.0, 0.0, 0.0, 0.0, 0.0, 0.0, 0.0, 0.0, 0.0, 0.0)"
