Time,header.seq,header.stamp.secs,header.stamp.nsecs,header.frame_id,status.status,status.service,latitude,longitude,altitude,position_covariance_0,position_covariance_1,position_covariance_2,position_covariance_3,position_covariance_4,position_covariance_5,position_covariance_6,position_covariance_7,position_covariance_8,position_covariance_type
1737286264.299484,1726,1737286254,341182976,base_link,0,1,33.6371079,72.9912748,520.8360170198929,0.45158400000000004,0.0,0.0,0.0,0.45158400000000004,0.0,0.0,0.0,1.0221209999999998,2
1737286264.2995615,1727,1737286254,441184768,base_link,0,1,33.637108,72.9912749,520.8360180300153,0.45158400000000004,0.0,0.0,0.0,0.45158400000000004,0.0,0.0,0.0,1.024144,2
1737286264.299639,1728,1737286254,541187840,base_link,0,1,33.637108,72.9912749,520.8260180300153,0.45158400000000004,0.0,0.0,0.0,0.45158400000000004,0.0,0.0,0.0,1.024144,2
1737286264.300096,1729,1737286254,641189888,base_link,0,1,33.637108,72.9912749,520.8260180300153,0.4529290000000001,0.0,0.0,0.0,0.4529290000000001,0.0,0.0,0.0,1.024144,2
1737286264.3016279,1730,1737286254,741191680,base_link,0,1,33.637108,72.9912749,520.8260180300153,0.4529290000000001,0.0,0.0,0.0,0.4529290000000001,0.0,0.0,0.0,1.024144,2
1737286264.3016825,1731,1737286254,841193728,base_link,0,1,33.6371081,72.9912749,520.8260186429621,0.4529290000000001,0.0,0.0,0.0,0.4529290000000001,0.0,0.0,0.0,1.024144,2
1737286264.3017087,1732,1737286254,941197056,base_link,0,1,33.6371082,72.9912749,520.826019255909,0.4529290000000001,0.0,0.0,0.0,0.4529290000000001,0.0,0.0,0.0,1.024144,2
1737286264.3017757,1733,1737286255,41198848,base_link,0,1,33.6371083,72.9912749,520.8260198688561,0.45427600000000007,0.0,0.0,0.0,0.45427600000000007,0.0,0.0,0.0,1.0221209999999998,2
1737286264.3018537,1734,1737286255,141197312,base_link,0,1,33.6371084,72.9912748,520.8260200846274,0.45427600000000007,0.0,0.0,0.0,0.45427600000000007,0.0,0.0,0.0,1.0221209999999998,2
1737286264.3019338,1735,1737286255,241199360,base_link,0,1,33.6371086,72.9912748,520.8360213105217,0.45427600000000007,0.0,0.0,0.0,0.45427600000000007,0.0,0.0,0.0,1.0221209999999998,2
1737286264.3020232,1736,1737286255,341202432,base_link,0,1,33.6371088,72.9912747,520.8360221392404,0.45427600000000007,0.0,0.0,0.0,0.45427600000000007,0.0,0.0,0.0,1.0221209999999998,2
1737286264.3023636,1737,1737286255,441204480,base_link,0,1,33.6371091,72.9912747,520.8360239780831,0.45427600000000007,0.0,0.0,0.0,0.45427600000000007,0.0,0.0,0.0,1.0221209999999998,2
1737286264.302442,1738,1737286255,541206272,base_link,0,1,33.6371094,72.9912747,520.8460258169266,0.45427600000000007,0.0,0.0,0.0,0.45427600000000007,0.0,0.0,0.0,1.0221209999999998,2
1737286264.3024871,1739,1737286255,641208576,base_link,0,1,33.6371097,72.9912747,520.846027655771,0.45427600000000007,0.0,0.0,0.0,0.45427600000000007,0.0,0.0,0.0,1.0201,2
1737286264.3025575,1740,1737286255,741210624,base_link,0,1,33.63711,72.9912747,520.8560294946159,0.45427600000000007,0.0,0.0,0.0,0.45427600000000007,0.0,0.0,0.0,1.0201,2
1737286264.302689,1741,1737286255,841212672,base_link,0,1,33.6371104,72.9912747,520.8560319464106,0.45427600000000007,0.0,0.0,0.0,0.45427600000000007,0.0,0.0,0.0,1.0201,2
1737286264.3027964,1742,1737286255,941216000,base_link,0,1,33.6371108,72.9912747,520.8560343982067,0.45427600000000007,0.0,0.0,0.0,0.45427600000000007,0.0,0.0,0.0,1.0201,2
1737286264.3028963,1743,1737286256,41218304,base_link,0,1,33.6371113,72.9912747,520.8560374629537,0.45562500000000006,0.0,0.0,0.0,0.45562500000000006,0.0,0.0,0.0,1.0201,2
1737286264.3030233,1744,1737286256,141221888,base_link,0,1,33.6371118,72.9912746,520.8460401305257,0.45562500000000006,0.0,0.0,0.0,0.45562500000000006,0.0,0.0,0.0,1.0201,2
1737286264.3032012,1745,1737286256,241223936,base_link,0,1,33.6371123,72.9912746,520.846043195277,0.45562500000000006,0.0,0.0,0.0,0.45562500000000006,0.0,0.0,0.0,1.0201,2
1737286264.3056414,1746,1737286256,341225984,base_link,0,1,33.6371129,72.9912746,520.8360468729815,0.45562500000000006,0.0,0.0,0.0,0.45562500000000006,0.0,0.0,0.0,1.0201,2
1737286264.3059244,1747,1737286256,441228288,base_link,0,1,33.6371136,72.9912746,520.8360511636408,0.45562500000000006,0.0,0.0,0.0,0.45562500000000006,0.0,0.0,0.0,1.0221209999999998,2
1737286264.3062825,1748,1737286256,541231872,base_link,0,1,33.6371141,72.9912745,520.836053831222,0.45562500000000006,0.0,0.0,0.0,0.45562500000000006,0.0,0.0,0.0,1.0221209999999998,2
1737286264.3065612,1749,1737286256,641234176,base_link,0,1,33.6371147,72.9912745,520.8360575089358,0.45562500000000006,0.0,0.0,0.0,0.45562500000000006,0.0,0.0,0.0,1.0221209999999998,2
1737286264.306799,1750,1737286256,741236480,base_link,0,1,33.6371153,72.9912746,520.8360615838317,0.45562500000000006,0.0,0.0,0.0,0.45562500000000006,0.0,0.0,0.0,1.0221209999999998,2
1737286264.3070822,1751,1737286256,841238784,base_link,0,1,33.6371158,72.9912746,520.8260646485986,0.45697600000000005,0.0,0.0,0.0,0.45697600000000005,0.0,0.0,0.0,1.0221209999999998,2
1737286264.3075294,1752,1737286256,941240832,base_link,0,1,33.6371163,72.9912746,520.8260677133678,0.45697600000000005,0.0,0.0,0.0,0.45697600000000005,0.0,0.0,0.0,1.0221209999999998,2
1737286264.3084939,1753,1737286257,41243136,base_link,0,1,33.6371168,72.9912747,520.8260711753187,0.45697600000000005,0.0,0.0,0.0,0.45697600000000005,0.0,0.0,0.0,1.0221209999999998,2
1737286264.3090796,1754,1737286257,141245952,base_link,0,1,33.6371172,72.9912747,520.8160736271376,0.45697600000000005,0.0,0.0,0.0,0.45697600000000005,0.0,0.0,0.0,1.0221209999999998,2
1737286264.3115554,1755,1737286257,241248256,base_link,0,1,33.6371176,72.9912748,520.8060764761378,0.45832900000000004,0.0,0.0,0.0,0.45832900000000004,0.0,0.0,0.0,1.0201,2
1737286264.312029,1756,1737286257,341250816,base_link,0,1,33.637118,72.9912748,520.8060789279597,0.45832900000000004,0.0,0.0,0.0,0.45832900000000004,0.0,0.0,0.0,1.0201,2
1737286264.3123822,1757,1737286257,441253376,base_link,0,1,33.6371184,72.991275,520.7960821741435,0.45832900000000004,0.0,0.0,0.0,0.45832900000000004,0.0,0.0,0.0,1.0201,2
1737286264.3125596,1758,1737286257,541255680,base_link,0,1,33.637119,72.9912751,520.7960862490622,0.45832900000000004,0.0,0.0,0.0,0.45832900000000004,0.0,0.0,0.0,1.0201,2
1737286264.313862,1759,1737286257,641258496,base_link,0,1,33.6371195,72.9912752,520.8060897110274,0.45697600000000005,0.0,0.0,0.0,0.45697600000000005,0.0,0.0,0.0,1.0201,2
1737286264.3139281,1760,1737286257,741260800,base_link,0,1,33.6371201,72.9912754,520.8060941831343,0.45697600000000005,0.0,0.0,0.0,0.45697600000000005,0.0,0.0,0.0,1.0201,2
1737286264.3142471,1761,1737286257,841263104,base_link,0,1,33.6371206,72.9912755,520.8060976451056,0.45697600000000005,0.0,0.0,0.0,0.45697600000000005,0.0,0.0,0.0,1.0201,2
1737286264.314598,1762,1737286257,941264896,base_link,0,1,33.6371211,72.9912757,520.8061015042613,0.45697600000000005,0.0,0.0,0.0,0.45697600000000005,0.0,0.0,0.0,1.0201,2
1737286264.3149953,1763,1737286258,41267456,base_link,0,1,33.6371216,72.9912759,520.8161053634201,0.45832900000000004,0.0,0.0,0.0,0.45832900000000004,0.0,0.0,0.0,1.0201,2
1737286264.3156197,1764,1737286258,141269504,base_link,0,1,33.6371221,72.991276,520.8161088254,0.45832900000000004,0.0,0.0,0.0,0.45832900000000004,0.0,0.0,0.0,1.0201,2
1737286264.3160853,1765,1737286258,241271808,base_link,0,1,33.6371225,72.9912762,520.8261120716046,0.45832900000000004,0.0,0.0,0.0,0.45832900000000004,0.0,0.0,0.0,1.0221209999999998,2
1737286264.3179326,1766,1737286258,341273856,base_link,0,1,33.6371231,72.9912764,520.8261165437332,0.45832900000000004,0.0,0.0,0.0,0.45832900000000004,0.0,0.0,0.0,1.0221209999999998,2
1737286264.3180895,1767,1737286258,441276416,base_link,0,1,33.6371236,72.9912766,520.8361204029045,0.45832900000000004,0.0,0.0,0.0,0.45832900000000004,0.0,0.0,0.0,1.0221209999999998,2
1737286264.3182456,1768,1737286258,541278464,base_link,0,1,33.637124,72.9912768,520.8361236491171,0.45832900000000004,0.0,0.0,0.0,0.45832900000000004,0.0,0.0,0.0,1.0221209999999998,2
1737286264.328003,1769,1737286258,641281024,base_link,0,1,33.6371244,72.991277,520.8261268953319,0.45968400000000004,0.0,0.0,0.0,0.45968400000000004,0.0,0.0,0.0,1.0221209999999998,2
1737286264.3280463,1770,1737286258,741283328,base_link,0,1,33.6371247,72.9912771,520.8261291314028,0.45968400000000004,0.0,0.0,0.0,0.45968400000000004,0.0,0.0,0.0,1.0221209999999998,2
1737286264.3295827,1771,1737286258,841286144,base_link,0,1,33.6371251,72.9912772,520.8161319804376,0.45968400000000004,0.0,0.0,0.0,0.45968400000000004,0.0,0.0,0.0,1.024144,2
1737286264.329651,1772,1737286258,941288192,base_link,0,1,33.6371253,72.9912773,520.8161336035477,0.45968400000000004,0.0,0.0,0.0,0.45968400000000004,0.0,0.0,0.0,1.024144,2
1737286264.3304145,1773,1737286259,41290496,base_link,0,1,33.6371256,72.9912773,520.8161354424377,0.4610410000000001,0.0,0.0,0.0,0.4610410000000001,0.0,0.0,0.0,1.024144,2
1737286264.3304698,1774,1737286259,141293056,base_link,0,1,33.6371259,72.9912773,520.8161372813287,0.4610410000000001,0.0,0.0,0.0,0.4610410000000001,0.0,0.0,0.0,1.024144,2
1737286264.3305254,1775,1737286259,241295872,base_link,0,1,33.6371261,72.9912772,520.8261381100722,0.4624000000000001,0.0,0.0,0.0,0.4624000000000001,0.0,0.0,0.0,1.0261689999999999,2
1737286264.330671,1776,1737286259,341298432,base_link,0,1,33.6371263,72.9912771,520.826138938816,0.4624000000000001,0.0,0.0,0.0,0.4624000000000001,0.0,0.0,0.0,1.0261689999999999,2
1737286264.3341882,1777,1737286259,441300992,base_link,0,1,33.6371265,72.991277,520.83613976756,0.4637610000000001,0.0,0.0,0.0,0.4637610000000001,0.0,0.0,0.0,1.028196,2
1737286264.334941,1778,1737286259,541303040,base_link,0,1,33.6371267,72.991277,520.8461409934886,0.4637610000000001,0.0,0.0,0.0,0.4637610000000001,0.0,0.0,0.0,1.028196,2
1737286264.33515,1779,1737286259,641305856,base_link,0,1,33.6371268,72.9912768,520.8461408120842,0.4651240000000001,0.0,0.0,0.0,0.4651240000000001,0.0,0.0,0.0,1.0302249999999997,2
1737286264.3388968,1780,1737286259,741308416,base_link,0,1,33.6371269,72.9912767,520.8561410278642,0.4651240000000001,0.0,0.0,0.0,0.4651240000000001,0.0,0.0,0.0,1.0302249999999997,2
1737286264.339307,1781,1737286259,841310976,base_link,0,1,33.637127,72.9912765,520.8661408464599,0.4651240000000001,0.0,0.0,0.0,0.4651240000000001,0.0,0.0,0.0,1.032256,2
1737286264.3401315,1782,1737286259,941313792,base_link,0,1,33.637127,72.9912764,520.8661404492756,0.4651240000000001,0.0,0.0,0.0,0.4651240000000001,0.0,0.0,0.0,1.032256,2
1737286264.3403015,1783,1737286260,41316608,base_link,0,1,33.6371271,72.9912762,520.8661402678712,0.4664890000000001,0.0,0.0,0.0,0.4664890000000001,0.0,0.0,0.0,1.032256,2
1737286264.3407598,1784,1737286260,141319424,base_link,0,1,33.6371271,72.9912761,520.8761398706869,0.4664890000000001,0.0,0.0,0.0,0.4664890000000001,0.0,0.0,0.0,1.032256,2
1737286264.3411827,1785,1737286260,241322240,base_link,0,1,33.6371272,72.991276,520.8761400864669,0.46922500000000006,0.0,0.0,0.0,0.46922500000000006,0.0,0.0,0.0,1.0342889999999998,2
1737286264.3426003,1786,1737286260,341325056,base_link,0,1,33.6371273,72.9912759,520.876140302247,0.46922500000000006,0.0,0.0,0.0,0.46922500000000006,0.0,0.0,0.0,1.0342889999999998,2
1737286264.3426385,1787,1737286260,441327872,base_link,0,1,33.6371273,72.9912758,520.8761399050626,0.47059600000000007,0.0,0.0,0.0,0.47059600000000007,0.0,0.0,0.0,1.0342889999999998,2
1737286264.3426597,1788,1737286260,541330688,base_link,0,1,33.6371274,72.9912757,520.8761401208426,0.47059600000000007,0.0,0.0,0.0,0.47059600000000007,0.0,0.0,0.0,1.0342889999999998,2
1737286264.3427184,1789,1737286260,641333504,base_link,0,1,33.6371274,72.9912756,520.8761397236582,0.4719690000000001,0.0,0.0,0.0,0.4719690000000001,0.0,0.0,0.0,1.036324,2
1737286264.342796,1790,1737286260,741336320,base_link,0,1,33.6371275,72.9912755,520.8761399394383,0.4719690000000001,0.0,0.0,0.0,0.4719690000000001,0.0,0.0,0.0,1.036324,2
1737286264.342852,1791,1737286260,841339392,base_link,0,1,33.6371276,72.9912754,520.8861401552184,0.47334399999999993,0.0,0.0,0.0,0.47334399999999993,0.0,0.0,0.0,1.0383609999999999,2
1737286264.3429992,1792,1737286260,941342208,base_link,0,1,33.6371276,72.9912753,520.886139758034,0.47334399999999993,0.0,0.0,0.0,0.47334399999999993,0.0,0.0,0.0,1.0383609999999999,2
1737286264.3430429,1793,1737286261,41345024,base_link,0,1,33.6371277,72.9912752,520.886139973814,0.47472099999999995,0.0,0.0,0.0,0.47472099999999995,0.0,0.0,0.0,1.0404,2
1737286264.3430827,1794,1737286261,141348096,base_link,0,1,33.6371278,72.9912751,520.8861401895941,0.47472099999999995,0.0,0.0,0.0,0.47472099999999995,0.0,0.0,0.0,1.0404,2
1737286264.3435388,1795,1737286261,241349632,base_link,0,1,33.6371278,72.991275,520.8861397924098,0.4760999999999999,0.0,0.0,0.0,0.4760999999999999,0.0,0.0,0.0,1.0424409999999997,2
1737286264.3439853,1796,1737286261,341350912,base_link,0,1,33.6371279,72.9912749,520.8861400081898,0.4760999999999999,0.0,0.0,0.0,0.4760999999999999,0.0,0.0,0.0,1.0424409999999997,2
1737286264.3440685,1797,1737286261,441352704,base_link,0,1,33.637128,72.9912748,520.8861402239701,0.4760999999999999,0.0,0.0,0.0,0.4760999999999999,0.0,0.0,0.0,1.0465289999999998,2
1737286264.3440924,1798,1737286261,541353728,base_link,0,1,33.6371281,72.9912748,520.8761408369346,0.4760999999999999,0.0,0.0,0.0,0.4760999999999999,0.0,0.0,0.0,1.0465289999999998,2
1737286264.3441327,1799,1737286261,641355008,base_link,0,1,33.6371282,72.9912747,520.8761410527148,0.47748099999999993,0.0,0.0,0.0,0.47748099999999993,0.0,0.0,0.0,1.048576,2
1737286264.3455944,1800,1737286261,741356288,base_link,0,1,33.6371282,72.9912747,520.8761410527148,0.47748099999999993,0.0,0.0,0.0,0.47748099999999993,0.0,0.0,0.0,1.048576,2
1737286264.3457077,1801,1737286261,841357824,base_link,0,1,33.6371283,72.9912747,520.8661416656796,0.47748099999999993,0.0,0.0,0.0,0.47748099999999993,0.0,0.0,0.0,1.050625,2
1737286264.3459146,1802,1737286261,941360640,base_link,0,1,33.6371284,72.9912747,520.8661422786445,0.47748099999999993,0.0,0.0,0.0,0.47748099999999993,0.0,0.0,0.0,1.050625,2
1737286264.3460321,1803,1737286262,41362176,base_link,0,1,33.6371284,72.9912748,520.866142675829,0.47886399999999996,0.0,0.0,0.0,0.47886399999999996,0.0,0.0,0.0,1.052676,2
1737286264.3474195,1804,1737286262,141364736,base_link,0,1,33.6371284,72.9912748,520.866142675829,0.47886399999999996,0.0,0.0,0.0,0.47886399999999996,0.0,0.0,0.0,1.052676,2
1737286264.347444,1805,1737286262,241366016,base_link,0,1,33.6371285,72.9912748,520.866143288794,0.4802489999999999,0.0,0.0,0.0,0.4802489999999999,0.0,0.0,0.0,1.052676,2
1737286264.347483,1806,1737286262,341368832,base_link,0,1,33.6371285,72.9912748,520.856143288794,0.4802489999999999,0.0,0.0,0.0,0.4802489999999999,0.0,0.0,0.0,1.052676,2
1737286264.3475957,1807,1737286262,441370368,base_link,0,1,33.6371285,72.9912748,520.856143288794,0.4802489999999999,0.0,0.0,0.0,0.4802489999999999,0.0,0.0,0.0,1.050625,2
1737286264.3480737,1808,1737286262,541372928,base_link,0,1,33.6371285,72.9912748,520.856143288794,0.4802489999999999,0.0,0.0,0.0,0.4802489999999999,0.0,0.0,0.0,1.050625,2
1737286264.3482082,1809,1737286262,641374464,base_link,0,1,33.6371285,72.9912749,520.8561436859785,0.48163599999999995,0.0,0.0,0.0,0.48163599999999995,0.0,0.0,0.0,1.050625,2
1737286264.3482292,1810,1737286262,741377024,base_link,0,1,33.6371285,72.9912749,520.8461436859785,0.48163599999999995,0.0,0.0,0.0,0.48163599999999995,0.0,0.0,0.0,1.050625,2
1737286264.3483145,1811,1737286262,841378560,base_link,0,1,33.6371285,72.9912749,520.8461436859785,0.48163599999999995,0.0,0.0,0.0,0.48163599999999995,0.0,0.0,0.0,1.050625,2
1737286264.3493598,1812,1737286262,941379584,base_link,0,1,33.6371285,72.991275,520.8361440831632,0.48163599999999995,0.0,0.0,0.0,0.48163599999999995,0.0,0.0,0.0,1.050625,2
1737286264.3494396,1813,1737286263,41379584,base_link,0,1,33.6371285,72.991275,520.8361440831632,0.4830249999999999,0.0,0.0,0.0,0.4830249999999999,0.0,0.0,0.0,1.050625,2
1737286264.3498473,1814,1737286263,141382656,base_link,0,1,33.6371285,72.991275,520.8361440831632,0.4830249999999999,0.0,0.0,0.0,0.4830249999999999,0.0,0.0,0.0,1.050625,2
1737286264.3532848,1815,1737286263,241384448,base_link,0,1,33.6371286,72.991275,520.8261446961283,0.4830249999999999,0.0,0.0,0.0,0.4830249999999999,0.0,0.0,0.0,1.050625,2
1737286264.353333,1816,1737286263,341385984,base_link,0,1,33.6371287,72.991275,520.8261453090935,0.4830249999999999,0.0,0.0,0.0,0.4830249999999999,0.0,0.0,0.0,1.050625,2
1737286264.3534572,1817,1737286263,441387776,base_link,0,1,33.637129,72.9912751,520.8161475451747,0.48441599999999996,0.0,0.0,0.0,0.48441599999999996,0.0,0.0,0.0,1.050625,2
1737286264.3539288,1818,1737286263,541389568,base_link,0,1,33.6371295,72.9912753,520.816151404374,0.48441599999999996,0.0,0.0,0.0,0.48441599999999996,0.0,0.0,0.0,1.050625,2
1737286264.3548174,1819,1737286263,641391104,base_link,0,1,33.6371302,72.9912755,520.8061564895099,0.48441599999999996,0.0,0.0,0.0,0.48441599999999996,0.0,0.0,0.0,1.048576,2
1737286264.357834,1820,1737286263,741392640,base_link,0,1,33.6371311,72.9912759,520.8061635949587,0.48441599999999996,0.0,0.0,0.0,0.48441599999999996,0.0,0.0,0.0,1.048576,2
1737286264.35821,1821,1737286263,841394432,base_link,0,1,33.6371322,72.9912763,520.806171926356,0.48580899999999994,0.0,0.0,0.0,0.48580899999999994,0.0,0.0,0.0,1.048576,2
1737286264.3584788,1822,1737286263,941396224,base_link,0,1,33.6371336,72.9912768,520.8061824938662,0.48580899999999994,0.0,0.0,0.0,0.48580899999999994,0.0,0.0,0.0,1.048576,2
1737286264.358767,1823,1737286264,41398016,base_link,0,1,33.6371352,72.9912775,520.7961950817207,0.4872039999999999,0.0,0.0,0.0,0.4872039999999999,0.0,0.0,0.0,1.048576,2
1737286264.3590572,1824,1737286264,141399808,base_link,0,1,33.6371369,72.9912782,520.7962082825828,0.4872039999999999,0.0,0.0,0.0,0.4872039999999999,0.0,0.0,0.0,1.048576,2
1737286264.3591654,1825,1737286264,241401600,base_link,0,1,33.6371388,72.9912789,520.796222709434,0.48860099999999995,0.0,0.0,0.0,0.48860099999999995,0.0,0.0,0.0,1.048576,2
1737286264.3593752,1826,1737286264,341403392,base_link,0,1,33.6371408,72.9912797,520.7962381464989,0.48860099999999995,0.0,0.0,0.0,0.48860099999999995,0.0,0.0,0.0,1.048576,2
1737286264.4436705,1827,1737286264,441405184,base_link,0,1,33.637143,72.9912805,520.7962548095755,0.4914009999999999,0.0,0.0,0.0,0.4914009999999999,0.0,0.0,0.0,1.048576,2
1737286264.545753,1828,1737286264,541406720,base_link,0,1,33.6371452,72.9912812,520.8062710755187,0.4914009999999999,0.0,0.0,0.0,0.4914009999999999,0.0,0.0,0.0,1.048576,2
1737286264.6436062,1829,1737286264,641408512,base_link,0,1,33.6371474,72.991282,520.8162877387138,0.49420899999999995,0.0,0.0,0.0,0.49420899999999995,0.0,0.0,0.0,1.050625,2
1737286264.7433212,1830,1737286264,741410304,base_link,0,1,33.6371496,72.9912828,520.8363044019688,0.49420899999999995,0.0,0.0,0.0,0.49420899999999995,0.0,0.0,0.0,1.050625,2
1737286264.8427677,1831,1737286264,841412352,base_link,0,1,33.6371518,72.9912836,520.8563210652839,0.49702499999999994,0.0,0.0,0.0,0.49702499999999994,0.0,0.0,0.0,1.052676,2
1737286264.942643,1832,1737286264,941415424,base_link,0,1,33.637154,72.9912845,520.8863381258566,0.49702499999999994,0.0,0.0,0.0,0.49702499999999994,0.0,0.0,0.0,1.052676,2
1737286265.044228,1833,1737286265,41417216,base_link,0,1,33.6371563,72.9912855,520.906356196685,0.49984899999999993,0.0,0.0,0.0,0.49984899999999993,0.0,0.0,0.0,1.0547289999999998,2
1737286265.1457467,1834,1737286265,141419008,base_link,0,1,33.6371585,72.9912865,520.926373654586,0.49984899999999993,0.0,0.0,0.0,0.49984899999999993,0.0,0.0,0.0,1.0547289999999998,2
1737286265.2483153,1835,1737286265,241421056,base_link,0,1,33.6371608,72.9912875,520.9463917255506,0.5041,0.0,0.0,0.0,0.5041,0.0,0.0,0.0,1.058841,2
1737286265.345169,1836,1737286265,341423360,base_link,0,1,33.6371632,72.9912886,520.9664108067896,0.5041,0.0,0.0,0.0,0.5041,0.0,0.0,0.0,1.058841,2
1737286265.4435556,1837,1737286265,441425664,base_link,0,1,33.6371655,72.9912896,520.9964288778967,0.506944,0.0,0.0,0.0,0.506944,0.0,0.0,0.0,1.0609,2
1737286265.543139,1838,1737286265,541427456,base_link,0,1,33.637168,72.9912907,521.0264485722928,0.506944,0.0,0.0,0.0,0.506944,0.0,0.0,0.0,1.0609,2
1737286265.643893,1839,1737286265,641429504,base_link,0,1,33.6371704,72.9912917,521.0564672565546,0.5097959999999999,0.0,0.0,0.0,0.5097959999999999,0.0,0.0,0.0,1.065024,2
1737286265.7434165,1840,1737286265,741431552,base_link,0,1,33.6371729,72.9912927,521.0864865539031,0.5097959999999999,0.0,0.0,0.0,0.5097959999999999,0.0,0.0,0.0,1.065024,2
1737286265.8435783,1841,1737286265,841434112,base_link,0,1,33.6371755,72.9912938,521.1265068615558,0.5140889999999999,0.0,0.0,0.0,0.5140889999999999,0.0,0.0,0.0,1.069156,2
1737286265.9434707,1842,1737286265,941436160,base_link,0,1,33.637178,72.9912949,521.1565265562784,0.5140889999999999,0.0,0.0,0.0,0.5140889999999999,0.0,0.0,0.0,1.069156,2
1737286266.0433986,1843,1737286266,41438464,base_link,0,1,33.6371805,72.9912959,521.1965458538713,0.5184,0.0,0.0,0.0,0.5184,0.0,0.0,0.0,1.073296,2
1737286266.1440187,1844,1737286266,141440256,base_link,0,1,33.6371831,72.9912969,521.2365657645671,0.5184,0.0,0.0,0.0,0.5184,0.0,0.0,0.0,1.073296,2
1737286266.2434802,1845,1737286266,241442560,base_link,0,1,33.6371857,72.9912979,521.2765856753479,0.521284,0.0,0.0,0.0,0.521284,0.0,0.0,0.0,1.0753689999999998,2
1737286266.3438537,1846,1737286266,341444352,base_link,0,1,33.6371883,72.9912988,521.3266051889975,0.521284,0.0,0.0,0.0,0.521284,0.0,0.0,0.0,1.0753689999999998,2
1737286266.4437084,1847,1737286266,441446400,base_link,0,1,33.6371909,72.9912997,521.3666247027295,0.524176,0.0,0.0,0.0,0.524176,0.0,0.0,0.0,1.077444,2
1737286266.5440943,1848,1737286266,541448192,base_link,0,1,33.6371934,72.9913006,521.42664360351,0.524176,0.0,0.0,0.0,0.524176,0.0,0.0,0.0,1.077444,2
1737286266.6432343,1849,1737286266,641450496,base_link,0,1,33.6371959,72.9913014,521.4866621071474,0.524176,0.0,0.0,0.0,0.524176,0.0,0.0,0.0,1.077444,2
1737286266.7437634,1850,1737286266,741452544,base_link,0,1,33.6371982,72.9913021,521.5466789875597,0.524176,0.0,0.0,0.0,0.524176,0.0,0.0,0.0,1.077444,2
1737286266.845662,1851,1737286266,841454848,base_link,0,1,33.6372005,72.9913027,521.616695470812,0.524176,0.0,0.0,0.0,0.524176,0.0,0.0,0.0,1.077444,2
1737286266.9425557,1852,1737286266,941457152,base_link,0,1,33.6372027,72.9913033,521.6867113410807,0.524176,0.0,0.0,0.0,0.524176,0.0,0.0,0.0,1.077444,2
1737286267.0440068,1853,1737286267,41459968,base_link,0,1,33.6372047,72.9913037,521.7667251908647,0.524176,0.0,0.0,0.0,0.524176,0.0,0.0,0.0,1.0753689999999998,2
1737286267.187821,1854,1737286267,142462016,base_link,0,1,33.6372066,72.9913041,521.8367384276443,0.524176,0.0,0.0,0.0,0.524176,0.0,0.0,0.0,1.0753689999999998,2
1737286267.2447858,1855,1737286267,241464320,base_link,0,1,33.6372084,72.9913043,521.9167502569616,0.524176,0.0,0.0,0.0,0.524176,0.0,0.0,0.0,1.077444,2
1737286267.3426518,1856,1737286267,341466624,base_link,0,1,33.6372101,72.9913043,521.9867606788063,0.524176,0.0,0.0,0.0,0.524176,0.0,0.0,0.0,1.077444,2
1737286267.4431791,1857,1737286267,441468928,base_link,0,1,33.6372117,72.9913042,522.0567700903972,0.524176,0.0,0.0,0.0,0.524176,0.0,0.0,0.0,1.0795209999999997,2
1737286267.5427814,1858,1737286267,541470976,base_link,0,1,33.6372132,72.991304,522.1267784917281,0.524176,0.0,0.0,0.0,0.524176,0.0,0.0,0.0,1.0795209999999997,2
1737286267.6441321,1859,1737286267,641473280,base_link,0,1,33.6372145,72.9913036,522.1867848725108,0.524176,0.0,0.0,0.0,0.524176,0.0,0.0,0.0,1.0795209999999997,2
1737286267.7441175,1860,1737286267,741475584,base_link,0,1,33.6372158,72.9913031,522.246790856075,0.524176,0.0,0.0,0.0,0.524176,0.0,0.0,0.0,1.0795209999999997,2
1737286267.8441262,1861,1737286267,841478144,base_link,0,1,33.6372169,72.9913025,522.296795216308,0.524176,0.0,0.0,0.0,0.524176,0.0,0.0,0.0,1.077444,2
1737286267.9471102,1862,1737286267,941479936,base_link,0,1,33.6372179,72.991302,522.3467993607205,0.524176,0.0,0.0,0.0,0.524176,0.0,0.0,0.0,1.077444,2
1737286268.0429292,1863,1737286268,41482496,base_link,0,1,33.6372189,72.9913013,522.3968027106778,0.522729,0.0,0.0,0.0,0.522729,0.0,0.0,0.0,1.0795209999999997,2
1737286268.143283,1864,1737286268,141478656,base_link,0,1,33.6372196,72.9913007,522.4468046186968,0.522729,0.0,0.0,0.0,0.522729,0.0,0.0,0.0,1.0795209999999997,2
1737286268.2430203,1865,1737286268,241481216,base_link,0,1,33.6372203,72.9913001,522.4868065267177,0.522729,0.0,0.0,0.0,0.522729,0.0,0.0,0.0,1.077444,2
1737286268.344489,1866,1737286268,341483520,base_link,0,1,33.6372208,72.9912991,522.5368056197022,0.522729,0.0,0.0,0.0,0.522729,0.0,0.0,0.0,1.077444,2
1737286268.451054,1867,1737286268,441486336,base_link,0,1,33.6372213,72.9912981,522.576804712687,0.524176,0.0,0.0,0.0,0.524176,0.0,0.0,0.0,1.0795209999999997,2
1737286268.5432167,1868,1737286268,541488896,base_link,0,1,33.6372216,72.991297,522.6168021823265,0.524176,0.0,0.0,0.0,0.524176,0.0,0.0,0.0,1.0795209999999997,2
1737286268.643513,1869,1737286268,641488640,base_link,0,1,33.6372219,72.9912959,522.6567996519667,0.525625,0.0,0.0,0.0,0.525625,0.0,0.0,0.0,1.0795209999999997,2
1737286268.743917,1870,1737286268,741491200,base_link,0,1,33.637222,72.9912949,522.6967962927235,0.525625,0.0,0.0,0.0,0.525625,0.0,0.0,0.0,1.0795209999999997,2
1737286268.844358,1871,1737286268,841492224,base_link,0,1,33.6372221,72.9912938,522.7367925362523,0.525625,0.0,0.0,0.0,0.525625,0.0,0.0,0.0,1.077444,2
1737286268.94292,1872,1737286268,941494528,base_link,0,1,33.6372221,72.9912928,522.7667885639562,0.525625,0.0,0.0,0.0,0.525625,0.0,0.0,0.0,1.077444,2
1737286269.0432408,1873,1737286269,41495808,base_link,0,1,33.6372221,72.9912918,522.7967845916626,0.524176,0.0,0.0,0.0,0.524176,0.0,0.0,0.0,1.0753689999999998,2
1737286269.1429868,1874,1737286269,141498112,base_link,0,1,33.6372219,72.9912908,522.8367793932607,0.524176,0.0,0.0,0.0,0.524176,0.0,0.0,0.0,1.0753689999999998,2
1737286269.2431304,1875,1737286269,241499136,base_link,0,1,33.6372218,72.9912898,522.8567748079181,0.522729,0.0,0.0,0.0,0.522729,0.0,0.0,0.0,1.073296,2
1737286269.3437998,1876,1737286269,341501696,base_link,0,1,33.6372216,72.9912889,522.8867700067528,0.522729,0.0,0.0,0.0,0.522729,0.0,0.0,0.0,1.073296,2
1737286269.4433136,1877,1737286269,441502976,base_link,0,1,33.6372213,72.991288,522.8967645925381,0.521284,0.0,0.0,0.0,0.521284,0.0,0.0,0.0,1.073296,2
1737286269.5439026,1878,1737286269,541505536,base_link,0,1,33.637221,72.9912872,522.9167595755562,0.521284,0.0,0.0,0.0,0.521284,0.0,0.0,0.0,1.073296,2
1737286269.6438372,1879,1737286269,641506816,base_link,0,1,33.6372207,72.9912865,522.9267549558059,0.521284,0.0,0.0,0.0,0.521284,0.0,0.0,0.0,1.0712249999999999,2
1737286269.7432787,1880,1737286269,741509376,base_link,0,1,33.6372203,72.9912858,522.9267497230079,0.521284,0.0,0.0,0.0,0.521284,0.0,0.0,0.0,1.0712249999999999,2
1737286269.8429117,1881,1737286269,841510656,base_link,0,1,33.63722,72.9912852,522.9167455004925,0.519841,0.0,0.0,0.0,0.519841,0.0,0.0,0.0,1.0712249999999999,2
1737286269.9430223,1882,1737286269,941513472,base_link,0,1,33.6372197,72.9912847,522.9067416752071,0.519841,0.0,0.0,0.0,0.519841,0.0,0.0,0.0,1.0712249999999999,2
1737286270.0435884,1883,1737286270,41514752,base_link,0,1,33.6372194,72.9912842,522.8967378499242,0.5184,0.0,0.0,0.0,0.5184,0.0,0.0,0.0,1.073296,2
1737286270.1448822,1884,1737286270,141517568,base_link,0,1,33.6372192,72.9912838,522.8967350349196,0.5184,0.0,0.0,0.0,0.5184,0.0,0.0,0.0,1.073296,2
1737286270.243016,1885,1737286270,241518848,base_link,0,1,33.6372189,72.9912835,522.8867320040932,0.516961,0.0,0.0,0.0,0.516961,0.0,0.0,0.0,1.073296,2
1737286270.3433282,1886,1737286270,341521664,base_link,0,1,33.6372188,72.9912833,522.8767305965923,0.516961,0.0,0.0,0.0,0.516961,0.0,0.0,0.0,1.073296,2
1737286270.44366,1887,1737286270,441523200,base_link,0,1,33.6372186,72.9912831,522.8767285760429,0.515524,0.0,0.0,0.0,0.515524,0.0,0.0,0.0,1.0712249999999999,2
1737286270.5434406,1888,1737286270,541525760,base_link,0,1,33.6372184,72.991283,522.8667269527199,0.515524,0.0,0.0,0.0,0.515524,0.0,0.0,0.0,1.0712249999999999,2
1737286270.6433098,1889,1737286270,641527040,base_link,0,1,33.6372183,72.9912829,522.8667259424458,0.5140889999999999,0.0,0.0,0.0,0.5140889999999999,0.0,0.0,0.0,1.0712249999999999,2
1737286270.7436297,1890,1737286270,741529856,base_link,0,1,33.6372182,72.9912829,522.8767253293973,0.5140889999999999,0.0,0.0,0.0,0.5140889999999999,0.0,0.0,0.0,1.0712249999999999,2
1737286270.8431883,1891,1737286270,841531136,base_link,0,1,33.637218,72.9912828,522.8767237060754,0.512656,0.0,0.0,0.0,0.512656,0.0,0.0,0.0,1.0712249999999999,2
1737286270.9458866,1892,1737286270,941533952,base_link,0,1,33.6372179,72.9912828,522.8767230930273,0.512656,0.0,0.0,0.0,0.512656,0.0,0.0,0.0,1.0712249999999999,2
1737286271.0474603,1893,1737286271,41535232,base_link,0,1,33.6372179,72.9912829,522.8867234902527,0.5112249999999999,0.0,0.0,0.0,0.5112249999999999,0.0,0.0,0.0,1.069156,2
1737286271.1438568,1894,1737286271,141538304,base_link,0,1,33.6372178,72.9912829,522.8967228772046,0.5112249999999999,0.0,0.0,0.0,0.5112249999999999,0.0,0.0,0.0,1.069156,2
1737286271.244302,1895,1737286271,241539584,base_link,0,1,33.6372177,72.991283,522.9067226613819,0.5097959999999999,0.0,0.0,0.0,0.5097959999999999,0.0,0.0,0.0,1.069156,2
1737286271.3461633,1896,1737286271,341542400,base_link,0,1,33.6372177,72.9912831,522.9067230586073,0.5097959999999999,0.0,0.0,0.0,0.5097959999999999,0.0,0.0,0.0,1.069156,2
1737286271.443499,1897,1737286271,441544192,base_link,0,1,33.6372176,72.9912832,522.9067228427846,0.508369,0.0,0.0,0.0,0.508369,0.0,0.0,0.0,1.0670889999999997,2
1737286271.544131,1898,1737286271,541546496,base_link,0,1,33.6372176,72.9912832,522.9067228427846,0.508369,0.0,0.0,0.0,0.508369,0.0,0.0,0.0,1.0670889999999997,2
1737286271.6436257,1899,1737286271,641547776,base_link,0,1,33.6372175,72.9912834,522.9067230241873,0.506944,0.0,0.0,0.0,0.506944,0.0,0.0,0.0,1.065024,2
1737286271.7461195,1900,1737286271,741550592,base_link,0,1,33.6372175,72.9912835,522.9067234214125,0.506944,0.0,0.0,0.0,0.506944,0.0,0.0,0.0,1.065024,2
1737286271.8444307,1901,1737286271,841552128,base_link,0,1,33.6372174,72.9912836,522.89672320559,0.505521,0.0,0.0,0.0,0.505521,0.0,0.0,0.0,1.0629609999999998,2
1737286271.948555,1902,1737286271,941553664,base_link,0,1,33.6372174,72.9912837,522.8967236028152,0.505521,0.0,0.0,0.0,0.505521,0.0,0.0,0.0,1.0629609999999998,2
1737286272.0434291,1903,1737286272,41555200,base_link,0,1,33.6372174,72.9912838,522.8967240000405,0.5026809999999999,0.0,0.0,0.0,0.5026809999999999,0.0,0.0,0.0,1.0629609999999998,2
1737286272.1437104,1904,1737286272,141558272,base_link,0,1,33.6372173,72.9912839,522.896723784218,0.5026809999999999,0.0,0.0,0.0,0.5026809999999999,0.0,0.0,0.0,1.0629609999999998,2
1737286272.2438993,1905,1737286272,241559808,base_link,0,1,33.6372174,72.991284,522.8967247944913,0.5012639999999999,0.0,0.0,0.0,0.5012639999999999,0.0,0.0,0.0,1.0629609999999998,2
1737286272.3434963,1906,1737286272,341561344,base_link,0,1,33.6372174,72.9912841,522.8967251917168,0.5012639999999999,0.0,0.0,0.0,0.5012639999999999,0.0,0.0,0.0,1.0629609999999998,2
1737286272.4440851,1907,1737286272,441563136,base_link,0,1,33.6372174,72.9912843,522.8967259861677,0.49984899999999993,0.0,0.0,0.0,0.49984899999999993,0.0,0.0,0.0,1.065024,2
1737286272.5435932,1908,1737286272,541564160,base_link,0,1,33.6372174,72.9912844,522.8967263833931,0.49984899999999993,0.0,0.0,0.0,0.49984899999999993,0.0,0.0,0.0,1.065024,2
1737286272.6448429,1909,1737286272,641565952,base_link,0,1,33.6372174,72.9912845,522.9067267806187,0.49984899999999993,0.0,0.0,0.0,0.49984899999999993,0.0,0.0,0.0,1.0670889999999997,2
1737286272.745382,1910,1737286272,741567232,base_link,0,1,33.6372174,72.9912846,522.9167271778441,0.49984899999999993,0.0,0.0,0.0,0.49984899999999993,0.0,0.0,0.0,1.0670889999999997,2
1737286272.8452075,1911,1737286272,841569024,base_link,0,1,33.6372175,72.9912847,522.9267281881182,0.49984899999999993,0.0,0.0,0.0,0.49984899999999993,0.0,0.0,0.0,1.069156,2
1737286272.9454167,1912,1737286272,941570304,base_link,0,1,33.6372175,72.9912847,522.9267281881182,0.49984899999999993,0.0,0.0,0.0,0.49984899999999993,0.0,0.0,0.0,1.069156,2
1737286273.0451365,1913,1737286273,41572096,base_link,0,1,33.6372176,72.9912848,522.9367291983924,0.49984899999999993,0.0,0.0,0.0,0.49984899999999993,0.0,0.0,0.0,1.0712249999999999,2
1737286273.1436634,1914,1737286273,141567744,base_link,0,1,33.6372177,72.9912849,522.9467302086668,0.49984899999999993,0.0,0.0,0.0,0.49984899999999993,0.0,0.0,0.0,1.0712249999999999,2
1737286273.2434714,1915,1737286273,241569536,base_link,0,1,33.6372177,72.9912849,522.9567302086668,0.49984899999999993,0.0,0.0,0.0,0.49984899999999993,0.0,0.0,0.0,1.0753689999999998,2
1737286273.3440878,1916,1737286273,341571328,base_link,0,1,33.6372178,72.991285,522.9567312189414,0.49984899999999993,0.0,0.0,0.0,0.49984899999999993,0.0,0.0,0.0,1.0753689999999998,2
1737286273.444077,1917,1737286273,441573120,base_link,0,1,33.6372178,72.9912851,522.9667316161673,0.49984899999999993,0.0,0.0,0.0,0.49984899999999993,0.0,0.0,0.0,1.077444,2
1737286273.5438378,1918,1737286273,541574912,base_link,0,1,33.6372179,72.9912852,522.9667326264422,0.49984899999999993,0.0,0.0,0.0,0.49984899999999993,0.0,0.0,0.0,1.077444,2
1737286273.6442537,1919,1737286273,641576704,base_link,0,1,33.6372179,72.9912852,522.9667326264422,0.49843599999999993,0.0,0.0,0.0,0.49843599999999993,0.0,0.0,0.0,1.077444,2
1737286273.7437062,1920,1737286273,741578496,base_link,0,1,33.637218,72.9912853,522.9667336367173,0.49843599999999993,0.0,0.0,0.0,0.49843599999999993,0.0,0.0,0.0,1.077444,2
1737286273.8426597,1921,1737286273,841580288,base_link,0,1,33.637218,72.9912853,522.9667336367173,0.49843599999999993,0.0,0.0,0.0,0.49843599999999993,0.0,0.0,0.0,1.0795209999999997,2
1737286273.9446387,1922,1737286273,941582080,base_link,0,1,33.6372181,72.9912854,522.9667346469926,0.49843599999999993,0.0,0.0,0.0,0.49843599999999993,0.0,0.0,0.0,1.0795209999999997,2
1737286274.0430374,1923,1737286274,41584384,base_link,0,1,33.6372181,72.9912854,522.9767346469926,0.49843599999999993,0.0,0.0,0.0,0.49843599999999993,0.0,0.0,0.0,1.0816000000000001,2
1737286274.143791,1924,1737286274,141586432,base_link,0,1,33.6372181,72.9912854,522.9767346469926,0.49843599999999993,0.0,0.0,0.0,0.49843599999999993,0.0,0.0,0.0,1.0816000000000001,2
1737286274.2427506,1925,1737286274,241588736,base_link,0,1,33.6372182,72.9912854,522.976735260042,0.49984899999999993,0.0,0.0,0.0,0.49984899999999993,0.0,0.0,0.0,1.083681,2
1737286274.3435888,1926,1737286274,341590528,base_link,0,1,33.6372182,72.9912854,522.976735260042,0.49984899999999993,0.0,0.0,0.0,0.49984899999999993,0.0,0.0,0.0,1.083681,2
1737286274.4427676,1927,1737286274,441592576,base_link,0,1,33.6372183,72.9912854,522.9767358730915,0.49984899999999993,0.0,0.0,0.0,0.49984899999999993,0.0,0.0,0.0,1.0857640000000002,2
1737286274.5426917,1928,1737286274,541594624,base_link,0,1,33.6372183,72.9912855,522.9767362703176,0.49984899999999993,0.0,0.0,0.0,0.49984899999999993,0.0,0.0,0.0,1.0857640000000002,2
1737286274.64295,1929,1737286274,641596672,base_link,0,1,33.6372183,72.9912855,522.9767362703176,0.5012639999999999,0.0,0.0,0.0,0.5012639999999999,0.0,0.0,0.0,1.089936,2
1737286274.7428164,1930,1737286274,741598720,base_link,0,1,33.6372184,72.9912855,522.9867368833673,0.5012639999999999,0.0,0.0,0.0,0.5012639999999999,0.0,0.0,0.0,1.089936,2
1737286274.8439155,1931,1737286274,841600768,base_link,0,1,33.6372184,72.9912855,522.9867368833673,0.5012639999999999,0.0,0.0,0.0,0.5012639999999999,0.0,0.0,0.0,1.094116,2
1737286274.9429476,1932,1737286274,941602816,base_link,0,1,33.6372184,72.9912855,522.9867368833673,0.5012639999999999,0.0,0.0,0.0,0.5012639999999999,0.0,0.0,0.0,1.094116,2
1737286275.0428398,1933,1737286275,41604864,base_link,0,1,33.6372184,72.9912855,522.9867368833673,0.5012639999999999,0.0,0.0,0.0,0.5012639999999999,0.0,0.0,0.0,1.0983040000000002,2
1737286275.1429958,1934,1737286275,141606912,base_link,0,1,33.6372184,72.9912855,522.9867368833673,0.5012639999999999,0.0,0.0,0.0,0.5012639999999999,0.0,0.0,0.0,1.0983040000000002,2
1737286275.2429893,1935,1737286275,241609216,base_link,0,1,33.6372184,72.9912855,522.9867368833673,0.5012639999999999,0.0,0.0,0.0,0.5012639999999999,0.0,0.0,0.0,1.1025,2
1737286275.3432713,1936,1737286275,341611008,base_link,0,1,33.6372184,72.9912855,522.9867368833673,0.5012639999999999,0.0,0.0,0.0,0.5012639999999999,0.0,0.0,0.0,1.1025,2
1737286275.4441345,1937,1737286275,441613056,base_link,0,1,33.6372184,72.9912854,522.986736486141,0.5012639999999999,0.0,0.0,0.0,0.5012639999999999,0.0,0.0,0.0,1.1067040000000001,2
1737286275.5429006,1938,1737286275,541614848,base_link,0,1,33.6372184,72.9912854,522.986736486141,0.5012639999999999,0.0,0.0,0.0,0.5012639999999999,0.0,0.0,0.0,1.1067040000000001,2
1737286275.6432965,1939,1737286275,641616896,base_link,0,1,33.6372184,72.9912854,522.996736486141,0.5012639999999999,0.0,0.0,0.0,0.5012639999999999,0.0,0.0,0.0,1.108809,2
1737286275.743311,1940,1737286275,741618688,base_link,0,1,33.6372183,72.9912854,522.9967358730914,0.5012639999999999,0.0,0.0,0.0,0.5012639999999999,0.0,0.0,0.0,1.108809,2
1737286275.8429077,1941,1737286275,841620736,base_link,0,1,33.6372183,72.9912854,522.9967358730914,0.5012639999999999,0.0,0.0,0.0,0.5012639999999999,0.0,0.0,0.0,1.113025,2
1737286275.9430127,1942,1737286275,941623040,base_link,0,1,33.6372182,72.9912853,522.9967348628159,0.5012639999999999,0.0,0.0,0.0,0.5012639999999999,0.0,0.0,0.0,1.113025,2
1737286276.04299,1943,1737286276,41625344,base_link,0,1,33.6372182,72.9912853,522.9967348628159,0.5012639999999999,0.0,0.0,0.0,0.5012639999999999,0.0,0.0,0.0,1.1151360000000001,2
1737286276.1459517,1944,1737286276,141627136,base_link,0,1,33.6372181,72.9912853,522.9967342497665,0.5012639999999999,0.0,0.0,0.0,0.5012639999999999,0.0,0.0,0.0,1.1151360000000001,2
1737286276.243403,1945,1737286276,241627904,base_link,0,1,33.6372181,72.9912853,522.9967342497665,0.49984899999999993,0.0,0.0,0.0,0.49984899999999993,0.0,0.0,0.0,1.117249,2
1737286276.343426,1946,1737286276,341629952,base_link,0,1,33.637218,72.9912853,522.9967336367173,0.49984899999999993,0.0,0.0,0.0,0.49984899999999993,0.0,0.0,0.0,1.117249,2
1737286276.4475856,1947,1737286276,441630720,base_link,0,1,33.637218,72.9912853,523.0067336367173,0.49984899999999993,0.0,0.0,0.0,0.49984899999999993,0.0,0.0,0.0,1.121481,2
1737286276.543279,1948,1737286276,541632768,base_link,0,1,33.6372179,72.9912852,523.0067326264422,0.49984899999999993,0.0,0.0,0.0,0.49984899999999993,0.0,0.0,0.0,1.121481,2
1737286276.643547,1949,1737286276,641633536,base_link,0,1,33.6372179,72.9912852,523.0067326264422,0.49984899999999993,0.0,0.0,0.0,0.49984899999999993,0.0,0.0,0.0,1.1236000000000002,2
1737286276.744758,1950,1737286276,741635840,base_link,0,1,33.6372179,72.9912852,523.0067326264422,0.49984899999999993,0.0,0.0,0.0,0.49984899999999993,0.0,0.0,0.0,1.1236000000000002,2
1737286276.843359,1951,1737286276,841636864,base_link,0,1,33.6372179,72.9912851,523.0067322292164,0.49984899999999993,0.0,0.0,0.0,0.49984899999999993,0.0,0.0,0.0,1.125721,2
1737286276.947068,1952,1737286276,941638912,base_link,0,1,33.6372178,72.9912851,523.0067316161673,0.49984899999999993,0.0,0.0,0.0,0.49984899999999993,0.0,0.0,0.0,1.125721,2
1737286277.044948,1953,1737286277,41639680,base_link,0,1,33.6372178,72.9912851,523.0067316161673,0.49984899999999993,0.0,0.0,0.0,0.49984899999999993,0.0,0.0,0.0,1.1299689999999998,2
1737286277.1432354,1954,1737286277,141641984,base_link,0,1,33.6372178,72.9912851,523.0067316161673,0.49984899999999993,0.0,0.0,0.0,0.49984899999999993,0.0,0.0,0.0,1.1299689999999998,2
1737286277.2434194,1955,1737286277,241643008,base_link,0,1,33.6372178,72.991285,523.0067312189415,0.49984899999999993,0.0,0.0,0.0,0.49984899999999993,0.0,0.0,0.0,1.1320960000000002,2
1737286277.34482,1956,1737286277,341645312,base_link,0,1,33.6372178,72.991285,523.0067312189415,0.49984899999999993,0.0,0.0,0.0,0.49984899999999993,0.0,0.0,0.0,1.1320960000000002,2
1737286277.4470382,1957,1737286277,441646336,base_link,0,1,33.6372178,72.991285,523.0067312189415,0.49984899999999993,0.0,0.0,0.0,0.49984899999999993,0.0,0.0,0.0,1.1363560000000001,2
1737286277.5449498,1958,1737286277,541648384,base_link,0,1,33.6372178,72.991285,523.0067312189415,0.49984899999999993,0.0,0.0,0.0,0.49984899999999993,0.0,0.0,0.0,1.1363560000000001,2
1737286277.6433065,1959,1737286277,641649408,base_link,0,1,33.6372178,72.991285,523.0067312189415,0.5012639999999999,0.0,0.0,0.0,0.5012639999999999,0.0,0.0,0.0,1.1384889999999999,2
1737286277.7437387,1960,1737286277,741651712,base_link,0,1,33.6372178,72.9912849,523.0067308217157,0.5012639999999999,0.0,0.0,0.0,0.5012639999999999,0.0,0.0,0.0,1.1384889999999999,2
1737286277.8437111,1961,1737286277,841652992,base_link,0,1,33.6372178,72.9912849,523.0067308217157,0.5026809999999999,0.0,0.0,0.0,0.5026809999999999,0.0,0.0,0.0,1.140624,2
1737286277.943479,1962,1737286277,941655040,base_link,0,1,33.6372178,72.9912849,523.0067308217157,0.5026809999999999,0.0,0.0,0.0,0.5026809999999999,0.0,0.0,0.0,1.140624,2
1737286278.0466392,1963,1737286278,41656064,base_link,0,1,33.6372178,72.9912849,523.0067308217157,0.5026809999999999,0.0,0.0,0.0,0.5026809999999999,0.0,0.0,0.0,1.142761,2
1737286278.1434333,1964,1737286278,141658368,base_link,0,1,33.6372178,72.9912849,523.0067308217157,0.5026809999999999,0.0,0.0,0.0,0.5026809999999999,0.0,0.0,0.0,1.142761,2
1737286278.243537,1965,1737286278,241659648,base_link,0,1,33.6372178,72.9912849,522.9967308217157,0.5041,0.0,0.0,0.0,0.5041,0.0,0.0,0.0,1.1449,2
1737286278.343672,1966,1737286278,341662208,base_link,0,1,33.6372178,72.9912849,522.9967308217157,0.5041,0.0,0.0,0.0,0.5041,0.0,0.0,0.0,1.1449,2
1737286278.4434128,1967,1737286278,441663488,base_link,0,1,33.6372178,72.9912849,523.0067308217157,0.505521,0.0,0.0,0.0,0.505521,0.0,0.0,0.0,1.1491840000000002,2
1737286278.5440629,1968,1737286278,541666304,base_link,0,1,33.6372178,72.9912848,523.0067304244899,0.505521,0.0,0.0,0.0,0.505521,0.0,0.0,0.0,1.1491840000000002,2
1737286278.6433961,1969,1737286278,641667328,base_link,0,1,33.6372178,72.9912848,523.0067304244899,0.505521,0.0,0.0,0.0,0.505521,0.0,0.0,0.0,1.1513289999999998,2
1737286278.743622,1970,1737286278,741669888,base_link,0,1,33.6372178,72.9912848,523.0067304244899,0.505521,0.0,0.0,0.0,0.505521,0.0,0.0,0.0,1.1513289999999998,2
1737286278.8442886,1971,1737286278,841671168,base_link,0,1,33.6372178,72.9912848,523.0067304244899,0.506944,0.0,0.0,0.0,0.506944,0.0,0.0,0.0,1.1534760000000002,2
1737286278.9435947,1972,1737286278,941673984,base_link,0,1,33.6372179,72.9912848,523.0067310375388,0.506944,0.0,0.0,0.0,0.506944,0.0,0.0,0.0,1.1534760000000002,2
1737286279.0439112,1973,1737286279,41675520,base_link,0,1,33.6372179,72.9912848,523.0067310375388,0.508369,0.0,0.0,0.0,0.508369,0.0,0.0,0.0,1.155625,2
1737286279.143661,1974,1737286279,141678336,base_link,0,1,33.6372179,72.9912848,522.9967310375388,0.508369,0.0,0.0,0.0,0.508369,0.0,0.0,0.0,1.155625,2
1737286279.2436373,1975,1737286279,241679872,base_link,0,1,33.637218,72.9912848,523.0067316505878,0.508369,0.0,0.0,0.0,0.508369,0.0,0.0,0.0,1.1577760000000001,2
1737286279.3435574,1976,1737286279,341681408,base_link,0,1,33.637218,72.9912848,523.0067316505878,0.508369,0.0,0.0,0.0,0.508369,0.0,0.0,0.0,1.1577760000000001,2
1737286279.4437697,1977,1737286279,441682944,base_link,0,1,33.637218,72.9912848,523.0067316505878,0.5097959999999999,0.0,0.0,0.0,0.5097959999999999,0.0,0.0,0.0,1.159929,2
1737286279.5440288,1978,1737286279,541684224,base_link,0,1,33.637218,72.9912848,523.0067316505878,0.5097959999999999,0.0,0.0,0.0,0.5097959999999999,0.0,0.0,0.0,1.159929,2
1737286279.6433516,1979,1737286279,641686016,base_link,0,1,33.637218,72.9912848,523.0067316505878,0.5112249999999999,0.0,0.0,0.0,0.5112249999999999,0.0,0.0,0.0,1.159929,2
1737286279.7437158,1980,1737286279,741687552,base_link,0,1,33.637218,72.9912848,523.0067316505878,0.5112249999999999,0.0,0.0,0.0,0.5112249999999999,0.0,0.0,0.0,1.159929,2
1737286279.843646,1981,1737286279,841689088,base_link,0,1,33.637218,72.9912848,523.0067316505878,0.5112249999999999,0.0,0.0,0.0,0.5112249999999999,0.0,0.0,0.0,1.1620840000000001,2
1737286279.9439578,1982,1737286279,941690624,base_link,0,1,33.637218,72.9912848,523.0167316505878,0.5112249999999999,0.0,0.0,0.0,0.5112249999999999,0.0,0.0,0.0,1.1620840000000001,2
1737286280.0437176,1983,1737286280,41692416,base_link,0,1,33.637218,72.9912848,523.0067316505878,0.512656,0.0,0.0,0.0,0.512656,0.0,0.0,0.0,1.1642409999999999,2
1737286280.146668,1984,1737286280,141694208,base_link,0,1,33.637218,72.9912848,523.0167316505878,0.512656,0.0,0.0,0.0,0.512656,0.0,0.0,0.0,1.1642409999999999,2
1737286280.2445967,1985,1737286280,241695488,base_link,0,1,33.637218,72.9912848,523.0167316505878,0.512656,0.0,0.0,0.0,0.512656,0.0,0.0,0.0,1.1664,2
1737286280.3454123,1986,1737286280,341696768,base_link,0,1,33.637218,72.9912848,523.0067316505878,0.512656,0.0,0.0,0.0,0.512656,0.0,0.0,0.0,1.1664,2
1737286280.4439037,1987,1737286280,441698048,base_link,0,1,33.637218,72.9912848,523.0067316505878,0.5140889999999999,0.0,0.0,0.0,0.5140889999999999,0.0,0.0,0.0,1.1664,2
1737286280.546214,1988,1737286280,541699328,base_link,0,1,33.637218,72.9912848,523.0067316505878,0.5140889999999999,0.0,0.0,0.0,0.5140889999999999,0.0,0.0,0.0,1.1664,2
1737286280.6443675,1989,1737286280,641700608,base_link,0,1,33.637218,72.9912848,523.0067316505878,0.5140889999999999,0.0,0.0,0.0,0.5140889999999999,0.0,0.0,0.0,1.168561,2
1737286280.7439048,1990,1737286280,741701888,base_link,0,1,33.637218,72.9912848,523.0067316505878,0.5140889999999999,0.0,0.0,0.0,0.5140889999999999,0.0,0.0,0.0,1.168561,2
1737286280.8440604,1991,1737286280,841703424,base_link,0,1,33.6372179,72.9912848,523.0067310375388,0.515524,0.0,0.0,0.0,0.515524,0.0,0.0,0.0,1.170724,2
1737286280.9454906,1992,1737286280,941704704,base_link,0,1,33.6372179,72.9912848,523.0067310375388,0.515524,0.0,0.0,0.0,0.515524,0.0,0.0,0.0,1.170724,2
1737286281.0446935,1993,1737286281,41705984,base_link,0,1,33.6372179,72.9912848,523.0067310375388,0.515524,0.0,0.0,0.0,0.515524,0.0,0.0,0.0,1.170724,2
1737286281.1438508,1994,1737286281,141701120,base_link,0,1,33.6372178,72.9912848,523.0067304244899,0.515524,0.0,0.0,0.0,0.515524,0.0,0.0,0.0,1.170724,2
1737286281.2437701,1995,1737286281,241702912,base_link,0,1,33.6372178,72.9912848,523.0067304244899,0.516961,0.0,0.0,0.0,0.516961,0.0,0.0,0.0,1.1728889999999998,2
1737286281.3442795,1996,1737286281,341704192,base_link,0,1,33.6372178,72.9912848,523.0167304244899,0.516961,0.0,0.0,0.0,0.516961,0.0,0.0,0.0,1.1728889999999998,2
1737286281.4465635,1997,1737286281,441705728,base_link,0,1,33.6372177,72.9912848,523.0167298114411,0.516961,0.0,0.0,0.0,0.516961,0.0,0.0,0.0,1.175056,2
1737286281.5438478,1998,1737286281,541707264,base_link,0,1,33.6372177,72.9912847,523.0167294142154,0.516961,0.0,0.0,0.0,0.516961,0.0,0.0,0.0,1.175056,2
1737286281.6431427,1999,1737286281,641708800,base_link,0,1,33.6372177,72.9912847,523.0067294142154,0.5184,0.0,0.0,0.0,0.5184,0.0,0.0,0.0,1.177225,2
1737286281.743974,2000,1737286281,741710336,base_link,0,1,33.6372177,72.9912847,523.0067294142154,0.5184,0.0,0.0,0.0,0.5184,0.0,0.0,0.0,1.177225,2
1737286281.844551,2001,1737286281,841711872,base_link,0,1,33.6372177,72.9912847,523.0067294142154,0.5184,0.0,0.0,0.0,0.5184,0.0,0.0,0.0,1.177225,2
1737286281.9435754,2002,1737286281,941713152,base_link,0,1,33.6372177,72.9912847,523.0067294142154,0.5184,0.0,0.0,0.0,0.5184,0.0,0.0,0.0,1.177225,2
1737286282.0430748,2003,1737286282,41714688,base_link,0,1,33.6372177,72.9912847,523.0067294142154,0.519841,0.0,0.0,0.0,0.519841,0.0,0.0,0.0,1.179396,2
1737286282.1428444,2004,1737286282,141715968,base_link,0,1,33.6372177,72.9912846,522.9967290169898,0.519841,0.0,0.0,0.0,0.519841,0.0,0.0,0.0,1.179396,2
1737286282.2435398,2005,1737286282,241717248,base_link,0,1,33.6372177,72.9912846,522.9967290169898,0.521284,0.0,0.0,0.0,0.521284,0.0,0.0,0.0,1.1815689999999999,2
1737286282.3434744,2006,1737286282,341718272,base_link,0,1,33.6372177,72.9912846,522.9967290169898,0.521284,0.0,0.0,0.0,0.521284,0.0,0.0,0.0,1.1815689999999999,2
1737286282.443249,2007,1737286282,441719808,base_link,0,1,33.6372177,72.9912846,522.9967290169898,0.521284,0.0,0.0,0.0,0.521284,0.0,0.0,0.0,1.1837440000000001,2
1737286282.5440238,2008,1737286282,541721088,base_link,0,1,33.6372177,72.9912845,522.9967286197641,0.521284,0.0,0.0,0.0,0.521284,0.0,0.0,0.0,1.1837440000000001,2
1737286282.6433232,2009,1737286282,641722624,base_link,0,1,33.6372178,72.9912845,522.9967292328128,0.522729,0.0,0.0,0.0,0.522729,0.0,0.0,0.0,1.185921,2
1737286282.7429743,2010,1737286282,741723904,base_link,0,1,33.6372178,72.9912845,522.9967292328128,0.522729,0.0,0.0,0.0,0.522729,0.0,0.0,0.0,1.185921,2
1737286282.8442736,2011,1737286282,841725440,base_link,0,1,33.6372178,72.9912845,523.0067292328127,0.522729,0.0,0.0,0.0,0.522729,0.0,0.0,0.0,1.1881000000000002,2
1737286282.9431257,2012,1737286282,941726464,base_link,0,1,33.6372178,72.9912845,523.0067292328127,0.522729,0.0,0.0,0.0,0.522729,0.0,0.0,0.0,1.1881000000000002,2
1737286283.0434268,2013,1737286283,41728256,base_link,0,1,33.6372178,72.9912845,523.0067292328127,0.524176,0.0,0.0,0.0,0.524176,0.0,0.0,0.0,1.1881000000000002,2
1737286283.1442196,2014,1737286283,141730048,base_link,0,1,33.6372178,72.9912845,523.0067292328127,0.524176,0.0,0.0,0.0,0.524176,0.0,0.0,0.0,1.1881000000000002,2
1737286283.243786,2015,1737286283,241731840,base_link,0,1,33.6372177,72.9912845,523.0067286197641,0.525625,0.0,0.0,0.0,0.525625,0.0,0.0,0.0,1.190281,2
1737286283.3432815,2016,1737286283,341733632,base_link,0,1,33.6372177,72.9912845,523.0067286197641,0.525625,0.0,0.0,0.0,0.525625,0.0,0.0,0.0,1.190281,2
1737286283.4435198,2017,1737286283,441735424,base_link,0,1,33.6372177,72.9912845,523.0067286197641,0.525625,0.0,0.0,0.0,0.525625,0.0,0.0,0.0,1.190281,2
1737286283.5445983,2018,1737286283,541736960,base_link,0,1,33.6372177,72.9912845,523.0067286197641,0.525625,0.0,0.0,0.0,0.525625,0.0,0.0,0.0,1.190281,2
1737286283.6434367,2019,1737286283,641737472,base_link,0,1,33.6372177,72.9912845,523.0067286197641,0.527076,0.0,0.0,0.0,0.527076,0.0,0.0,0.0,1.190281,2
1737286283.7432735,2020,1737286283,741739264,base_link,0,1,33.6372177,72.9912845,523.0067286197641,0.527076,0.0,0.0,0.0,0.527076,0.0,0.0,0.0,1.190281,2
1737286283.8431046,2021,1737286283,841739520,base_link,0,1,33.6372177,72.9912845,523.0067286197641,0.527076,0.0,0.0,0.0,0.527076,0.0,0.0,0.0,1.190281,2
1737286283.944089,2022,1737286283,941741056,base_link,0,1,33.6372177,72.9912845,522.9967286197641,0.527076,0.0,0.0,0.0,0.527076,0.0,0.0,0.0,1.190281,2
1737286284.044852,2023,1737286284,41741312,base_link,0,1,33.6372178,72.9912845,522.9967292328128,0.527076,0.0,0.0,0.0,0.527076,0.0,0.0,0.0,1.1924640000000002,2
1737286284.1486797,2024,1737286284,141743104,base_link,0,1,33.6372177,72.9912846,522.9967290169898,0.527076,0.0,0.0,0.0,0.527076,0.0,0.0,0.0,1.1924640000000002,2
1737286284.2432346,2025,1737286284,241743616,base_link,0,1,33.6372177,72.9912846,522.9967290169898,0.5285289999999999,0.0,0.0,0.0,0.5285289999999999,0.0,0.0,0.0,1.1924640000000002,2
1737286284.343547,2026,1737286284,341745408,base_link,0,1,33.6372177,72.9912846,522.9967290169898,0.5285289999999999,0.0,0.0,0.0,0.5285289999999999,0.0,0.0,0.0,1.1924640000000002,2
1737286284.4432292,2027,1737286284,441745920,base_link,0,1,33.6372177,72.9912847,522.9967294142155,0.5285289999999999,0.0,0.0,0.0,0.5285289999999999,0.0,0.0,0.0,1.1924640000000002,2
1737286284.5431502,2028,1737286284,541747712,base_link,0,1,33.6372177,72.9912847,522.9967294142155,0.5285289999999999,0.0,0.0,0.0,0.5285289999999999,0.0,0.0,0.0,1.1924640000000002,2
1737286284.6438253,2029,1737286284,641748224,base_link,0,1,33.6372177,72.9912847,523.0067294142154,0.5285289999999999,0.0,0.0,0.0,0.5285289999999999,0.0,0.0,0.0,1.1924640000000002,2
1737286284.7437847,2030,1737286284,741750016,base_link,0,1,33.6372177,72.9912847,523.0067294142154,0.5285289999999999,0.0,0.0,0.0,0.5285289999999999,0.0,0.0,0.0,1.1924640000000002,2
1737286284.843399,2031,1737286284,841750528,base_link,0,1,33.6372177,72.9912847,523.0067294142154,0.529984,0.0,0.0,0.0,0.529984,0.0,0.0,0.0,1.1924640000000002,2
1737286284.944204,2032,1737286284,941752320,base_link,0,1,33.6372176,72.9912847,523.0067288011668,0.529984,0.0,0.0,0.0,0.529984,0.0,0.0,0.0,1.1924640000000002,2
1737286285.0445247,2033,1737286285,41753088,base_link,0,1,33.6372176,72.9912847,523.0067288011668,0.529984,0.0,0.0,0.0,0.529984,0.0,0.0,0.0,1.1924640000000002,2
1737286285.143713,2034,1737286285,141755392,base_link,0,1,33.6372176,72.9912847,523.0067288011668,0.529984,0.0,0.0,0.0,0.529984,0.0,0.0,0.0,1.1924640000000002,2
1737286285.2437809,2035,1737286285,241756160,base_link,0,1,33.6372176,72.9912847,523.0067288011668,0.529984,0.0,0.0,0.0,0.529984,0.0,0.0,0.0,1.1924640000000002,2
1737286285.3447604,2036,1737286285,341758464,base_link,0,1,33.6372177,72.9912847,523.0067294142154,0.529984,0.0,0.0,0.0,0.529984,0.0,0.0,0.0,1.1924640000000002,2
1737286285.4436412,2037,1737286285,441759232,base_link,0,1,33.6372177,72.9912848,522.9967298114411,0.529984,0.0,0.0,0.0,0.529984,0.0,0.0,0.0,1.1946489999999998,2
1737286285.5436459,2038,1737286285,541761280,base_link,0,1,33.6372177,72.9912847,522.9967294142155,0.529984,0.0,0.0,0.0,0.529984,0.0,0.0,0.0,1.1946489999999998,2
1737286285.6434364,2039,1737286285,641762048,base_link,0,1,33.6372177,72.9912847,522.9967294142155,0.529984,0.0,0.0,0.0,0.529984,0.0,0.0,0.0,1.1946489999999998,2
1737286285.743445,2040,1737286285,741764096,base_link,0,1,33.6372177,72.9912847,522.9967294142155,0.529984,0.0,0.0,0.0,0.529984,0.0,0.0,0.0,1.1946489999999998,2
1737286285.8437164,2041,1737286285,841764864,base_link,0,1,33.6372177,72.9912847,522.9967294142155,0.5314409999999999,0.0,0.0,0.0,0.5314409999999999,0.0,0.0,0.0,1.1968360000000002,2
1737286285.9460235,2042,1737286285,941767168,base_link,0,1,33.6372177,72.9912847,522.9967294142155,0.5314409999999999,0.0,0.0,0.0,0.5314409999999999,0.0,0.0,0.0,1.1968360000000002,2
1737286286.0438032,2043,1737286286,41767936,base_link,0,1,33.6372176,72.9912847,522.9967288011668,0.5314409999999999,0.0,0.0,0.0,0.5314409999999999,0.0,0.0,0.0,1.199025,2
1737286286.1437428,2044,1737286286,141769984,base_link,0,1,33.6372176,72.9912847,522.9967288011668,0.5314409999999999,0.0,0.0,0.0,0.5314409999999999,0.0,0.0,0.0,1.199025,2
1737286286.2437477,2045,1737286286,241771008,base_link,0,1,33.6372177,72.9912847,522.9967294142155,0.5314409999999999,0.0,0.0,0.0,0.5314409999999999,0.0,0.0,0.0,1.199025,2
1737286286.3435316,2046,1737286286,341773312,base_link,0,1,33.6372177,72.9912847,522.9967294142155,0.5314409999999999,0.0,0.0,0.0,0.5314409999999999,0.0,0.0,0.0,1.199025,2
1737286286.4440231,2047,1737286286,441774080,base_link,0,1,33.6372177,72.9912847,522.9967294142155,0.5328999999999999,0.0,0.0,0.0,0.5328999999999999,0.0,0.0,0.0,1.2012160000000003,2
1737286286.5439186,2048,1737286286,541776384,base_link,0,1,33.6372176,72.9912847,522.9967288011668,0.5328999999999999,0.0,0.0,0.0,0.5328999999999999,0.0,0.0,0.0,1.2012160000000003,2
1737286286.6435707,2049,1737286286,641777408,base_link,0,1,33.6372176,72.9912847,522.9967288011668,0.5328999999999999,0.0,0.0,0.0,0.5328999999999999,0.0,0.0,0.0,1.203409,2
1737286286.7448153,2050,1737286286,741778176,base_link,0,1,33.6372176,72.9912847,522.9967288011668,0.5328999999999999,0.0,0.0,0.0,0.5328999999999999,0.0,0.0,0.0,1.203409,2
1737286286.8435538,2051,1737286286,841779200,base_link,0,1,33.6372176,72.9912847,522.9967288011668,0.5328999999999999,0.0,0.0,0.0,0.5328999999999999,0.0,0.0,0.0,1.2056040000000001,2
1737286286.9437158,2052,1737286286,941781248,base_link,0,1,33.6372175,72.9912847,522.9967281881183,0.5328999999999999,0.0,0.0,0.0,0.5328999999999999,0.0,0.0,0.0,1.2056040000000001,2
1737286287.0437245,2053,1737286287,41782016,base_link,0,1,33.6372175,72.9912848,522.9967285853438,0.5328999999999999,0.0,0.0,0.0,0.5328999999999999,0.0,0.0,0.0,1.2056040000000001,2
1737286287.1437013,2054,1737286287,141784320,base_link,0,1,33.6372175,72.9912848,522.9967285853438,0.5328999999999999,0.0,0.0,0.0,0.5328999999999999,0.0,0.0,0.0,1.2056040000000001,2
1737286287.2435362,2055,1737286287,241785088,base_link,0,1,33.6372175,72.9912848,522.9967285853438,0.5328999999999999,0.0,0.0,0.0,0.5328999999999999,0.0,0.0,0.0,1.207801,2
1737286287.344283,2056,1737286287,341787392,base_link,0,1,33.6372176,72.9912848,522.9967291983925,0.5328999999999999,0.0,0.0,0.0,0.5328999999999999,0.0,0.0,0.0,1.207801,2
1737286287.4435837,2057,1737286287,441788160,base_link,0,1,33.6372176,72.9912848,522.9967291983925,0.5328999999999999,0.0,0.0,0.0,0.5328999999999999,0.0,0.0,0.0,1.2100000000000002,2
1737286287.5453405,2058,1737286287,541788928,base_link,0,1,33.6372176,72.9912847,522.9967288011668,0.5328999999999999,0.0,0.0,0.0,0.5328999999999999,0.0,0.0,0.0,1.2100000000000002,2
1737286287.6436462,2059,1737286287,641789696,base_link,0,1,33.6372176,72.9912847,522.9967288011668,0.5328999999999999,0.0,0.0,0.0,0.5328999999999999,0.0,0.0,0.0,1.2122009999999999,2
1737286287.7440057,2060,1737286287,741790720,base_link,0,1,33.6372176,72.9912847,522.9867288011668,0.5328999999999999,0.0,0.0,0.0,0.5328999999999999,0.0,0.0,0.0,1.2122009999999999,2
1737286287.8450284,2061,1737286287,841791744,base_link,0,1,33.6372176,72.9912847,522.9867288011668,0.5328999999999999,0.0,0.0,0.0,0.5328999999999999,0.0,0.0,0.0,1.2144040000000003,2
1737286287.9445238,2062,1737286287,941792000,base_link,0,1,33.6372176,72.9912847,522.9867288011668,0.5328999999999999,0.0,0.0,0.0,0.5328999999999999,0.0,0.0,0.0,1.2144040000000003,2
1737286288.0457985,2063,1737286288,41793024,base_link,0,1,33.6372176,72.9912847,522.9767288011668,0.5328999999999999,0.0,0.0,0.0,0.5328999999999999,0.0,0.0,0.0,1.216609,2
1737286288.1447928,2064,1737286288,141794048,base_link,0,1,33.6372176,72.9912847,522.9767288011668,0.5328999999999999,0.0,0.0,0.0,0.5328999999999999,0.0,0.0,0.0,1.216609,2
1737286288.2441037,2065,1737286288,241795328,base_link,0,1,33.6372176,72.9912847,522.9767288011668,0.5328999999999999,0.0,0.0,0.0,0.5328999999999999,0.0,0.0,0.0,1.2188160000000001,2
1737286288.3438444,2066,1737286288,341796096,base_link,0,1,33.6372176,72.9912847,522.9767288011668,0.5328999999999999,0.0,0.0,0.0,0.5328999999999999,0.0,0.0,0.0,1.2188160000000001,2
1737286288.4437954,2067,1737286288,441797120,base_link,0,1,33.6372177,72.9912847,522.9667294142155,0.5328999999999999,0.0,0.0,0.0,0.5328999999999999,0.0,0.0,0.0,1.2188160000000001,2
1737286288.5452406,2068,1737286288,541797888,base_link,0,1,33.6372177,72.9912847,522.9667294142155,0.5328999999999999,0.0,0.0,0.0,0.5328999999999999,0.0,0.0,0.0,1.2188160000000001,2
1737286288.6438556,2069,1737286288,641799168,base_link,0,1,33.6372177,72.9912847,522.9667294142155,0.5328999999999999,0.0,0.0,0.0,0.5328999999999999,0.0,0.0,0.0,1.221025,2
1737286288.743878,2070,1737286288,741799936,base_link,0,1,33.6372177,72.9912847,522.9667294142155,0.5328999999999999,0.0,0.0,0.0,0.5328999999999999,0.0,0.0,0.0,1.221025,2
1737286288.8436606,2071,1737286288,841800960,base_link,0,1,33.6372177,72.9912847,522.9667294142155,0.5328999999999999,0.0,0.0,0.0,0.5328999999999999,0.0,0.0,0.0,1.2232360000000002,2
1737286288.9428294,2072,1737286288,941802240,base_link,0,1,33.6372177,72.9912847,522.9667294142155,0.5328999999999999,0.0,0.0,0.0,0.5328999999999999,0.0,0.0,0.0,1.2232360000000002,2
1737286289.0428367,2073,1737286289,41803520,base_link,0,1,33.6372178,72.9912847,522.9767300272641,0.5328999999999999,0.0,0.0,0.0,0.5328999999999999,0.0,0.0,0.0,1.225449,2
1737286289.1450257,2074,1737286289,141804544,base_link,0,1,33.6372178,72.9912847,522.9767300272641,0.5328999999999999,0.0,0.0,0.0,0.5328999999999999,0.0,0.0,0.0,1.225449,2
1737286289.2451997,2075,1737286289,241805824,base_link,0,1,33.6372178,72.9912847,522.9867300272641,0.5328999999999999,0.0,0.0,0.0,0.5328999999999999,0.0,0.0,0.0,1.2276640000000003,2
1737286289.345449,2076,1737286289,341806848,base_link,0,1,33.6372178,72.9912847,522.9867300272641,0.5328999999999999,0.0,0.0,0.0,0.5328999999999999,0.0,0.0,0.0,1.2276640000000003,2
