Time,header.seq,header.stamp.secs,header.stamp.nsecs,header.frame_id,airspeed,groundspeed,heading,throttle,altitude,climb
1729403414.563731,2297,1729403414,303869996,,0.01405898667871952,0.01233425922691822,62,0.0,559.4400024414062,-0.00674693426117301
1729403414.563986,2298,1729403414,403971255,,0.012272484600543976,0.010343840345740318,62,0.0,559.4500122070312,-0.006604456342756748
1729403414.5651443,2299,1729403414,503961922,,0.011299856007099152,0.009206574410200119,62,0.0,559.4500122070312,-0.006551774218678474
1729403414.604822,2300,1729403414,604173126,,0.01024941261857748,0.008071040734648705,62,0.0,559.4500122070312,-0.006317338440567255
1729403414.7042704,2301,1729403414,703961755,,0.009525787085294724,0.0073636858724057674,62,0.0,559.4599609375,-0.006042908411473036
1729403414.8045986,2302,1729403414,804031440,,0.008121581748127937,0.007178861647844315,62,0.0,559.469970703125,-0.0037978962063789368
1729403414.904645,2303,1729403414,904019940,,0.007143320981413126,0.006791887804865837,62,0.0,559.47998046875,-0.002212980529293418
1729403415.004627,2304,1729403415,4020273,,0.005582156591117382,0.005551489535719156,62,0.0,559.489990234375,-0.0005843305261805654
1729403415.1050322,2305,1729403415,104085940,,0.004932314623147249,0.004876857157796621,62,0.0,559.489990234375,-0.0007375592831522226
1729403415.204636,2306,1729403415,204032236,,0.0059692333452403545,0.005935089197009802,62,0.0,559.489990234375,-0.0006375396624207497
1729403415.304752,2307,1729403415,304127107,,0.007786532863974571,0.007767621427774429,62,0.0,559.489990234375,-0.0005423515103757381
1729403415.4048784,2308,1729403415,404143088,,0.009349490515887737,0.00928762461990118,62,0.0,559.489990234375,-0.0010737893171608448
1729403415.5071688,2309,1729403415,504271236,,0.011267252266407013,0.011203346773982048,62,0.0,559.489990234375,-0.0011983223957940936
1729403415.6057093,2310,1729403415,604231921,,0.012990457937121391,0.012890014797449112,62,0.0,559.489990234375,-0.0016122916713356972
1729403415.705445,2311,1729403415,704410162,,0.014632124453783035,0.014003394171595573,62,0.0,559.489990234375,-0.004243107046931982
1729403415.8055172,2312,1729403415,804248310,,0.015777694061398506,0.015060234814882278,62,0.0,559.489990234375,-0.00470371637493372
1729403415.905514,2313,1729403415,904421310,,0.01693781092762947,0.016078300774097443,62,0.0,559.489990234375,-0.005327058024704456
1729403416.0055282,2314,1729403416,4332606,,0.018528178334236145,0.01758512482047081,62,0.0,559.489990234375,-0.005835809279233217
1729403416.1052303,2315,1729403416,104319143,,0.02059994451701641,0.019475439563393593,62,0.0,559.489990234375,-0.006713042501360178
1729403416.205478,2316,1729403416,204437902,,0.020089806988835335,0.019584449008107185,62,0.0,559.489990234375,-0.0044776806607842445
1729403416.3056483,2317,1729403416,304448587,,0.020614583045244217,0.020265456289052963,62,0.0,559.5,-0.0037778650876134634
1729403416.4057012,2318,1729403416,404450699,,0.021285267546772957,0.021133584901690483,62,0.0,559.5,-0.0025365541223436594
1729403416.5053794,2319,1729403416,504335050,,0.02311128005385399,0.023021835833787918,62,0.0,559.5,-0.0020313586574047804
1729403416.6059163,2320,1729403416,604491124,,0.023675238713622093,0.023590611293911934,62,0.0,559.5,-0.0019999872893095016
1729403416.7057157,2321,1729403416,704364402,,0.023062963038682938,0.022798944264650345,62,0.0,559.5,-0.0034796949476003647
1729403416.8056715,2322,1729403416,804536198,,0.02416180819272995,0.023458287119865417,62,0.0,559.489990234375,-0.005788058508187532
1729403416.9073076,2323,1729403416,906341272,,0.02457561530172825,0.023656193166971207,62,0.0,559.489990234375,-0.006659232079982758
1729403417.0060089,2324,1729403417,4704957,,0.025257445871829987,0.024011073634028435,62,0.0,559.489990234375,-0.007836257107555866
1729403417.1065485,2325,1729403417,104432217,,0.025174565613269806,0.023539729416370392,62,0.0,559.47998046875,-0.008924108929932117
1729403417.2050366,2326,1729403417,204377124,,0.02343863807618618,0.02255387417972088,62,0.0,559.489990234375,-0.0063790674321353436
1729403417.3052838,2327,1729403417,303422328,,0.021147551015019417,0.020900024101138115,62,0.0,559.489990234375,-0.0032261263113468885
1729403417.4043891,2328,1729403417,403349068,,0.020558487623929977,0.02044295333325863,62,0.0,559.5,-0.002176484791561961
1729403417.505461,2329,1729403417,504418198,,0.02077873982489109,0.020754512399435043,62,0.0,559.5,-0.0010031107813119888
1729403417.605224,2330,1729403417,604455087,,0.021505434066057205,0.021475622430443764,62,0.0,559.5,0.0011319229379296303
1729403417.7044156,2331,1729403417,703455142,,0.02194400690495968,0.02163170464336872,62,0.0,559.510009765625,0.0036890136543661356
1729403417.8049104,2332,1729403417,804413050,,0.023692378774285316,0.02288319170475006,62,0.0,559.5199584960938,0.00613907165825367
1729403417.9057198,2333,1729403417,904648679,,0.02574368752539158,0.023980142548680305,62,0.0,559.5399780273438,0.009364292956888676
1729403418.0045364,2334,1729403418,3707586,,0.026969438418745995,0.024410763755440712,62,0.0,559.5499877929688,0.011465823277831078
1729403418.1061897,2335,1729403418,104744679,,0.02694063074886799,0.02386673539876938,62,0.0,559.5499877929688,0.012497053481638432
1729403418.2046947,2336,1729403418,203566383,,0.027639878913760185,0.024456899613142014,62,0.0,559.5499877929688,0.012877224013209343
1729403418.3042696,2337,1729403418,303602753,,0.028655830770730972,0.025371599942445755,62,0.0,559.5599975585938,0.013320605270564556
1729403418.4074988,2338,1729403418,406509253,,0.029458336532115936,0.026554986834526062,62,0.0,559.5499877929688,0.012752502225339413
1729403418.5044403,2339,1729403418,503642845,,0.030245542526245117,0.028169384226202965,62,0.0,559.5499877929688,0.011012653820216656
1729403418.60471,2340,1729403418,603787753,,0.03131362423300743,0.029315995052456856,62,0.0,559.5499877929688,0.011005244217813015
1729403418.705225,2341,1729403418,703762105,,0.03228586167097092,0.030708856880664825,62,0.0,559.5499877929688,0.009967091493308544
1729403418.8089023,2342,1729403418,803751901,,0.032353438436985016,0.03131239116191864,62,0.0,559.5499877929688,0.00814118329435587
1729403418.904928,2343,1729403418,903733716,,0.03285924717783928,0.031952641904354095,62,0.0,559.5399780273438,0.007665427401661873
1729403419.0049088,2344,1729403419,3732882,,0.03419014438986778,0.03305508941411972,62,0.0,559.5399780273438,0.00873653870075941
1729403419.1046174,2345,1729403419,103852808,,0.0341963991522789,0.03320195898413658,62,0.0,559.5399780273438,0.008186792954802513
1729403419.2049286,2346,1729403419,203773530,,0.03438669070601463,0.03374248370528221,62,0.0,559.5299682617188,0.006624896544963121
1729403419.3061092,2347,1729403419,303907623,,0.034179262816905975,0.0338350385427475,62,0.0,559.5199584960938,0.004838588647544384
1729403419.4068992,2348,1729403419,403862178,,0.03330622613430023,0.03300270438194275,62,0.0,559.5199584960938,0.004486215300858021
1729403419.5056412,2349,1729403419,503790882,,0.030659059062600136,0.030435053631663322,62,0.0,559.510009765625,0.0036993559915572405
1729403419.6051147,2350,1729403419,603862660,,0.02976079285144806,0.029388809576630592,62,0.0,559.5199584960938,0.00469067320227623
1729403419.7051532,2351,1729403419,703959400,,0.02999681793153286,0.0291573628783226,62,0.0,559.5199584960938,0.0070467786863446236
1729403419.807424,2352,1729403419,804328826,,0.030411310493946075,0.029201187193393707,62,0.0,559.5299682617188,0.008493432775139809
1729403419.9052598,2353,1729403419,903837067,,0.029748011380434036,0.028230151161551476,62,0.0,559.5399780273438,0.009380968287587166
1729403420.004831,2354,1729403420,3782030,,0.028799617663025856,0.02721143513917923,62,0.0,559.5399780273438,0.009431635029613972
1729403420.10559,2355,1729403420,103748937,,0.02709641307592392,0.025749020278453827,62,0.0,559.5399780273438,0.008438213728368282
1729403420.2044828,2356,1729403420,203805956,,0.02581472508609295,0.024800201877951622,62,0.0,559.5399780273438,0.007165891584008932
1729403420.304647,2357,1729403420,303776770,,0.025073664262890816,0.02430562488734722,62,0.0,559.5299682617188,0.0061583491042256355
1729403420.4045384,2358,1729403420,403861863,,0.023676158860325813,0.023326046764850616,62,0.0,559.5199584960938,0.0040565975941717625
1729403420.5044081,2359,1729403420,503804974,,0.02239697240293026,0.02204257622361183,62,0.0,559.510009765625,0.003968511242419481
1729403420.6048868,2360,1729403420,603971029,,0.020317204296588898,0.020072080194950104,62,0.0,559.510009765625,0.0031465073116123676
1729403420.7055,2361,1729403420,704098511,,0.018245775252580643,0.018106739968061447,62,0.0,559.510009765625,0.0022481693886220455
1729403420.805455,2362,1729403420,804112714,,0.016914382576942444,0.016902010887861252,62,0.0,559.510009765625,0.0006468171486631036
1729403420.9053407,2363,1729403420,904150788,,0.015688998624682426,0.01568400301039219,62,0.0,559.5,-0.00039587338687852025
1729403421.0052936,2364,1729403421,3982066,,0.014300133101642132,0.014292876236140728,62,0.0,559.5,-0.0004554850747808814
1729403421.1064253,2365,1729403421,104176844,,0.013090821914374828,0.013083070516586304,62,0.0,559.5,-0.0004503678355831653
1729403421.2057588,2366,1729403421,203976233,,0.013857484795153141,0.013849972747266293,62,0.0,559.5,-0.00045620184391736984
1729403421.3050635,2367,1729403421,304012066,,0.0157410129904747,0.0157155878841877,62,0.0,559.5,-0.0008943085558712482
1729403421.4052184,2368,1729403421,404187159,,0.01841900311410427,0.018371446058154106,62,0.0,559.5,-0.001322731375694275
1729403421.5054705,2369,1729403421,504179492,,0.02023184299468994,0.020092936232686043,62,0.0,559.5,-0.0023667379282414913
1729403421.6055517,2370,1729403421,604146232,,0.020350569859147072,0.020144930109381676,62,0.0,559.489990234375,-0.0028857383877038956
1729403421.7054205,2371,1729403421,704239973,,0.019864162430167198,0.019554557278752327,62,0.0,559.489990234375,-0.003493462223559618
1729403421.8063052,2372,1729403421,804243473,,0.01923472248017788,0.01855858601629734,62,0.0,559.47998046875,-0.0050550298765301704
1729403421.9048398,2373,1729403421,904116473,,0.01858992502093315,0.01719205640256405,62,0.0,559.47998046875,-0.007072377484291792
1729403422.0055673,2374,1729403422,4251491,,0.019068647176027298,0.017090529203414917,62,0.0,559.469970703125,-0.008457371965050697
1729403422.1056004,2375,1729403422,104163899,,0.021062348037958145,0.01836945302784443,62,0.0,559.469970703125,-0.010304644703865051
1729403422.2053778,2376,1729403422,204223084,,0.02103479579091072,0.018460849300026894,62,0.0,559.469970703125,-0.010082637891173363
1729403422.3053036,2377,1729403422,304368676,,0.021070092916488647,0.018757503479719162,62,0.0,559.4599609375,-0.009597131982445717
1729403422.4052873,2378,1729403422,404253158,,0.02078874409198761,0.0173097662627697,62,0.0,559.4599609375,-0.011512772180140018
1729403422.5059068,2379,1729403422,504531880,,0.020190855488181114,0.015463837422430515,62,0.0,559.4599609375,-0.01298230979591608
1729403422.6053143,2380,1729403422,604366750,,0.019887767732143402,0.014010753482580185,62,0.0,559.4500122070312,-0.01411460805684328
1729403422.7055311,2381,1729403422,704217880,,0.020797593519091606,0.014827517792582512,62,0.0,559.4599609375,-0.014583710581064224
1729403422.8057673,2382,1729403422,804244380,,0.02043009363114834,0.014616410247981548,62,0.0,559.4599609375,-0.014274077489972115
1729403422.9056013,2383,1729403422,904399935,,0.02029956690967083,0.013857529498636723,62,0.0,559.4599609375,-0.014833787456154823
1729403423.00565,2384,1729403423,4262935,,0.020674966275691986,0.013581491075456142,62,0.0,559.4599609375,-0.015588370151817799
1729403423.1052935,2385,1729403423,104399639,,0.019708525389432907,0.012268598191440105,62,0.0,559.4599609375,-0.015424249693751335
1729403423.2054763,2386,1729403423,204389639,,0.01880679279565811,0.012196353636682034,62,0.0,559.4599609375,-0.01431587990373373
1729403423.3065705,2387,1729403423,304351583,,0.017679285258054733,0.0119653744623065,62,0.0,559.4599609375,-0.013014872558414936
1729403423.4069772,2388,1729403423,404424009,,0.01802697591483593,0.012656236067414284,62,0.0,559.4599609375,-0.012837116606533527
1729403423.5056765,2389,1729403423,504464972,,0.018242008984088898,0.01364238653331995,62,0.0,559.4599609375,-0.012110166251659393
1729403423.606551,2390,1729403423,604384694,,0.017595792189240456,0.01355745643377304,62,0.0,559.4599609375,-0.011216382496058941
1729403423.7057414,2391,1729403423,703306009,,0.016445644199848175,0.013699553906917572,62,0.0,559.4599609375,-0.009098428301513195
1729403423.806234,2392,1729403423,804407953,,0.015468506142497063,0.013147118501365185,62,0.0,559.469970703125,-0.008150330744683743
1729403423.9054246,2393,1729403423,904296083,,0.015880558639764786,0.013505703769624233,62,0.0,559.469970703125,-0.008353928104043007
1729403424.0056992,2394,1729403424,4477972,,0.014521635137498379,0.01264216285198927,62,0.0,559.469970703125,-0.007145179435610771
1729403424.1054893,2395,1729403424,104486564,,0.012695183977484703,0.011522430926561356,62,0.0,559.47998046875,-0.005329282023012638
1729403424.2052474,2396,1729403424,203599120,,0.011234902776777744,0.010506648570299149,62,0.0,559.47998046875,-0.003979119937866926
1729403424.3050816,2397,1729403424,303501583,,0.01116169337183237,0.010850311256945133,62,0.0,559.489990234375,-0.0026180411223322153
1729403424.4054937,2398,1729403424,404533786,,0.011430945247411728,0.011196459643542767,62,0.0,559.489990234375,-0.0023034268524497747
1729403424.504298,2399,1729403424,503522009,,0.012174388393759727,0.011839037761092186,62,0.0,559.5,-0.0028377578128129244
1729403424.606671,2400,1729403424,603452138,,0.013005217537283897,0.012843756005167961,62,0.0,559.5,-0.002042933600023389
1729403424.70541,2401,1729403424,704507823,,0.012834388762712479,0.012665189802646637,62,0.0,559.5,-0.0020771322306245565
1729403424.8049366,2402,1729403424,803551934,,0.012488925829529762,0.012375256977975368,62,0.0,559.5,-0.0016811530804261565
1729403424.9047375,2403,1729403424,903592156,,0.012528683990240097,0.012519033625721931,62,0.0,559.5,-0.0004916191101074219
1729403425.0059853,2404,1729403425,4717305,,0.011816801503300667,0.011816742829978466,62,0.0,559.510009765625,3.6752324376720935e-05
1729403425.106055,2405,1729403425,103619953,,0.010300038382411003,0.010294750332832336,62,0.0,559.5199584960938,0.0003300211683381349
1729403425.2061768,2406,1729403425,203533212,,0.00932676438242197,0.009225339628756046,62,0.0,559.5199584960938,0.0013717265101149678
1729403425.3050518,2407,1729403425,303713712,,0.008493888191878796,0.008353160694241524,62,0.0,559.5299682617188,0.0015397450188174844
1729403425.4048047,2408,1729403425,403700619,,0.008592037484049797,0.00818485114723444,62,0.0,559.5399780273438,0.0026136767119169235
1729403425.5048637,2409,1729403425,503618378,,0.01002073660492897,0.009051648899912834,62,0.0,559.5499877929688,0.004299164284020662
1729403425.604944,2410,1729403425,603809582,,0.010008816607296467,0.00834991317242384,62,0.0,559.5599975585938,0.005518635734915733
1729403425.7047021,2411,1729403425,703655804,,0.009520115330815315,0.005877693649381399,62,0.0,559.5700073242188,0.007489012088626623
1729403425.805535,2412,1729403425,804693823,,0.010495178401470184,0.003577456809580326,62,0.0,559.5800170898438,0.009866639040410519
1729403425.9042854,2413,1729403425,903619767,,0.010788919404149055,0.0014805853134021163,62,0.0,559.5800170898438,0.01068684458732605
1729403426.0047388,2414,1729403426,3672341,,0.01004934124648571,0.0013580922968685627,62,0.0,559.5899658203125,0.009957150556147099
1729403426.1077974,2415,1729403426,106656767,,0.00940463226288557,0.0018967412179335952,62,0.0,559.5899658203125,0.009211378172039986
1729403426.2073555,2416,1729403426,204657933,,0.010307167656719685,0.0019100363133475184,62,0.0,559.5899658203125,0.010128645226359367
1729403426.3047488,2417,1729403426,303844026,,0.010568651370704174,0.0036906611640006304,62,0.0,559.5899658203125,0.009903302416205406
1729403426.4047647,2418,1729403426,403736841,,0.010289876721799374,0.0034043702762573957,62,0.0,559.5899658203125,0.009710398502647877
1729403426.5048256,2419,1729403426,503946063,,0.011012641713023186,0.004193206783384085,62,0.0,559.5899658203125,0.010183088481426239
1729403426.6071289,2420,1729403426,604938229,,0.010353047400712967,0.003938680049031973,62,0.0,559.5899658203125,0.009574569761753082
1729403426.704514,2421,1729403426,703690452,,0.009666097350418568,0.003783988766372204,62,0.0,559.5899658203125,0.008894654922187328
1729403426.8070314,2422,1729403426,804948192,,0.009398095309734344,0.004326502326875925,62,0.0,559.5899658203125,0.008342995308339596
1729403426.907421,2423,1729403426,906737470,,0.008847466669976711,0.004890413489192724,62,0.0,559.5899658203125,0.007373027037829161
1729403427.0077546,2424,1729403427,6763600,,0.007538450416177511,0.005308122839778662,62,0.0,559.5800170898438,0.0053527625277638435
1729403427.1047075,2425,1729403427,103779303,,0.007854567840695381,0.006344792433083057,62,0.0,559.5700073242188,0.004630100913345814
1729403427.204896,2426,1729403427,203935359,,0.008507205173373222,0.007891506887972355,62,0.0,559.5599975585938,0.003177524544298649
1729403427.3061163,2427,1729403427,304879488,,0.00985831581056118,0.009844903834164143,62,0.0,559.5499877929688,0.0005140432040207088
1729403427.4045277,2428,1729403427,403858099,,0.010930483229458332,0.010929320007562637,62,0.0,559.5499877929688,0.00015941720630507916
1729403427.5059686,2429,1729403427,504997173,,0.01169492956250906,0.011543208733201027,62,0.0,559.5399780273438,-0.0018776889191940427
1729403427.6060317,2430,1729403427,604905840,,0.01385462936013937,0.013584036380052567,62,0.0,559.5399780273438,-0.002724824473261833
1729403427.7049935,2431,1729403427,703917062,,0.014857299625873566,0.014694997109472752,62,0.0,559.5399780273438,-0.00219005742110312
1729403427.8049495,2432,1729403427,803941414,,0.014207164756953716,0.014033087529242039,62,0.0,559.5299682617188,-0.002217201516032219
1729403427.9047828,2433,1729403427,903896562,,0.012764702551066875,0.012382595799863338,62,0.0,559.5299682617188,-0.0030998268630355597
1729403428.005189,2434,1729403428,3964599,,0.011766888201236725,0.011137742549180984,62,0.0,559.5299682617188,-0.003796090604737401
1729403428.1083136,2435,1729403428,106914062,,0.009865042753517628,0.009602601639926434,62,0.0,559.5399780273438,-0.0022603338584303856
1729403428.2065444,2436,1729403428,203977506,,0.009286259301006794,0.008817301131784916,62,0.0,559.5399780273438,-0.002913728589192033
1729403428.3061016,2437,1729403428,305094895,,0.008396867662668228,0.007654713466763496,62,0.0,559.5399780273438,-0.0034514837898314
1729403428.4049883,2438,1729403428,404046636,,0.009257148951292038,0.008222371339797974,62,0.0,559.5299682617188,-0.004252930171787739
1729403428.5045562,2439,1729403428,503966673,,0.010525514371693134,0.009726417250931263,62,0.0,559.5299682617188,-0.004022839013487101
1729403428.6050317,2440,1729403428,603979099,,0.009699474088847637,0.009039219468832016,62,0.0,559.5299682617188,-0.003517427481710911
1729403428.7058156,2441,1729403428,704042747,,0.00810286495834589,0.007870009168982506,62,0.0,559.5299682617188,-0.0019285680027678609
1729403428.80563,2442,1729403428,804009691,,0.009015620686113834,0.00886330846697092,62,0.0,559.5299682617188,-0.0016502090729773045
1729403428.9047241,2443,1729403428,904015858,,0.011366731487214565,0.011096187867224216,62,0.0,559.5299682617188,-0.002465201076120138
1729403429.0061522,2444,1729403429,5090987,,0.012638697400689125,0.012029786594212055,62,0.0,559.5199584960938,-0.003875685390084982
1729403429.1053286,2445,1729403429,104124895,,0.011754276230931282,0.010765008628368378,62,0.0,559.510009765625,-0.004719916265457869
1729403429.2047818,2446,1729403429,204131691,,0.012211483903229237,0.01035023108124733,62,0.0,559.510009765625,-0.006480205804109573
1729403429.3051105,2447,1729403429,304154209,,0.01264180988073349,0.010706154629588127,62,0.0,559.5,-0.006722618360072374
1729403429.4050467,2448,1729403429,404295506,,0.012818523682653904,0.010288204997777939,62,0.0,559.489990234375,-0.0076463972218334675
1729403429.504944,2449,1729403429,504087376,,0.013056027702987194,0.009326736442744732,62,0.0,559.47998046875,-0.009136293083429337
1729403429.6051235,2450,1729403429,604149005,,0.013421664014458656,0.008995616808533669,62,0.0,559.47998046875,-0.009960919618606567
1729403429.7048671,2451,1729403429,704132931,,0.01333464216440916,0.009586558677256107,62,0.0,559.469970703125,-0.00926879607141018
1729403429.8053515,2452,1729403429,804184857,,0.014664223417639732,0.010540992952883244,62,0.0,559.469970703125,-0.010194456204771996
1729403429.9051614,2453,1729403429,904162616,,0.015248503535985947,0.011639682576060295,62,0.0,559.469970703125,-0.00985061563551426
1729403430.0052319,2454,1729403430,4229579,,0.01778383180499077,0.013724220916628838,62,0.0,559.469970703125,-0.011309747584164143
1729403430.107068,2455,1729403430,106160394,,0.019666938111186028,0.01566069759428501,62,0.0,559.469970703125,-0.011896680109202862
1729403430.2053192,2456,1729403430,204248653,,0.02017013542354107,0.01625905930995941,62,0.0,559.47998046875,-0.011936387047171593
1729403430.3051488,2457,1729403430,304260172,,0.020084785297513008,0.01673204079270363,62,0.0,559.47998046875,-0.011110235005617142
1729403430.4054198,2458,1729403430,404294912,,0.019462140277028084,0.015652848407626152,62,0.0,559.47998046875,-0.011565608903765678
1729403430.5051217,2459,1729403430,504365357,,0.01913115382194519,0.013603024184703827,62,0.0,559.47998046875,-0.013452090322971344
1729403430.6053274,2460,1729403430,604400523,,0.02058444358408451,0.013743764720857143,62,0.0,559.47998046875,-0.015324104577302933
1729403430.705235,2461,1729403430,704461709,,0.021316587924957275,0.012498115189373493,62,0.0,559.469970703125,-0.017268294468522072
1729403430.8054655,2462,1729403430,804340449,,0.022075969725847244,0.012551311403512955,62,0.0,559.4599609375,-0.018160754814743996
1729403430.9055915,2463,1729403430,904345394,,0.023191267624497414,0.013294055126607418,62,0.0,559.4599609375,-0.019002709537744522
1729403431.00566,2464,1729403431,4373931,,0.023217199370265007,0.013545106165111065,62,0.0,559.4599609375,-0.01885652355849743
1729403431.1065652,2465,1729403431,104409801,,0.021994709968566895,0.013798408210277557,62,0.0,559.4599609375,-0.01712808385491371
1729403431.205483,2466,1729403431,204386338,,0.02102346159517765,0.01374861877411604,62,0.0,559.469970703125,-0.015904759988188744
1729403431.305631,2467,1729403431,304430653,,0.020311595872044563,0.013501529581844807,62,0.0,559.469970703125,-0.015174636617302895
1729403431.4083648,2468,1729403431,406396634,,0.021181978285312653,0.014233104884624481,62,0.0,559.4599609375,-0.01568741165101528
1729403431.5058818,2469,1729403431,504489115,,0.022529928013682365,0.014409623108804226,62,0.0,559.4599609375,-0.017319364473223686
1729403431.6084595,2470,1729403431,606403375,,0.02268487773835659,0.012957160361111164,62,0.0,559.4500122070312,-0.01862030290067196
1729403431.7057252,2471,1729403431,704457819,,0.02338659018278122,0.011826111935079098,62,0.0,559.4500122070312,-0.0201761145144701
1729403431.805676,2472,1729403431,804478319,,0.022154804319143295,0.011156153865158558,62,0.0,559.4400024414062,-0.01914094015955925
1729403431.9057548,2473,1729403431,904639634,,0.022674554958939552,0.010054662823677063,62,0.0,559.4400024414062,-0.020323364064097404
1729403432.0057745,2474,1729403432,4502356,,0.02518015168607235,0.010857582092285156,62,0.0,559.4299926757812,-0.022718999534845352
1729403432.105868,2475,1729403432,104596467,,0.027604861184954643,0.010602324269711971,62,0.0,559.4199829101562,-0.02548762410879135
1729403432.2056537,2476,1729403432,204516578,,0.029531212523579597,0.009858732111752033,62,0.0,559.4099731445312,-0.027836987748742104
1729403432.3055906,2477,1729403432,304544152,,0.029028933495283127,0.009404991753399372,62,0.0,559.3999633789062,-0.027463160455226898
1729403432.4056928,2478,1729403432,404545874,,0.03133254870772362,0.010403784923255444,62,0.0,559.3999633789062,-0.029554858803749084
1729403432.505977,2479,1729403432,504588800,,0.03177830949425697,0.010303224436938763,62,0.0,559.3900146484375,-0.03006167709827423
1729403432.6049616,2480,1729403432,603735393,,0.030890261754393578,0.009668619371950626,62,0.0,559.3999633789062,-0.029338134452700615
1729403432.704996,2481,1729403432,703624541,,0.02982102520763874,0.008978399448096752,62,0.0,559.3999633789062,-0.028437331318855286
1729403432.8080533,2482,1729403432,806567337,,0.02722788043320179,0.008979354053735733,62,0.0,559.4099731445312,-0.02570464462041855
1729403432.9049563,2483,1729403432,903686374,,0.02480466477572918,0.008590448647737503,62,0.0,559.4099731445312,-0.02326962724328041
1729403433.0046148,2484,1729403433,3639133,,0.0228933934122324,0.00786640029400587,62,0.0,559.4099731445312,-0.021499469876289368
1729403433.1044946,2485,1729403433,103622244,,0.02257119119167328,0.0068869153037667274,62,0.0,559.4099731445312,-0.02149486169219017
1729403433.2053168,2486,1729403433,204677577,,0.021703973412513733,0.005953791085630655,62,0.0,559.4099731445312,-0.020871387794613838
1729403433.308156,2487,1729403433,306660800,,0.021124763414263725,0.0059395646676421165,62,0.0,559.4099731445312,-0.020272573456168175
1729403433.4044118,2488,1729403433,403597577,,0.020642774179577827,0.006916927173733711,62,0.0,559.3999633789062,-0.019449427723884583
1729403433.5054877,2489,1729403433,503742762,,0.02005590684711933,0.007072527892887592,62,0.0,559.3999633789062,-0.018767492845654488
1729403433.6045198,2490,1729403433,603713762,,0.018945207819342613,0.007472289726138115,62,0.0,559.3999633789062,-0.01740936003625393
1729403433.70445,2491,1729403433,703773299,,0.018345078453421593,0.0070113264955580235,62,0.0,559.3999633789062,-0.016952378675341606
1729403433.8043387,2492,1729403433,803735429,,0.0171239972114563,0.007692506071180105,62,0.0,559.3999633789062,-0.01529890950769186
1729403433.9074442,2493,1729403433,906789225,,0.01647578924894333,0.008235550485551357,62,0.0,559.3999633789062,-0.014269806444644928
1729403434.0049436,2494,1729403434,3791429,,0.016884680837392807,0.009476910345256329,62,0.0,559.3999633789062,-0.013974282890558243
1729403434.1049433,2495,1729403434,103936299,,0.017307858914136887,0.01158527098596096,62,0.0,559.3999633789062,-0.01285859476774931
1729403434.2081594,2496,1729403434,206773614,,0.01745430938899517,0.012432578951120377,62,0.0,559.4099731445312,-0.012250872328877449
1729403434.305153,2497,1729403434,303899651,,0.018550915643572807,0.014360062777996063,62,0.0,559.4099731445312,-0.011744152754545212
1729403434.4048986,2498,1729403434,403854780,,0.01773425191640854,0.014975816011428833,62,0.0,559.4199829101562,-0.00949887465685606
1729403434.5048947,2499,1729403434,503879817,,0.016615236178040504,0.015119616873562336,62,0.0,559.4299926757812,-0.006889356765896082
1729403434.605409,2500,1729403434,603859465,,0.016762137413024902,0.016056355088949203,62,0.0,559.4400024414062,-0.00481277285143733
1729403434.7046673,2501,1729403434,703888632,,0.017476346343755722,0.016765957698225975,62,0.0,559.4400024414062,-0.004932080395519733
1729403434.8051808,2502,1729403434,803924002,,0.01807473413646221,0.017755305394530296,62,0.0,559.4500122070312,-0.0033830772154033184
1729403434.9049516,2503,1729403434,903919243,,0.02036728896200657,0.02032945491373539,62,0.0,559.4599609375,-0.0012408326147124171
1729403435.0049455,2504,1729403435,3950947,,0.020664192736148834,0.02062428928911686,62,0.0,559.469970703125,0.0012835159432142973
1729403435.1076353,2505,1729403435,106893558,,0.01984064280986786,0.019422639161348343,62,0.0,559.47998046875,0.00405118940398097
1729403435.2048566,2506,1729403435,203927076,,0.018528467044234276,0.017696544528007507,62,0.0,559.489990234375,0.005489658564329147
1729403435.3082156,2507,1729403435,306938187,,0.01835644245147705,0.016961636021733284,62,0.0,559.5,0.007018681149929762
1729403435.4048202,2508,1729403435,403993595,,0.017976179718971252,0.015988361090421677,62,0.0,559.5,0.008216768503189087
1729403435.508118,2509,1729403435,505974854,,0.017713531851768494,0.015715081244707108,62,0.0,559.510009765625,0.008173459209501743
1729403435.6075375,2510,1729403435,605086835,,0.018920982256531715,0.01625397428870201,62,0.0,559.510009765625,0.009685653261840343
1729403435.7050896,2511,1729403435,704062354,,0.019277077168226242,0.016794946044683456,62,0.0,559.5199584960938,0.009462318383157253
1729403435.8076718,2512,1729403435,806980594,,0.019247882068157196,0.016650952398777008,62,0.0,559.5199584960938,0.009655398316681385
1729403435.9052243,2513,1729403435,904084705,,0.02053031139075756,0.017223773524165154,62,0.0,559.510009765625,0.011172973550856113
1729403436.005363,2514,1729403436,4083576,,0.019587628543376923,0.016466742381453514,62,0.0,559.510009765625,0.010607621632516384
1729403436.1079547,2515,1729403436,106000928,,0.017854010686278343,0.015257108956575394,62,0.0,559.5,0.009272878989577293
1729403436.20564,2516,1729403436,204096409,,0.016771262511610985,0.01416501123458147,62,0.0,559.5,0.008979291655123234
1729403436.3058991,2517,1729403436,304113705,,0.01499755959957838,0.012733522802591324,62,0.0,559.489990234375,0.007923646830022335
1729403436.4052207,2518,1729403436,404158038,,0.013234970159828663,0.01090992335230112,62,0.0,559.47998046875,0.007492526900023222
1729403436.5052838,2519,1729403436,504174964,,0.010728406719863415,0.00805479846894741,62,0.0,559.469970703125,0.007086531724780798
1729403436.6051939,2520,1729403436,604179372,,0.009638771414756775,0.006398311350494623,62,0.0,559.469970703125,0.007208850234746933
1729403436.7060354,2521,1729403436,704603057,,0.008325515314936638,0.00507257878780365,62,0.0,559.47998046875,0.006601752247661352
1729403436.8054183,2522,1729403436,804160520,,0.007144552189856768,0.005002452526241541,62,0.0,559.469970703125,0.005100989248603582
1729403436.9051297,2523,1729403436,904128834,,0.0066785733215510845,0.004948670044541359,62,0.0,559.469970703125,0.004484864417463541
1729403437.0050704,2524,1729403437,4197020,,0.006667824927717447,0.004451289307326078,62,0.0,559.469970703125,0.0049644652754068375
1729403437.105196,2525,1729403437,104223908,,0.007059259805828333,0.004395612515509129,62,0.0,559.469970703125,0.005523743107914925
1729403437.205116,2526,1729403437,204227853,,0.008808542042970657,0.005281311459839344,62,0.0,559.469970703125,0.007049691863358021
1729403437.3052058,2527,1729403437,304237316,,0.010358043946325779,0.006415175274014473,62,0.0,559.47998046875,0.008132318034768105
1729403437.4057844,2528,1729403437,404319834,,0.010718178004026413,0.0061031607910990715,62,0.0,559.47998046875,0.008810832165181637
1729403437.5053163,2529,1729403437,504285816,,0.010274099186062813,0.005484399851411581,62,0.0,559.47998046875,0.00868783425539732
1729403437.6054308,2530,1729403437,604283149,,0.009855097159743309,0.004662093240767717,62,0.0,559.47998046875,0.008682617917656898
1729403437.705404,2531,1729403437,704274612,,0.010548766702413559,0.003779878607019782,62,0.0,559.489990234375,0.00984829943627119
1729403437.8087733,2532,1729403437,806277315,,0.010792617686092854,0.004448749125003815,62,0.0,559.489990234375,0.009833068586885929
1729403437.9050956,2533,1729403437,904342797,,0.012158331461250782,0.005458850879222155,62,0.0,559.5,0.010863975621759892
1729403438.0063286,2534,1729403438,4366463,,0.013523140922188759,0.007376983296126127,62,0.0,559.5,0.011333819478750229
1729403438.1058202,2535,1729403438,104370074,,0.013751208782196045,0.008043691515922546,62,0.0,559.5,0.011153239756822586
1729403438.205309,2536,1729403438,204522519,,0.013980111107230186,0.008394691161811352,62,0.0,559.5,0.011179118417203426
1729403438.3057382,2537,1729403438,304452963,,0.01472652330994606,0.00930127315223217,62,0.0,559.5,0.011417390778660774
1729403438.4053476,2538,1729403438,404426334,,0.01469073910266161,0.009444091469049454,62,0.0,559.5,0.011252864263951778
1729403438.5054731,2539,1729403438,504594704,,0.01474790833890438,0.010001860558986664,62,0.0,559.5,0.01083806250244379
1729403438.6047416,2540,1729403438,603473426,,0.01625516265630722,0.0109835434705019,62,0.0,559.5,0.0119829922914505
1729403438.7050562,2541,1729403438,703389278,,0.018756330013275146,0.011926649138331413,62,0.0,559.5,0.014476010575890541
1729403438.8045218,2542,1729403438,803515278,,0.01972944103181362,0.010969509370625019,62,0.0,559.510009765625,0.016398800536990166
1729403438.9041173,2543,1729403438,903432389,,0.020213685929775238,0.010967212729156017,62,0.0,559.510009765625,0.016979791224002838
1729403439.0055687,2544,1729403439,4497518,,0.020770283415913582,0.011615712195634842,62,0.0,559.510009765625,0.017218591645359993
1729403439.105896,2545,1729403439,104473870,,0.02226935885846615,0.012486279010772705,62,0.0,559.5199584960938,0.018439553678035736
1729403439.2060668,2546,1729403439,204593981,,0.0236612968146801,0.013315902091562748,62,0.0,559.5199584960938,0.019558724015951157
1729403439.3049388,2547,1729403439,303558018,,0.024566400796175003,0.013934027403593063,62,0.0,559.5199584960938,0.020232422277331352
1729403439.4059863,2548,1729403439,404556703,,0.025652168318629265,0.015066724270582199,62,0.0,559.5299682617188,0.02076120302081108
1729403439.5049617,2549,1729403439,503730685,,0.02694452926516533,0.01567940227687359,62,0.0,559.5299682617188,0.021912645548582077
1729403439.6050584,2550,1729403439,603574000,,0.02609345316886902,0.014872157014906406,62,0.0,559.5299682617188,0.02144031785428524
1729403439.7042902,2551,1729403439,703615092,,0.026786554604768753,0.01342442724853754,62,0.0,559.5399780273438,0.02317982353270054
1729403439.8058138,2552,1729403439,804791796,,0.02847842313349247,0.013753575272858143,62,0.0,559.5499877929688,0.024937115609645844
1729403439.9046378,2553,1729403439,903671536,,0.028545161709189415,0.013166753575205803,62,0.0,559.5499877929688,0.02532711625099182
1729403440.0045342,2554,1729403440,3668907,,0.030686093494296074,0.015016896650195122,62,0.0,559.5599975585938,0.026760589331388474
1729403440.1058185,2555,1729403440,104665481,,0.03295915946364403,0.01723301224410534,62,0.0,559.5700073242188,0.028095006942749023
1729403440.2060957,2556,1729403440,204691795,,0.036261092871427536,0.01988985948264599,62,0.0,559.5800170898438,0.03031930886209011
1729403440.3049157,2557,1729403440,303729610,,0.03841817378997803,0.02228381112217903,62,0.0,559.5899658203125,0.03129516914486885
1729403440.4047651,2558,1729403440,403744573,,0.03874638304114342,0.023959055542945862,62,0.0,559.5999755859375,0.03045070916414261
1729403440.5050826,2559,1729403440,503867110,,0.03921898826956749,0.025066519156098366,62,0.0,559.5999755859375,0.030162863433361053
1729403440.6053436,2560,1729403440,603833184,,0.039284463971853256,0.02625443786382675,62,0.0,559.5999755859375,0.029222821816802025
1729403440.70502,2561,1729403440,703854647,,0.03970843926072121,0.026965107768774033,62,0.0,559.6099853515625,0.029148636385798454
1729403440.805637,2562,1729403440,803771499,,0.04056817665696144,0.0277963075786829,62,0.0,559.6099853515625,0.029548974707722664
1729403440.905306,2563,1729403440,903773258,,0.041947461664676666,0.02947353944182396,62,0.0,559.6099853515625,0.029847946017980576
1729403441.0049603,2564,1729403441,3778999,,0.04049522057175636,0.028537128120660782,62,0.0,559.5999755859375,0.02873142994940281
1729403441.1048954,2565,1729403441,103790350,,0.038045402616262436,0.02649107202887535,62,0.0,559.5999755859375,0.027307067066431046
1729403441.2049747,2566,1729403441,203803684,,0.03604882210493088,0.024857042357325554,62,0.0,559.5999755859375,0.026108330115675926
1729403441.3050578,2567,1729403441,303860554,,0.0334349162876606,0.023485129699110985,62,0.0,559.5899658203125,0.02379794791340828
1729403441.405391,2568,1729403441,403866332,,0.03124113567173481,0.021761750802397728,62,0.0,559.5899658203125,0.022415053099393845
1729403441.504551,2569,1729403441,503839017,,0.03037891536951065,0.020751120522618294,62,0.0,559.5899658203125,0.022187145426869392
1729403441.6051626,2570,1729403441,603921665,,0.03036283329129219,0.021201863884925842,62,0.0,559.5899658203125,0.021734364330768585
1729403441.705448,2571,1729403441,703883795,,0.03018549270927906,0.021936526522040367,62,0.0,559.5800170898438,0.020735301077365875
1729403441.8056266,2572,1729403441,804040813,,0.0296219103038311,0.02159186266362667,62,0.0,559.5800170898438,0.02027927339076996
1729403441.905426,2573,1729403441,903933146,,0.02874959446489811,0.020107721909880638,62,0.0,559.5800170898438,0.020547959953546524
1729403442.0046237,2574,1729403442,3892054,,0.027025507763028145,0.018191393464803696,62,0.0,559.5800170898438,0.01998627372086048
1729403442.1051624,2575,1729403442,103948442,,0.025044742971658707,0.01639406755566597,62,0.0,559.5800170898438,0.018933402374386787
1729403442.2059174,2576,1729403442,204378850,,0.024173613637685776,0.014982372522354126,62,0.0,559.5800170898438,0.018970821052789688
1729403442.3046117,2577,1729403442,303974609,,0.022843308746814728,0.011779784224927425,62,0.0,559.5800170898438,0.019571751356124878
1729403442.4046493,2578,1729403442,404008590,,0.020762871950864792,0.009069203399121761,62,0.0,559.5700073242188,0.018677430227398872
1729403442.5047464,2579,1729403442,504047924,,0.020660337060689926,0.007841899059712887,62,0.0,559.5700073242188,0.019114241003990173
1729403442.605239,2580,1729403442,604046405,,0.020677916705608368,0.006805212702602148,62,0.0,559.5700073242188,0.01952601596713066
1729403442.7053902,2581,1729403442,704073164,,0.020234068855643272,0.005982370115816593,62,0.0,559.5800170898438,0.019329478964209557
1729403442.8064044,2582,1729403442,804144035,,0.0190771222114563,0.00468072947114706,62,0.0,559.5800170898438,0.018493980169296265
1729403442.9048297,2583,1729403442,903969201,,0.018858620896935463,0.0043265363201498985,62,0.0,559.5800170898438,0.018355615437030792
1729403443.006541,2584,1729403443,4231683,,0.016682446002960205,0.003847659332677722,62,0.0,559.5700073242188,0.016232667490839958
1729403443.1049943,2585,1729403443,104077627,,0.015631599351763725,0.002792558865621686,62,0.0,559.5700073242188,0.0153801329433918
1729403443.2047307,2586,1729403443,204081497,,0.015025139786303043,0.001992459176108241,62,0.0,559.5700073242188,0.01489244494587183
1729403443.30507,2587,1729403443,304298331,,0.014734577387571335,0.0011085070436820388,62,0.0,559.5800170898438,0.01469282153993845
1729403443.4048448,2588,1729403443,404195886,,0.015219325199723244,0.0013927306281402707,62,0.0,559.5800170898438,0.01515546627342701
1729403443.5052357,2589,1729403443,504210516,,0.01639019139111042,0.001581359189003706,62,0.0,559.5899658203125,0.01631372608244419
1729403443.6086547,2590,1729403443,604139738,,0.016552399843931198,0.0017640087753534317,62,0.0,559.5899658203125,0.016458135098218918
1729403443.7053576,2591,1729403443,704160627,,0.018168101087212563,0.0040159509517252445,62,0.0,559.5999755859375,0.017718689516186714
1729403443.805664,2592,1729403443,804286090,,0.017338227480649948,0.006012036930769682,62,0.0,559.5999755859375,0.016262520104646683
1729403443.9057949,2593,1729403443,904269367,,0.016567552462220192,0.008469309657812119,62,0.0,559.5999755859375,0.014239192940294743
1729403444.0054545,2594,1729403444,4283571,,0.016291676089167595,0.011323523707687855,62,0.0,559.5999755859375,0.011713092215359211
1729403444.1043794,2595,1729403444,103301775,,0.016044972464442253,0.01325566042214632,62,0.0,559.5899658203125,0.009040387347340584
1729403444.205696,2596,1729403444,204268145,,0.017139751464128494,0.015718868002295494,62,0.0,559.5800170898438,0.006832883693277836
1729403444.3058057,2597,1729403444,304417626,,0.018917713314294815,0.018352145329117775,62,0.0,559.5800170898438,0.004591142293065786
1729403444.404516,2598,1729403444,403378571,,0.01967446878552437,0.019299529492855072,62,0.0,559.5800170898438,0.0038226803299039602
1729403444.505458,2599,1729403444,504321478,,0.021195493638515472,0.02098221890628338,62,0.0,559.5800170898438,0.0029992475174367428
1729403444.605434,2600,1729403444,604380756,,0.022595401853322983,0.02247447520494461,62,0.0,559.5700073242188,0.0023345535155385733
1729403444.705415,2601,1729403444,703407126,,0.023813141509890556,0.02379516139626503,62,0.0,559.5700073242188,0.0009251208393834531
1729403444.8054879,2602,1729403444,804605848,,0.02552332915365696,0.02546032704412937,62,0.0,559.5599975585938,-0.001792227616533637
1729403444.905228,2603,1729403444,903370126,,0.02652031183242798,0.025803906843066216,62,0.0,559.5499877929688,-0.0061225323006510735
1729403445.004274,2604,1729403445,3338515,,0.02832971140742302,0.026688311249017715,62,0.0,559.5299682617188,-0.009502967819571495
1729403445.1044924,2605,1729403445,103570737,,0.030312707647681236,0.02886461839079857,62,0.0,559.5299682617188,-0.00925709679722786
1729403445.2056515,2606,1729403445,203439274,,0.03285721316933632,0.031292304396629333,62,0.0,559.5299682617188,-0.010019386187195778
1729403445.3047538,2607,1729403445,303414996,,0.03601996600627899,0.03438011556863785,62,0.0,559.5199584960938,-0.010744553990662098
1729403445.404788,2608,1729403445,403486255,,0.038468729704618454,0.03664647415280342,62,0.0,559.5199584960938,-0.011699526570737362
1729403445.5043302,2609,1729403445,503560274,,0.041521187871694565,0.039748575538396835,62,0.0,559.510009765625,-0.012002491392195225
1729403445.6047838,2610,1729403445,603463903,,0.042767055332660675,0.04084331542253494,62,0.0,559.510009765625,-0.01268243882805109
1729403445.7053907,2611,1729403445,703418366,,0.04473540931940079,0.04280175268650055,62,0.0,559.510009765625,-0.013010231778025627
1729403445.8059561,2612,1729403445,804591274,,0.04616326093673706,0.044376783072948456,62,0.0,559.510009765625,-0.012717992067337036
1729403445.9046974,2613,1729403445,903646218,,0.046769484877586365,0.0451100654900074,62,0.0,559.5199584960938,-0.012347736395895481
1729403446.005048,2614,1729403446,3594792,,0.04713696986436844,0.04565843567252159,62,0.0,559.5299682617188,-0.011713288724422455
1729403446.1041932,2615,1729403446,103523625,,0.04772069305181503,0.046374451369047165,62,0.0,559.5299682617188,-0.011254994198679924
1729403446.205074,2616,1729403446,203654070,,0.04809916019439697,0.046964097768068314,62,0.0,559.5399780273438,-0.010387610644102097
1729403446.3058825,2617,1729403446,303592366,,0.048788152635097504,0.04768296703696251,62,0.0,559.5399780273438,-0.01032561156898737
1729403446.406565,2618,1729403446,403550088,,0.04936324059963226,0.04842253029346466,62,0.0,559.5399780273438,-0.00959106720983982
1729403446.5048184,2619,1729403446,503649884,,0.05036541074514389,0.04971257597208023,62,0.0,559.5499877929688,-0.008082976564764977
1729403446.604511,2620,1729403446,603558181,,0.05149778723716736,0.05072841793298721,62,0.0,559.5499877929688,-0.008868447504937649
1729403446.7051842,2621,1729403446,703654866,,0.051734987646341324,0.05098571628332138,62,0.0,559.5399780273438,-0.008772999048233032
1729403446.8049698,2622,1729403446,803760236,,0.05245809629559517,0.05138785392045975,62,0.0,559.5399780273438,-0.010542303323745728
1729403446.9049797,2623,1729403446,903623643,,0.052312448620796204,0.050942014902830124,62,0.0,559.5299682617188,-0.011895503848791122
1729403447.0057259,2624,1729403447,4611625,,0.051976121962070465,0.050433605909347534,62,0.0,559.5299682617188,-0.012568548321723938
1729403447.1052706,2625,1729403447,103670328,,0.05150587856769562,0.05035755783319473,62,0.0,559.5299682617188,-0.010815361514687538
1729403447.2058563,2626,1729403447,203618588,,0.05132594332098961,0.05014193058013916,62,0.0,559.5299682617188,-0.010960815474390984
1729403447.3053155,2627,1729403447,303704791,,0.049381595104932785,0.04840543121099472,62,0.0,559.5299682617188,-0.009770160540938377
1729403447.4056726,2628,1729403447,403663587,,0.04822048544883728,0.047388941049575806,62,0.0,559.5399780273438,-0.008916480466723442
1729403447.5074368,2629,1729403447,504025643,,0.04731633514165878,0.046557504683732986,62,0.0,559.5499877929688,-0.008440041914582253
1729403447.6077273,2630,1729403447,603695865,,0.046554531902074814,0.045967791229486465,62,0.0,559.5399780273438,-0.007367957383394241
1729403447.704284,2631,1729403447,703690550,,0.04523603618144989,0.04467888921499252,62,0.0,559.5399780273438,-0.007077839691191912
1729403447.8048472,2632,1729403447,803730161,,0.04413918778300285,0.04352831840515137,62,0.0,559.5399780273438,-0.007318011485040188
1729403447.9047885,2633,1729403447,903758846,,0.042669665068387985,0.04193078354001045,62,0.0,559.5399780273438,-0.00790631677955389
1729403448.0051746,2634,1729403448,3893995,,0.040555160492658615,0.03979640454053879,62,0.0,559.5399780273438,-0.007808145601302385
1729403448.1055553,2635,1729403448,104816235,,0.03875047340989113,0.037733014672994614,62,0.0,559.5299682617188,-0.008821488358080387
1729403448.207538,2636,1729403448,203792383,,0.037621643394231796,0.03626454249024391,62,0.0,559.5299682617188,-0.010013544000685215
1729403448.3067255,2637,1729403448,303807161,,0.03681401535868645,0.03512497991323471,62,0.0,559.5299682617188,-0.011023026891052723
1729403448.4060574,2638,1729403448,403838605,,0.03560944274067879,0.033935412764549255,62,0.0,559.5299682617188,-0.010789815336465836
1729403448.5051348,2639,1729403448,503802828,,0.035652320832014084,0.03464057296514511,62,0.0,559.5399780273438,-0.008433185517787933
1729403448.6057863,2640,1729403448,603879642,,0.03611735627055168,0.03545309230685234,62,0.0,559.5399780273438,-0.006895045284181833
1729403448.7053177,2641,1729403448,703915476,,0.03700258582830429,0.036593299359083176,62,0.0,559.5499877929688,-0.005488310009241104
1729403448.8049319,2642,1729403448,803885976,,0.03845183178782463,0.03810831159353256,62,0.0,559.5399780273438,-0.005128317978233099
1729403448.905498,2643,1729403448,903968068,,0.040166158229112625,0.039820704609155655,62,0.0,559.5399780273438,-0.00525654898956418
1729403449.0045118,2644,1729403449,3904235,,0.0399317666888237,0.039603181183338165,62,0.0,559.5399780273438,-0.005112173967063427
1729403449.1050637,2645,1729403449,103967086,,0.038877177983522415,0.03860685974359512,62,0.0,559.5399780273438,-0.004576568491756916
1729403449.2052374,2646,1729403449,203956049,,0.03729472681879997,0.03707034885883331,62,0.0,559.5399780273438,-0.004084886517375708
1729403449.3050716,2647,1729403449,304204457,,0.03610795736312866,0.035605307668447495,62,0.0,559.5399780273438,-0.006003918591886759
1729403449.4048688,2648,1729403449,404004771,,0.03462168574333191,0.034185588359832764,62,0.0,559.5399780273438,-0.005477845668792725
1729403449.5052314,2649,1729403449,504057845,,0.03276127204298973,0.03225052356719971,62,0.0,559.5299682617188,-0.005762332584708929
1729403449.604648,2650,1729403449,604001790,,0.030637165531516075,0.029869265854358673,62,0.0,559.5299682617188,-0.006816379725933075
1729403449.7054484,2651,1729403449,704049956,,0.028879091143608093,0.02779756300151348,62,0.0,559.5299682617188,-0.007829264737665653
1729403449.805781,2652,1729403449,804123975,,0.028349699452519417,0.02731049619615078,62,0.0,559.5199584960938,-0.007605391088873148
1729403449.905071,2653,1729403449,903980586,,0.027275320142507553,0.026418404653668404,62,0.0,559.5299682617188,-0.006783118937164545
1729403450.0053344,2654,1729403450,4093697,,0.02886134386062622,0.02799931727349758,62,0.0,559.5299682617188,-0.007001103367656469
1729403450.1055374,2655,1729403450,104071715,,0.030367493629455566,0.029733967036008835,62,0.0,559.5299682617188,-0.006170574110001326
1729403450.204807,2656,1729403450,204063160,,0.03171059116721153,0.031066490337252617,62,0.0,559.5399780273438,-0.006358829326927662
1729403450.3045847,2657,1729403450,303080826,,0.031825609505176544,0.03148666396737099,62,0.0,559.5399780273438,-0.004632397089153528
1729403450.4045453,2658,1729403450,403156919,,0.03309698402881622,0.032681938260793686,62,0.0,559.5399780273438,-0.0052250525914132595
1729403450.5055566,2659,1729403450,504147086,,0.03389789164066315,0.033634718507528305,62,0.0,559.5399780273438,-0.0042157601565122604
1729403450.6056032,2660,1729403450,604323845,,0.03471389412879944,0.03457969054579735,62,0.0,559.5499877929688,-0.003049518447369337
1729403450.7064323,2661,1729403450,704196271,,0.03578446805477142,0.03571503981947899,62,0.0,559.5499877929688,-0.002227989723905921
1729403450.8057914,2662,1729403450,804200845,,0.036061421036720276,0.0360487662255764,62,0.0,559.5499877929688,-0.0009550786926411092
1729403450.905857,2663,1729403450,904188826,,0.03544413670897484,0.035404711961746216,62,0.0,559.5499877929688,-0.0016712098149582744
1729403451.00648,2664,1729403451,3174474,,0.035499557852745056,0.03547607362270355,62,0.0,559.5499877929688,-0.0012911686208099127
1729403451.1056144,2665,1729403451,104237937,,0.035663947463035583,0.03560986369848251,62,0.0,559.5499877929688,-0.001963288290426135
1729403451.2073007,2666,1729403451,203265270,,0.03525758162140846,0.035164725035429,62,0.0,559.5499877929688,-0.0025571712758392096
1729403451.3043585,2667,1729403451,303299789,,0.03469344228506088,0.034643400460481644,62,0.0,559.5499877929688,-0.0018626813543960452
1729403451.4046276,2668,1729403451,403271196,,0.03473685681819916,0.03469710797071457,62,0.0,559.5499877929688,-0.0016613539773970842
1729403451.5041,2669,1729403451,503323900,,0.03353244066238403,0.033508457243442535,62,0.0,559.5499877929688,-0.0012679960345849395
1729403451.6039627,2670,1729403451,603298641,,0.033580485731363297,0.0335802398622036,62,0.0,559.5499877929688,-0.00012801245611626655
1729403451.703947,2671,1729403451,703293900,,0.034633006900548935,0.0346212275326252,62,0.0,559.5599975585938,0.0009029852226376534
1729403451.8042078,2672,1729403451,803348733,,0.035045068711042404,0.03496197983622551,62,0.0,559.5599975585938,0.0024117566645145416
1729403451.9040103,2673,1729403451,903336437,,0.035935696214437485,0.03553524613380432,62,0.0,559.5700073242188,0.00534979859367013
1729403452.0051432,2674,1729403452,4331455,,0.03536275774240494,0.034768182784318924,62,0.0,559.5800170898438,0.006457386538386345
1729403452.1048396,2675,1729403452,103838159,,0.034267306327819824,0.03340062126517296,62,0.0,559.5800170898438,0.007658108603209257
1729403452.204572,2676,1729403452,203363733,,0.03409726172685623,0.03310026600956917,62,0.0,559.5899658203125,0.008185072802007198
1729403452.3044684,2677,1729403452,303320399,,0.034537799656391144,0.033287834376096725,62,0.0,559.5899658203125,0.009207580238580704
1729403452.4051857,2678,1729403452,403409418,,0.03577633202075958,0.03452159836888313,62,0.0,559.5899658203125,0.00939174834638834
1729403452.5058296,2679,1729403452,503391584,,0.03835458308458328,0.037346649914979935,62,0.0,559.5999755859375,0.008735071867704391
1729403452.605122,2680,1729403452,603611918,,0.04008449241518974,0.03868343308568001,62,0.0,559.5999755859375,0.01050517801195383
1729403452.7052302,2681,1729403452,703421010,,0.04256719723343849,0.04115232080221176,62,0.0,559.5999755859375,0.010883612558245659
1729403452.8042953,2682,1729403452,803381529,,0.04311572387814522,0.04173874109983444,62,0.0,559.5999755859375,0.010809378698468208
1729403452.9050567,2683,1729403452,903479251,,0.04224514588713646,0.04104577749967575,62,0.0,559.5899658203125,0.009994789958000183
1729403453.004998,2684,1729403453,3509177,,0.04175640642642975,0.04056719318032265,62,0.0,559.5899658203125,0.009894453920423985
1729403453.105029,2685,1729403453,103662973,,0.04211248829960823,0.04084048420190811,62,0.0,559.5899658203125,0.010272121988236904
1729403453.2045012,2686,1729403453,203472510,,0.041845906525850296,0.040769100189208984,62,0.0,559.5899658203125,0.00943187065422535
1729403453.3042843,2687,1729403453,303491825,,0.041191186755895615,0.04028993472456932,62,0.0,559.5899658203125,0.008569389581680298
1729403453.404876,2688,1729403453,403570825,,0.04082692787051201,0.039622049778699875,62,0.0,559.5899658203125,0.009845372289419174
1729403453.5047815,2689,1729403453,503626954,,0.04097769781947136,0.03901125118136406,62,0.0,559.5999755859375,0.012541694566607475
1729403453.6045036,2690,1729403453,603589176,,0.04192541539669037,0.039066895842552185,62,0.0,559.6099853515625,0.01521572656929493
1729403453.7048473,2691,1729403453,703556028,,0.04316048324108124,0.03938537836074829,62,0.0,559.6199951171875,0.017652731388807297
1729403453.8051193,2692,1729403453,803667658,,0.044053200632333755,0.03994514420628548,62,0.0,559.6199951171875,0.018576068803668022
1729403453.9054759,2693,1729403453,904203417,,0.044269707053899765,0.03998146951198578,62,0.0,559.6300048828125,0.019007608294487
1729403454.0048945,2694,1729403454,3622880,,0.04376227408647537,0.0392875149846077,62,0.0,559.6300048828125,0.01927763596177101
1729403454.1054208,2695,1729403454,103815491,,0.04200734943151474,0.03783385083079338,62,0.0,559.6300048828125,0.018254239112138748
1729403454.204573,2696,1729403454,203659917,,0.04028725251555443,0.035998329520225525,62,0.0,559.6300048828125,0.018088197335600853
1729403454.3045843,2697,1729403454,303655898,,0.038293417543172836,0.034310635179281235,62,0.0,559.6400146484375,0.01700487919151783
1729403454.4043357,2698,1729403454,403650620,,0.03645534813404083,0.031838901340961456,62,0.0,559.6400146484375,0.01775602623820305
1729403454.5048108,2699,1729403454,503732972,,0.034063536673784256,0.02874126099050045,62,0.0,559.6499633789062,0.018282903358340263
1729403454.604436,2700,1729403454,603753379,,0.032648373395204544,0.026472309604287148,62,0.0,559.6499633789062,0.01910845935344696
1729403454.7050161,2701,1729403454,703785361,,0.031730636954307556,0.02468334697186947,62,0.0,559.6599731445312,0.019939051941037178
1729403454.8068433,2702,1729403454,803723565,,0.031822320073843,0.02349039353430271,62,0.0,559.6599731445312,0.02146768383681774
1729403454.9055238,2703,1729403454,903722490,,0.03202975168824196,0.022464316338300705,62,0.0,559.6699829101562,0.022831104695796967
1729403455.0050929,2704,1729403455,3938898,,0.03156134858727455,0.021693911403417587,62,0.0,559.6699829101562,0.022923631593585014
1729403455.1057587,2705,1729403455,103788861,,0.031915802508592606,0.020580200478434563,62,0.0,559.6799926757812,0.02439413219690323
1729403455.2049036,2706,1729403455,203845824,,0.0326412096619606,0.021056897938251495,62,0.0,559.6900024414062,0.024941042065620422
1729403455.3048186,2707,1729403455,303806638,,0.0340338870882988,0.02161436527967453,62,0.0,559.7000122070312,0.02628925070166588
1729403455.4052746,2708,1729403455,403888823,,0.035455748438835144,0.021216372027993202,62,0.0,559.7099609375,0.028407320380210876
1729403455.5066566,2709,1729403455,505782860,,0.03519608825445175,0.020440777763724327,62,0.0,559.7099609375,0.02865203656256199
1729403455.604919,2710,1729403455,603810046,,0.03428145870566368,0.018848679959774017,62,0.0,559.719970703125,0.0286346934735775
1729403455.7047596,2711,1729403455,703852305,,0.03283301740884781,0.016928834840655327,62,0.0,559.719970703125,0.02813221514225006
1729403455.8066564,2712,1729403455,805824712,,0.030413657426834106,0.015220506116747856,62,0.0,559.719970703125,0.02633109875023365
1729403455.9050531,2713,1729403455,903961564,,0.029280824586749077,0.01450598705559969,62,0.0,559.719970703125,0.025435075163841248
1729403456.0051088,2714,1729403456,3894916,,0.0290338397026062,0.01614302024245262,62,0.0,559.719970703125,0.024132275953888893
1729403456.1047544,2715,1729403456,103866545,,0.028467150405049324,0.01836819015443325,62,0.0,559.719970703125,0.021748295053839684
1729403456.2045774,2716,1729403456,203951804,,0.028786392882466316,0.01892942376434803,62,0.0,559.7099609375,0.02168717049062252
1729403456.3047693,2717,1729403456,303961990,,0.02841099165380001,0.018423497676849365,62,0.0,559.7099609375,0.021627740934491158
1729403456.4068885,2718,1729403456,405920286,,0.028380561619997025,0.018632641062140465,62,0.0,559.7099609375,0.02140749618411064
1729403456.5046947,2719,1729403456,503980026,,0.027531171217560768,0.018200213089585304,62,0.0,559.7099609375,0.020657144486904144
1729403456.6069605,2720,1729403456,605933230,,0.02691655047237873,0.017826160416007042,62,0.0,559.7099609375,0.0201675146818161
1729403456.7069726,2721,1729403456,705934415,,0.025884808972477913,0.01617475599050522,62,0.0,559.7099609375,0.020208923146128654
1729403456.8047252,2722,1729403456,803968693,,0.026341425254940987,0.015829620882868767,62,0.0,559.7099609375,0.021054541692137718
1729403456.9052603,2723,1729403456,904191341,,0.025451114401221275,0.01600831001996994,62,0.0,559.7099609375,0.019786186516284943
1729403457.0046077,2724,1729403457,3983841,,0.025123046711087227,0.01584201492369175,62,0.0,559.7099609375,0.019498666748404503
1729403457.1049237,2725,1729403457,104021322,,0.024439536035060883,0.01549576036632061,62,0.0,559.7099609375,0.01889900304377079
1729403457.2048004,2726,1729403457,204116896,,0.025118546560406685,0.01600872538983822,62,0.0,559.719970703125,0.01935618929564953
1729403457.3051755,2727,1729403457,304272026,,0.024766389280557632,0.015455156564712524,62,0.0,559.719970703125,0.019352316856384277
1729403457.406806,2728,1729403457,406045822,,0.024165932089090347,0.016031257808208466,62,0.0,559.7099609375,0.018082894384860992
1729403457.5051312,2729,1729403457,504061433,,0.02339988388121128,0.01627141237258911,62,0.0,559.719970703125,0.016816532239317894
1729403457.6055882,2730,1729403457,604317878,,0.023120034486055374,0.01582900620996952,62,0.0,559.719970703125,0.01685166358947754
1729403457.7057443,2731,1729403457,704059063,,0.022489488124847412,0.01565714366734028,62,0.0,559.719970703125,0.016144070774316788
1729403457.80499,2732,1729403457,804094303,,0.02228720672428608,0.01562952622771263,62,0.0,559.719970703125,0.015888283029198647
1729403457.906443,2733,1729403457,904293507,,0.022236566990613937,0.015504756942391396,62,0.0,559.719970703125,0.015939489006996155
1729403458.0067987,2734,1729403458,4415729,,0.02218617871403694,0.014414628967642784,62,0.0,559.719970703125,0.016865495592355728
1729403458.1050398,2735,1729403458,104204544,,0.022126197814941406,0.013041876256465912,62,0.0,559.719970703125,0.01787394843995571
1729403458.205133,2736,1729403458,204335174,,0.021414147689938545,0.013240454718470573,62,0.0,559.719970703125,0.016830211505293846
1729403458.305139,2737,1729403458,304215062,,0.021366694942116737,0.013808312825858593,62,0.0,559.7099609375,0.016305401921272278
1729403458.404245,2738,1729403458,403231655,,0.020258817821741104,0.014133401215076447,62,0.0,559.7099609375,0.014514360576868057
1729403458.5045373,2739,1729403458,503205859,,0.020393647253513336,0.014763412065804005,62,0.0,559.7099609375,0.014069201424717903
1729403458.605611,2740,1729403458,604249822,,0.019985012710094452,0.015024684369564056,62,0.0,559.7099609375,0.013177991844713688
1729403458.7076948,2741,1729403458,706195636,,0.01916596293449402,0.01536250114440918,62,0.0,559.7000122070312,0.011459832079708576
1729403458.805469,2742,1729403458,804315136,,0.017636625096201897,0.015406018123030663,62,0.0,559.6799926757812,0.008585169911384583
1729403458.9042401,2743,1729403458,903248414,,0.01662648469209671,0.015434494242072105,62,0.0,559.6699829101562,0.006181937176734209
1729403459.004548,2744,1729403459,3416469,,0.015406226739287376,0.014755172654986382,62,0.0,559.6599731445312,0.00443133432418108
1729403459.1080391,2745,1729403459,106301673,,0.013272249139845371,0.013163970783352852,62,0.0,559.6499633789062,0.0016918855253607035
1729403459.2063808,2746,1729403459,204372136,,0.012090351432561874,0.0120698232203722,62,0.0,559.6400146484375,0.0007042590295895934
1729403459.3087928,2747,1729403459,304380136,,0.01220663171261549,0.012141909450292587,62,0.0,559.6400146484375,0.0012553215492516756
1729403459.4045656,2748,1729403459,403390080,,0.012707251124083996,0.012691548094153404,62,0.0,559.6400146484375,0.0006315286736935377
1729403459.5042977,2749,1729403459,503387895,,0.012632264755666256,0.01263202354311943,62,0.0,559.6400146484375,7.769084913888946e-05
1729403459.6046007,2750,1729403459,603376765,,0.012679057195782661,0.012591613456606865,62,0.0,559.6400146484375,-0.0014864971162751317
