Time,header.seq,header.stamp.secs,header.stamp.nsecs,header.frame_id,voltage,temperature,current,charge,capacity,design_capacity,percentage,power_supply_status,power_supply_health,power_supply_technology,present,cell_voltage_0,location,serial_number
1729403414.563545,2296,1729403414,116917570,,0.17000000178813934,0.0,0.009999999776482582,nan,nan,nan,-0.009999999776482582,2,0,0,True,0.17000000178813934,id0,
1729403414.5636978,2297,1729403414,215817107,,0.10999999940395355,0.0,0.009999999776482582,nan,nan,nan,-0.009999999776482582,2,0,0,True,0.10999999940395355,id0,
1729403414.5640059,2298,1729403414,316763589,,0.13500000536441803,0.0,0.009999999776482582,nan,nan,nan,-0.009999999776482582,2,0,0,True,0.13500000536441803,id0,
1729403414.564138,2299,1729403414,418876718,,0.13199999928474426,0.0,0.009999999776482582,nan,nan,nan,-0.009999999776482582,2,0,0,True,0.13199999928474426,id0,
1729403414.5644176,2300,1729403414,515849866,,0.15000000596046448,0.0,0.009999999776482582,nan,nan,nan,-0.009999999776482582,2,0,0,True,0.15000000596046448,id0,
1729403414.6162379,2301,1729403414,615893477,,0.14800000190734863,0.0,0.009999999776482582,nan,nan,nan,-0.009999999776482582,2,0,0,True,0.14800000190734863,id0,
1729403414.716114,2302,1729403414,715865329,,0.15199999511241913,0.0,0.009999999776482582,nan,nan,nan,-0.009999999776482582,2,0,0,True,0.15199999511241913,id0,
1729403414.8192055,2303,1729403414,818931718,,0.15700000524520874,0.0,0.009999999776482582,nan,nan,nan,-0.009999999776482582,2,0,0,True,0.15700000524520874,id0,
1729403414.9163904,2304,1729403414,915944199,,0.11699999868869781,0.0,0.009999999776482582,nan,nan,nan,-0.009999999776482582,2,0,0,True,0.11699999868869781,id0,
1729403415.0173292,2305,1729403415,16955070,,0.14100000262260437,0.0,0.009999999776482582,nan,nan,nan,-0.009999999776482582,2,0,0,True,0.14100000262260437,id0,
1729403415.1162806,2306,1729403415,115918903,,0.1459999978542328,0.0,0.009999999776482582,nan,nan,nan,-0.009999999776482582,2,0,0,True,0.1459999978542328,id0,
1729403415.2162733,2307,1729403415,215925958,,0.16699999570846558,0.0,0.009999999776482582,nan,nan,nan,-0.009999999776482582,2,0,0,True,0.16699999570846558,id0,
1729403415.3151236,2308,1729403415,314791958,,0.17900000512599945,0.0,0.009999999776482582,nan,nan,nan,-0.009999999776482582,2,0,0,True,0.17900000512599945,id0,
1729403415.419577,2309,1729403415,419049607,,0.164000004529953,0.0,0.009999999776482582,nan,nan,nan,-0.009999999776482582,2,0,0,True,0.164000004529953,id0,
1729403415.5201614,2310,1729403415,517449236,,0.16899999976158142,0.0,0.009999999776482582,nan,nan,nan,-0.009999999776482582,2,0,0,True,0.16899999976158142,id0,
1729403415.6166525,2311,1729403415,616057162,,0.15299999713897705,0.0,0.009999999776482582,nan,nan,nan,-0.009999999776482582,2,0,0,True,0.15299999713897705,id0,
1729403415.7178442,2312,1729403415,716578217,,0.18799999356269836,0.0,0.009999999776482582,nan,nan,nan,-0.009999999776482582,2,0,0,True,0.18799999356269836,id0,
1729403415.8196757,2313,1729403415,819116699,,0.17900000512599945,0.0,0.009999999776482582,nan,nan,nan,-0.009999999776482582,2,0,0,True,0.17900000512599945,id0,
1729403415.9176698,2314,1729403415,916510328,,0.14100000262260437,0.0,0.009999999776482582,nan,nan,nan,-0.009999999776482582,2,0,0,True,0.14100000262260437,id0,
1729403416.017539,2315,1729403416,16519773,,0.19200000166893005,0.0,0.009999999776482582,nan,nan,nan,-0.009999999776482582,2,0,0,True,0.19200000166893005,id0,
1729403416.117106,2316,1729403416,116195643,,0.16099999845027924,0.0,0.009999999776482582,nan,nan,nan,-0.009999999776482582,2,0,0,True,0.16099999845027924,id0,
1729403416.2170088,2317,1729403416,216213532,,0.16200000047683716,0.0,0.009999999776482582,nan,nan,nan,-0.009999999776482582,2,0,0,True,0.16200000047683716,id0,
1729403416.3196945,2318,1729403416,319147180,,0.1379999965429306,0.0,0.009999999776482582,nan,nan,nan,-0.009999999776482582,2,0,0,True,0.1379999965429306,id0,
1729403416.4167428,2319,1729403416,416169124,,0.1850000023841858,0.0,0.009999999776482582,nan,nan,nan,-0.009999999776482582,2,0,0,True,0.1850000023841858,id0,
1729403416.5197055,2320,1729403416,519171606,,0.1770000010728836,0.0,0.009999999776482582,nan,nan,nan,-0.009999999776482582,2,0,0,True,0.1770000010728836,id0,
1729403416.6197762,2321,1729403416,619224550,,0.1589999943971634,0.0,0.009999999776482582,nan,nan,nan,-0.009999999776482582,2,0,0,True,0.1589999943971634,id0,
1729403416.716767,2322,1729403416,716210050,,0.1940000057220459,0.0,0.009999999776482582,nan,nan,nan,-0.009999999776482582,2,0,0,True,0.1940000057220459,id0,
1729403416.8169887,2323,1729403416,816304846,,0.16500000655651093,0.0,0.009999999776482582,nan,nan,nan,-0.009999999776482582,2,0,0,True,0.16500000655651093,id0,
1729403416.9200597,2324,1729403416,919324587,,0.14000000059604645,0.0,0.009999999776482582,nan,nan,nan,-0.009999999776482582,2,0,0,True,0.14000000059604645,id0,
1729403417.0206115,2325,1729403417,19390476,,0.18199999630451202,0.0,0.009999999776482582,nan,nan,nan,-0.009999999776482582,2,0,0,True,0.18199999630451202,id0,
1729403417.1168432,2326,1729403417,116287828,,0.20499999821186066,0.0,0.009999999776482582,nan,nan,nan,-0.009999999776482582,2,0,0,True,0.20499999821186066,id0,
1729403417.216722,2327,1729403417,216262624,,0.15299999713897705,0.0,0.009999999776482582,nan,nan,nan,-0.009999999776482582,2,0,0,True,0.15299999713897705,id0,
1729403417.317903,2328,1729403417,316614365,,0.16599999368190765,0.0,0.009999999776482582,nan,nan,nan,-0.009999999776482582,2,0,0,True,0.16599999368190765,id0,
1729403417.4155965,2329,1729403417,414548087,,0.16300000250339508,0.0,0.009999999776482582,nan,nan,nan,-0.009999999776482582,2,0,0,True,0.16300000250339508,id0,
1729403417.5167608,2330,1729403417,516304253,,0.1809999942779541,0.0,0.009999999776482582,nan,nan,nan,-0.009999999776482582,2,0,0,True,0.1809999942779541,id0,
1729403417.6186075,2331,1729403417,618259383,,0.1599999964237213,0.0,0.009999999776482582,nan,nan,nan,-0.009999999776482582,2,0,0,True,0.1599999964237213,id0,
1729403417.7172587,2332,1729403417,716516216,,0.16699999570846558,0.0,0.009999999776482582,nan,nan,nan,-0.009999999776482582,2,0,0,True,0.16699999570846558,id0,
1729403417.8165987,2333,1729403417,816299550,,0.17000000178813934,0.0,0.009999999776482582,nan,nan,nan,-0.009999999776482582,2,0,0,True,0.17000000178813934,id0,
1729403417.9179344,2334,1729403417,916692846,,0.16200000047683716,0.0,0.009999999776482582,nan,nan,nan,-0.009999999776482582,2,0,0,True,0.16200000047683716,id0,
1729403418.0189402,2335,1729403418,18420809,,0.1469999998807907,0.0,0.009999999776482582,nan,nan,nan,-0.009999999776482582,2,0,0,True,0.1469999998807907,id0,
1729403418.1170442,2336,1729403418,116449179,,0.14800000190734863,0.0,0.009999999776482582,nan,nan,nan,-0.009999999776482582,2,0,0,True,0.14800000190734863,id0,
1729403418.216869,2337,1729403418,214853327,,0.17900000512599945,0.0,0.009999999776482582,nan,nan,nan,-0.009999999776482582,2,0,0,True,0.17900000512599945,id0,
1729403418.3170936,2338,1729403418,316493642,,0.16500000655651093,0.0,0.009999999776482582,nan,nan,nan,-0.009999999776482582,2,0,0,True,0.16500000655651093,id0,
1729403418.4192336,2339,1729403418,418520068,,0.15700000524520874,0.0,0.009999999776482582,nan,nan,nan,-0.009999999776482582,2,0,0,True,0.15700000524520874,id0,
1729403418.5176008,2340,1729403418,516500142,,0.20499999821186066,0.0,0.009999999776482582,nan,nan,nan,-0.009999999776482582,2,0,0,True,0.20499999821186066,id0,
1729403418.6172318,2341,1729403418,616584253,,0.16099999845027924,0.0,0.009999999776482582,nan,nan,nan,-0.009999999776482582,2,0,0,True,0.16099999845027924,id0,
1729403418.7173092,2342,1729403418,716566271,,0.16599999368190765,0.0,0.009999999776482582,nan,nan,nan,-0.009999999776482582,2,0,0,True,0.16599999368190765,id0,
1729403418.8173845,2343,1729403418,816595530,,0.17100000381469727,0.0,0.009999999776482582,nan,nan,nan,-0.009999999776482582,2,0,0,True,0.17100000381469727,id0,
1729403418.9171102,2344,1729403418,916587104,,0.16300000250339508,0.0,0.009999999776482582,nan,nan,nan,-0.009999999776482582,2,0,0,True,0.16300000250339508,id0,
1729403419.019044,2345,1729403419,18547975,,0.17000000178813934,0.0,0.009999999776482582,nan,nan,nan,-0.009999999776482582,2,0,0,True,0.17000000178813934,id0,
1729403419.118152,2346,1729403419,116947697,,0.1550000011920929,0.0,0.009999999776482582,nan,nan,nan,-0.009999999776482582,2,0,0,True,0.1550000011920929,id0,
1729403419.2142591,2347,1729403419,213583086,,0.16200000047683716,0.0,0.009999999776482582,nan,nan,nan,-0.009999999776482582,2,0,0,True,0.16200000047683716,id0,
1729403419.316195,2348,1729403419,313964086,,0.19200000166893005,0.0,0.009999999776482582,nan,nan,nan,-0.009999999776482582,2,0,0,True,0.19200000166893005,id0,
1729403419.4192357,2349,1729403419,416861215,,0.1809999942779541,0.0,0.009999999776482582,nan,nan,nan,-0.009999999776482582,2,0,0,True,0.1809999942779541,id0,
1729403419.5173602,2350,1729403419,516678289,,0.16599999368190765,0.0,0.009999999776482582,nan,nan,nan,-0.009999999776482582,2,0,0,True,0.16599999368190765,id0,
1729403419.6172001,2351,1729403419,616655215,,0.16699999570846558,0.0,0.009999999776482582,nan,nan,nan,-0.009999999776482582,2,0,0,True,0.16699999570846558,id0,
1729403419.719296,2352,1729403419,717055234,,0.15399999916553497,0.0,0.009999999776482582,nan,nan,nan,-0.009999999776482582,2,0,0,True,0.15399999916553497,id0,
1729403419.8185022,2353,1729403419,816736308,,0.14300000667572021,0.0,0.009999999776482582,nan,nan,nan,-0.009999999776482582,2,0,0,True,0.14300000667572021,id0,
1729403419.9171124,2354,1729403419,916653178,,0.14100000262260437,0.0,0.009999999776482582,nan,nan,nan,-0.009999999776482582,2,0,0,True,0.14100000262260437,id0,
1729403420.0171323,2355,1729403420,16662937,,0.11299999803304672,0.0,0.009999999776482582,nan,nan,nan,-0.009999999776482582,2,0,0,True,0.11299999803304672,id0,
1729403420.117373,2356,1729403420,116754900,,0.15000000596046448,0.0,0.009999999776482582,nan,nan,nan,-0.009999999776482582,2,0,0,True,0.15000000596046448,id0,
1729403420.222001,2357,1729403420,221650956,,0.15299999713897705,0.0,0.009999999776482582,nan,nan,nan,-0.009999999776482582,2,0,0,True,0.15299999713897705,id0,
1729403420.3159344,2358,1729403420,315659437,,0.16200000047683716,0.0,0.009999999776482582,nan,nan,nan,-0.009999999776482582,2,0,0,True,0.16200000047683716,id0,
1729403420.4175682,2359,1729403420,416896622,,0.1720000058412552,0.0,0.009999999776482582,nan,nan,nan,-0.009999999776482582,2,0,0,True,0.1720000058412552,id0,
1729403420.5159867,2360,1729403420,515689715,,0.14100000262260437,0.0,0.009999999776482582,nan,nan,nan,-0.009999999776482582,2,0,0,True,0.14100000262260437,id0,
1729403420.6192126,2361,1729403420,618738233,,0.1509999930858612,0.0,0.009999999776482582,nan,nan,nan,-0.009999999776482582,2,0,0,True,0.1509999930858612,id0,
1729403420.7166584,2362,1729403420,715879677,,0.13500000536441803,0.0,0.009999999776482582,nan,nan,nan,-0.009999999776482582,2,0,0,True,0.13500000536441803,id0,
1729403420.8194711,2363,1729403420,818816788,,0.20399999618530273,0.0,0.009999999776482582,nan,nan,nan,-0.009999999776482582,2,0,0,True,0.20399999618530273,id0,
1729403420.9176972,2364,1729403420,916909288,,0.1720000058412552,0.0,0.009999999776482582,nan,nan,nan,-0.009999999776482582,2,0,0,True,0.1720000058412552,id0,
1729403421.0188365,2365,1729403421,17239288,,0.16099999845027924,0.0,0.009999999776482582,nan,nan,nan,-0.009999999776482582,2,0,0,True,0.16099999845027924,id0,
1729403421.1194165,2366,1729403421,118862103,,0.17399999499320984,0.0,0.009999999776482582,nan,nan,nan,-0.009999999776482582,2,0,0,True,0.17399999499320984,id0,
1729403421.2186213,2367,1729403421,217339177,,0.13699999451637268,0.0,0.009999999776482582,nan,nan,nan,-0.009999999776482582,2,0,0,True,0.13699999451637268,id0,
1729403421.3163843,2368,1729403421,315871381,,0.18299999833106995,0.0,0.009999999776482582,nan,nan,nan,-0.009999999776482582,2,0,0,True,0.18299999833106995,id0,
1729403421.419566,2369,1729403421,418886677,,0.17399999499320984,0.0,0.009999999776482582,nan,nan,nan,-0.009999999776482582,2,0,0,True,0.17399999499320984,id0,
1729403421.517655,2370,1729403421,516411807,,0.1899999976158142,0.0,0.009999999776482582,nan,nan,nan,-0.009999999776482582,2,0,0,True,0.1899999976158142,id0,
1729403421.6156962,2371,1729403421,614478973,,0.15000000596046448,0.0,0.009999999776482582,nan,nan,nan,-0.009999999776482582,2,0,0,True,0.15000000596046448,id0,
1729403421.716615,2372,1729403421,715942732,,0.15199999511241913,0.0,0.009999999776482582,nan,nan,nan,-0.009999999776482582,2,0,0,True,0.15199999511241913,id0,
1729403421.81747,2373,1729403421,816387084,,0.16200000047683716,0.0,0.009999999776482582,nan,nan,nan,-0.009999999776482582,2,0,0,True,0.16200000047683716,id0,
1729403421.9196837,2374,1729403421,918981232,,0.1550000011920929,0.0,0.009999999776482582,nan,nan,nan,-0.009999999776482582,2,0,0,True,0.1550000011920929,id0,
1729403422.0166438,2375,1729403422,16058399,,0.16500000655651093,0.0,0.009999999776482582,nan,nan,nan,-0.009999999776482582,2,0,0,True,0.16500000655651093,id0,
1729403422.1195376,2376,1729403422,118986769,,0.16599999368190765,0.0,0.009999999776482582,nan,nan,nan,-0.009999999776482582,2,0,0,True,0.16599999368190765,id0,
1729403422.216841,2377,1729403422,216091510,,0.15199999511241913,0.0,0.009999999776482582,nan,nan,nan,-0.009999999776482582,2,0,0,True,0.15199999511241913,id0,
1729403422.3165467,2378,1729403422,316011325,,0.1599999964237213,0.0,0.009999999776482582,nan,nan,nan,-0.009999999776482582,2,0,0,True,0.1599999964237213,id0,
1729403422.4177725,2379,1729403422,416535362,,0.15700000524520874,0.0,0.009999999776482582,nan,nan,nan,-0.009999999776482582,2,0,0,True,0.15700000524520874,id0,
1729403422.5168688,2380,1729403422,516118787,,0.15800000727176666,0.0,0.009999999776482582,nan,nan,nan,-0.009999999776482582,2,0,0,True,0.15800000727176666,id0,
1729403422.6166039,2381,1729403422,616069010,,0.1599999964237213,0.0,0.009999999776482582,nan,nan,nan,-0.009999999776482582,2,0,0,True,0.1599999964237213,id0,
1729403422.7168078,2382,1729403422,716142880,,0.1509999930858612,0.0,0.009999999776482582,nan,nan,nan,-0.009999999776482582,2,0,0,True,0.1509999930858612,id0,
1729403422.81793,2383,1729403422,816598047,,0.17299999296665192,0.0,0.009999999776482582,nan,nan,nan,-0.009999999776482582,2,0,0,True,0.17299999296665192,id0,
1729403422.9196305,2384,1729403422,919111232,,0.164000004529953,0.0,0.009999999776482582,nan,nan,nan,-0.009999999776482582,2,0,0,True,0.164000004529953,id0,
1729403423.016675,2385,1729403423,16118121,,0.15399999916553497,0.0,0.009999999776482582,nan,nan,nan,-0.009999999776482582,2,0,0,True,0.15399999916553497,id0,
1729403423.1167502,2386,1729403423,116186176,,0.16500000655651093,0.0,0.009999999776482582,nan,nan,nan,-0.009999999776482582,2,0,0,True,0.16500000655651093,id0,
1729403423.2173054,2387,1729403423,216149657,,0.16099999845027924,0.0,0.009999999776482582,nan,nan,nan,-0.009999999776482582,2,0,0,True,0.16099999845027924,id0,
1729403423.316994,2388,1729403423,316141491,,0.16599999368190765,0.0,0.009999999776482582,nan,nan,nan,-0.009999999776482582,2,0,0,True,0.16599999368190765,id0,
1729403423.416626,2389,1729403423,414604268,,0.1599999964237213,0.0,0.009999999776482582,nan,nan,nan,-0.009999999776482582,2,0,0,True,0.1599999964237213,id0,
1729403423.5185316,2390,1729403423,516737546,,0.17100000381469727,0.0,0.009999999776482582,nan,nan,nan,-0.009999999776482582,2,0,0,True,0.17100000381469727,id0,
1729403423.616911,2391,1729403423,616173972,,0.1720000058412552,0.0,0.009999999776482582,nan,nan,nan,-0.009999999776482582,2,0,0,True,0.1720000058412552,id0,
1729403423.715019,2392,1729403423,714245657,,0.1589999943971634,0.0,0.009999999776482582,nan,nan,nan,-0.009999999776482582,2,0,0,True,0.1589999943971634,id0,
1729403423.8187702,2393,1729403423,818226416,,0.17299999296665192,0.0,0.009999999776482582,nan,nan,nan,-0.009999999776482582,2,0,0,True,0.17299999296665192,id0,
1729403423.917825,2394,1729403423,916497564,,0.1589999943971634,0.0,0.009999999776482582,nan,nan,nan,-0.009999999776482582,2,0,0,True,0.1589999943971634,id0,
1729403424.017867,2395,1729403424,16661324,,0.15700000524520874,0.0,0.009999999776482582,nan,nan,nan,-0.009999999776482582,2,0,0,True,0.15700000524520874,id0,
1729403424.1159303,2396,1729403424,114575361,,0.15800000727176666,0.0,0.009999999776482582,nan,nan,nan,-0.009999999776482582,2,0,0,True,0.15800000727176666,id0,
1729403424.2180557,2397,1729403424,216778361,,0.16200000047683716,0.0,0.009999999776482582,nan,nan,nan,-0.009999999776482582,2,0,0,True,0.16200000047683716,id0,
1729403424.3173041,2398,1729403424,316386175,,0.15299999713897705,0.0,0.009999999776482582,nan,nan,nan,-0.009999999776482582,2,0,0,True,0.15299999713897705,id0,
1729403424.4172006,2399,1729403424,416400694,,0.1599999964237213,0.0,0.009999999776482582,nan,nan,nan,-0.009999999776482582,2,0,0,True,0.1599999964237213,id0,
1729403424.5174217,2400,1729403424,516405694,,0.1550000011920929,0.0,0.009999999776482582,nan,nan,nan,-0.009999999776482582,2,0,0,True,0.1550000011920929,id0,
1729403424.6189644,2401,1729403424,616816897,,0.15600000321865082,0.0,0.009999999776482582,nan,nan,nan,-0.009999999776482582,2,0,0,True,0.15600000321865082,id0,
1729403424.7190158,2402,1729403424,718419286,,0.1550000011920929,0.0,0.009999999776482582,nan,nan,nan,-0.009999999776482582,2,0,0,True,0.1550000011920929,id0,
1729403424.8181064,2403,1729403424,816897397,,0.164000004529953,0.0,0.009999999776482582,nan,nan,nan,-0.009999999776482582,2,0,0,True,0.164000004529953,id0,
1729403424.918145,2404,1729403424,916887879,,0.17000000178813934,0.0,0.009999999776482582,nan,nan,nan,-0.009999999776482582,2,0,0,True,0.17000000178813934,id0,
1729403425.0171623,2405,1729403425,16476767,,0.17000000178813934,0.0,0.009999999776482582,nan,nan,nan,-0.009999999776482582,2,0,0,True,0.17000000178813934,id0,
1729403425.117438,2406,1729403425,116457286,,0.16099999845027924,0.0,0.009999999776482582,nan,nan,nan,-0.009999999776482582,2,0,0,True,0.16099999845027924,id0,
1729403425.219095,2407,1729403425,218435453,,0.1589999943971634,0.0,0.009999999776482582,nan,nan,nan,-0.009999999776482582,2,0,0,True,0.1589999943971634,id0,
1729403425.3177938,2408,1729403425,316812212,,0.15700000524520874,0.0,0.009999999776482582,nan,nan,nan,-0.009999999776482582,2,0,0,True,0.15700000524520874,id0,
1729403425.4172537,2409,1729403425,416551786,,0.15600000321865082,0.0,0.009999999776482582,nan,nan,nan,-0.009999999776482582,2,0,0,True,0.15600000321865082,id0,
1729403425.515201,2410,1729403425,513858026,,0.15000000596046448,0.0,0.009999999776482582,nan,nan,nan,-0.009999999776482582,2,0,0,True,0.15000000596046448,id0,
1729403425.6197665,2411,1729403425,618528471,,0.16500000655651093,0.0,0.009999999776482582,nan,nan,nan,-0.009999999776482582,2,0,0,True,0.16500000655651093,id0,
1729403425.715174,2412,1729403425,714004230,,0.1550000011920929,0.0,0.009999999776482582,nan,nan,nan,-0.009999999776482582,2,0,0,True,0.1550000011920929,id0,
1729403425.819191,2413,1729403425,817199804,,0.15700000524520874,0.0,0.009999999776482582,nan,nan,nan,-0.009999999776482582,2,0,0,True,0.15700000524520874,id0,
1729403425.9155657,2414,1729403425,914000026,,0.17599999904632568,0.0,0.009999999776482582,nan,nan,nan,-0.009999999776482582,2,0,0,True,0.17599999904632568,id0,
1729403426.0170918,2415,1729403426,16556211,,0.17100000381469727,0.0,0.009999999776482582,nan,nan,nan,-0.009999999776482582,2,0,0,True,0.17100000381469727,id0,
1729403426.1183498,2416,1729403426,116956100,,0.17800000309944153,0.0,0.009999999776482582,nan,nan,nan,-0.009999999776482582,2,0,0,True,0.17800000309944153,id0,
1729403426.2141511,2417,1729403426,213609304,,0.17399999499320984,0.0,0.009999999776482582,nan,nan,nan,-0.009999999776482582,2,0,0,True,0.17399999499320984,id0,
1729403426.3173518,2418,1729403426,316671933,,0.17100000381469727,0.0,0.009999999776482582,nan,nan,nan,-0.009999999776482582,2,0,0,True,0.17100000381469727,id0,
1729403426.4171338,2419,1729403426,416619193,,0.1509999930858612,0.0,0.009999999776482582,nan,nan,nan,-0.009999999776482582,2,0,0,True,0.1509999930858612,id0,
1729403426.5172825,2420,1729403426,516633859,,0.15700000524520874,0.0,0.009999999776482582,nan,nan,nan,-0.009999999776482582,2,0,0,True,0.15700000524520874,id0,
1729403426.6161015,2421,1729403426,614079655,,0.1550000011920929,0.0,0.009999999776482582,nan,nan,nan,-0.009999999776482582,2,0,0,True,0.1550000011920929,id0,
1729403426.7152374,2422,1729403426,714018526,,0.15000000596046448,0.0,0.009999999776482582,nan,nan,nan,-0.009999999776482582,2,0,0,True,0.15000000596046448,id0,
1729403426.8173525,2423,1729403426,816676933,,0.15199999511241913,0.0,0.009999999776482582,nan,nan,nan,-0.009999999776482582,2,0,0,True,0.15199999511241913,id0,
1729403426.9183197,2424,1729403426,917166100,,0.16099999845027924,0.0,0.009999999776482582,nan,nan,nan,-0.009999999776482582,2,0,0,True,0.16099999845027924,id0,
1729403427.0174794,2425,1729403427,16757414,,0.15700000524520874,0.0,0.009999999776482582,nan,nan,nan,-0.009999999776482582,2,0,0,True,0.15700000524520874,id0,
1729403427.1172414,2426,1729403427,116708581,,0.15700000524520874,0.0,0.009999999776482582,nan,nan,nan,-0.009999999776482582,2,0,0,True,0.15700000524520874,id0,
1729403427.2172334,2427,1729403427,216726137,,0.17000000178813934,0.0,0.009999999776482582,nan,nan,nan,-0.009999999776482582,2,0,0,True,0.17000000178813934,id0,
1729403427.3142602,2428,1729403427,313732674,,0.16500000655651093,0.0,0.009999999776482582,nan,nan,nan,-0.009999999776482582,2,0,0,True,0.16500000655651093,id0,
1729403427.4164743,2429,1729403427,414982266,,0.16699999570846558,0.0,0.009999999776482582,nan,nan,nan,-0.009999999776482582,2,0,0,True,0.16699999570846558,id0,
1729403427.5173173,2430,1729403427,516768266,,0.164000004529953,0.0,0.009999999776482582,nan,nan,nan,-0.009999999776482582,2,0,0,True,0.164000004529953,id0,
1729403427.6143405,2431,1729403427,613793581,,0.1599999964237213,0.0,0.009999999776482582,nan,nan,nan,-0.009999999776482582,2,0,0,True,0.1599999964237213,id0,
1729403427.7155051,2432,1729403427,714184784,,0.1509999930858612,0.0,0.009999999776482582,nan,nan,nan,-0.009999999776482582,2,0,0,True,0.1509999930858612,id0,
1729403427.8174534,2433,1729403427,816811618,,0.15000000596046448,0.0,0.009999999776482582,nan,nan,nan,-0.009999999776482582,2,0,0,True,0.15000000596046448,id0,
1729403427.9173617,2434,1729403427,916834488,,0.15600000321865082,0.0,0.009999999776482582,nan,nan,nan,-0.009999999776482582,2,0,0,True,0.15600000321865082,id0,
1729403428.0157936,2435,1729403428,14251136,,0.15700000524520874,0.0,0.009999999776482582,nan,nan,nan,-0.009999999776482582,2,0,0,True,0.15700000524520874,id0,
1729403428.1183646,2436,1729403428,116921469,,0.15800000727176666,0.0,0.009999999776482582,nan,nan,nan,-0.009999999776482582,2,0,0,True,0.15800000727176666,id0,
1729403428.2185855,2437,1729403428,216908710,,0.1550000011920929,0.0,0.009999999776482582,nan,nan,nan,-0.009999999776482582,2,0,0,True,0.1550000011920929,id0,
1729403428.315552,2438,1729403428,314163488,,0.15199999511241913,0.0,0.009999999776482582,nan,nan,nan,-0.009999999776482582,2,0,0,True,0.15199999511241913,id0,
1729403428.4154782,2439,1729403428,414152765,,0.15700000524520874,0.0,0.009999999776482582,nan,nan,nan,-0.009999999776482582,2,0,0,True,0.15700000524520874,id0,
1729403428.517245,2440,1729403428,516856154,,0.16599999368190765,0.0,0.009999999776482582,nan,nan,nan,-0.009999999776482582,2,0,0,True,0.16599999368190765,id0,
1729403428.61517,2441,1729403428,613983580,,0.16500000655651093,0.0,0.009999999776482582,nan,nan,nan,-0.009999999776482582,2,0,0,True,0.16500000655651093,id0,
1729403428.7163668,2442,1729403428,714423469,,0.16200000047683716,0.0,0.009999999776482582,nan,nan,nan,-0.009999999776482582,2,0,0,True,0.16200000047683716,id0,
1729403428.8164892,2443,1729403428,815955506,,0.16099999845027924,0.0,0.009999999776482582,nan,nan,nan,-0.009999999776482582,2,0,0,True,0.16099999845027924,id0,
1729403428.9155712,2444,1729403428,914355043,,0.16200000047683716,0.0,0.009999999776482582,nan,nan,nan,-0.009999999776482582,2,0,0,True,0.16200000047683716,id0,
1729403429.015727,2445,1729403429,14480210,,0.15800000727176666,0.0,0.009999999776482582,nan,nan,nan,-0.009999999776482582,2,0,0,True,0.15800000727176666,id0,
1729403429.1177287,2446,1729403429,117067969,,0.14900000393390656,0.0,0.009999999776482582,nan,nan,nan,-0.009999999776482582,2,0,0,True,0.14900000393390656,id0,
1729403429.2158709,2447,1729403429,214561895,,0.15700000524520874,0.0,0.009999999776482582,nan,nan,nan,-0.009999999776482582,2,0,0,True,0.15700000524520874,id0,
1729403429.3157952,2448,1729403429,314493783,,0.15299999713897705,0.0,0.009999999776482582,nan,nan,nan,-0.009999999776482582,2,0,0,True,0.15299999713897705,id0,
1729403429.4177783,2449,1729403429,417106765,,0.15800000727176666,0.0,0.009999999776482582,nan,nan,nan,-0.009999999776482582,2,0,0,True,0.15800000727176666,id0,
1729403429.5159242,2450,1729403429,514518765,,0.1589999943971634,0.0,0.009999999776482582,nan,nan,nan,-0.009999999776482582,2,0,0,True,0.1589999943971634,id0,
1729403429.616629,2451,1729403429,616045394,,0.15600000321865082,0.0,0.009999999776482582,nan,nan,nan,-0.009999999776482582,2,0,0,True,0.15600000321865082,id0,
1729403429.7135732,2452,1729403429,713046061,,0.1599999964237213,0.0,0.009999999776482582,nan,nan,nan,-0.009999999776482582,2,0,0,True,0.1599999964237213,id0,
1729403429.8167474,2453,1729403429,816074542,,0.15700000524520874,0.0,0.009999999776482582,nan,nan,nan,-0.009999999776482582,2,0,0,True,0.15700000524520874,id0,
1729403429.9166248,2454,1729403429,916086116,,0.164000004529953,0.0,0.009999999776482582,nan,nan,nan,-0.009999999776482582,2,0,0,True,0.164000004529953,id0,
1729403430.0166721,2455,1729403430,16125802,,0.16099999845027924,0.0,0.009999999776482582,nan,nan,nan,-0.009999999776482582,2,0,0,True,0.16099999845027924,id0,
1729403430.1199787,2456,1729403430,119119950,,0.16200000047683716,0.0,0.009999999776482582,nan,nan,nan,-0.009999999776482582,2,0,0,True,0.16200000047683716,id0,
1729403430.2178738,2457,1729403430,217247746,,0.16300000250339508,0.0,0.009999999776482582,nan,nan,nan,-0.009999999776482582,2,0,0,True,0.16300000250339508,id0,
1729403430.3167424,2458,1729403430,316150616,,0.15000000596046448,0.0,0.009999999776482582,nan,nan,nan,-0.009999999776482582,2,0,0,True,0.15000000596046448,id0,
1729403430.4153645,2459,1729403430,413399394,,0.15000000596046448,0.0,0.009999999776482582,nan,nan,nan,-0.009999999776482582,2,0,0,True,0.15000000596046448,id0,
1729403430.5156171,2460,1729403430,514582894,,0.15700000524520874,0.0,0.009999999776482582,nan,nan,nan,-0.009999999776482582,2,0,0,True,0.15700000524520874,id0,
1729403430.6167681,2461,1729403430,616209246,,0.15800000727176666,0.0,0.009999999776482582,nan,nan,nan,-0.009999999776482582,2,0,0,True,0.15800000727176666,id0,
1729403430.7189796,2462,1729403430,717462875,,0.15000000596046448,0.0,0.009999999776482582,nan,nan,nan,-0.009999999776482582,2,0,0,True,0.15000000596046448,id0,
1729403430.8167417,2463,1729403430,816220968,,0.16300000250339508,0.0,0.009999999776482582,nan,nan,nan,-0.009999999776482582,2,0,0,True,0.16300000250339508,id0,
1729403430.9168236,2464,1729403430,916240320,,0.16699999570846558,0.0,0.009999999776482582,nan,nan,nan,-0.009999999776482582,2,0,0,True,0.16699999570846558,id0,
1729403431.0169606,2465,1729403431,16254912,,0.16599999368190765,0.0,0.009999999776482582,nan,nan,nan,-0.009999999776482582,2,0,0,True,0.16599999368190765,id0,
1729403431.1150258,2466,1729403431,113514782,,0.16300000250339508,0.0,0.009999999776482582,nan,nan,nan,-0.009999999776482582,2,0,0,True,0.16300000250339508,id0,
1729403431.216144,2467,1729403431,214757893,,0.16500000655651093,0.0,0.009999999776482582,nan,nan,nan,-0.009999999776482582,2,0,0,True,0.16500000655651093,id0,
1729403431.3139443,2468,1729403431,313298060,,0.15299999713897705,0.0,0.009999999776482582,nan,nan,nan,-0.009999999776482582,2,0,0,True,0.15299999713897705,id0,
1729403431.417277,2469,1729403431,416371893,,0.1550000011920929,0.0,0.009999999776482582,nan,nan,nan,-0.009999999776482582,2,0,0,True,0.1550000011920929,id0,
1729403431.5142133,2470,1729403431,513388412,,0.15199999511241913,0.0,0.009999999776482582,nan,nan,nan,-0.009999999776482582,2,0,0,True,0.15199999511241913,id0,
1729403431.6170695,2471,1729403431,616401078,,0.16500000655651093,0.0,0.009999999776482582,nan,nan,nan,-0.009999999776482582,2,0,0,True,0.16500000655651093,id0,
1729403431.7149568,2472,1729403431,713769930,,0.15800000727176666,0.0,0.009999999776482582,nan,nan,nan,-0.009999999776482582,2,0,0,True,0.15800000727176666,id0,
1729403431.8169253,2473,1729403431,816361245,,0.1589999943971634,0.0,0.009999999776482582,nan,nan,nan,-0.009999999776482582,2,0,0,True,0.1589999943971634,id0,
1729403431.9168937,2474,1729403431,916366337,,0.164000004529953,0.0,0.009999999776482582,nan,nan,nan,-0.009999999776482582,2,0,0,True,0.164000004529953,id0,
1729403432.015506,2475,1729403432,13853800,,0.1599999964237213,0.0,0.009999999776482582,nan,nan,nan,-0.009999999776482582,2,0,0,True,0.1599999964237213,id0,
1729403432.115552,2476,1729403432,113928282,,0.15600000321865082,0.0,0.009999999776482582,nan,nan,nan,-0.009999999776482582,2,0,0,True,0.15600000321865082,id0,
1729403432.2153354,2477,1729403432,214036578,,0.1589999943971634,0.0,0.009999999776482582,nan,nan,nan,-0.009999999776482582,2,0,0,True,0.1589999943971634,id0,
1729403432.3154032,2478,1729403432,313905448,,0.164000004529953,0.0,0.009999999776482582,nan,nan,nan,-0.009999999776482582,2,0,0,True,0.164000004529953,id0,
1729403432.416542,2479,1729403432,413933504,,0.17800000309944153,0.0,0.009999999776482582,nan,nan,nan,-0.009999999776482582,2,0,0,True,0.17800000309944153,id0,
1729403432.5143685,2480,1729403432,513549800,,0.17100000381469727,0.0,0.009999999776482582,nan,nan,nan,-0.009999999776482582,2,0,0,True,0.17100000381469727,id0,
1729403432.617019,2481,1729403432,616471337,,0.16500000655651093,0.0,0.009999999776482582,nan,nan,nan,-0.009999999776482582,2,0,0,True,0.16500000655651093,id0,
1729403432.717137,2482,1729403432,716478689,,0.16500000655651093,0.0,0.009999999776482582,nan,nan,nan,-0.009999999776482582,2,0,0,True,0.16500000655651093,id0,
1729403432.8173108,2483,1729403432,816565744,,0.16200000047683716,0.0,0.009999999776482582,nan,nan,nan,-0.009999999776482582,2,0,0,True,0.16200000047683716,id0,
1729403432.9173768,2484,1729403432,916594948,,0.16099999845027924,0.0,0.009999999776482582,nan,nan,nan,-0.009999999776482582,2,0,0,True,0.16099999845027924,id0,
1729403433.0152621,2485,1729403433,13923689,,0.1589999943971634,0.0,0.009999999776482582,nan,nan,nan,-0.009999999776482582,2,0,0,True,0.1589999943971634,id0,
1729403433.1171916,2486,1729403433,116541522,,0.16300000250339508,0.0,0.009999999776482582,nan,nan,nan,-0.009999999776482582,2,0,0,True,0.16300000250339508,id0,
1729403433.2162433,2487,1729403433,213671874,,0.164000004529953,0.0,0.009999999776482582,nan,nan,nan,-0.009999999776482582,2,0,0,True,0.164000004529953,id0,
1729403433.3172052,2488,1729403433,316590948,,0.15700000524520874,0.0,0.009999999776482582,nan,nan,nan,-0.009999999776482582,2,0,0,True,0.15700000524520874,id0,
1729403433.4173267,2489,1729403433,416603614,,0.1599999964237213,0.0,0.009999999776482582,nan,nan,nan,-0.009999999776482582,2,0,0,True,0.1599999964237213,id0,
1729403433.5171885,2490,1729403433,516591762,,0.16099999845027924,0.0,0.009999999776482582,nan,nan,nan,-0.009999999776482582,2,0,0,True,0.16099999845027924,id0,
1729403433.6171448,2491,1729403433,616623096,,0.15399999916553497,0.0,0.009999999776482582,nan,nan,nan,-0.009999999776482582,2,0,0,True,0.15399999916553497,id0,
1729403433.7170622,2492,1729403433,716615096,,0.15700000524520874,0.0,0.009999999776482582,nan,nan,nan,-0.009999999776482582,2,0,0,True,0.15700000524520874,id0,
1729403433.8195896,2493,1729403433,814131670,,0.1589999943971634,0.0,0.009999999776482582,nan,nan,nan,-0.009999999776482582,2,0,0,True,0.1589999943971634,id0,
1729403433.918262,2494,1729403433,917046947,,0.17000000178813934,0.0,0.009999999776482582,nan,nan,nan,-0.009999999776482582,2,0,0,True,0.17000000178813934,id0,
1729403434.0172083,2495,1729403434,16686595,,0.17100000381469727,0.0,0.009999999776482582,nan,nan,nan,-0.009999999776482582,2,0,0,True,0.17100000381469727,id0,
1729403434.1175878,2496,1729403434,116770855,,0.17000000178813934,0.0,0.009999999776482582,nan,nan,nan,-0.009999999776482582,2,0,0,True,0.17000000178813934,id0,
1729403434.2154443,2497,1729403434,214199558,,0.16699999570846558,0.0,0.009999999776482582,nan,nan,nan,-0.009999999776482582,2,0,0,True,0.16699999570846558,id0,
1729403434.3144922,2498,1729403434,313801910,,0.16099999845027924,0.0,0.009999999776482582,nan,nan,nan,-0.009999999776482582,2,0,0,True,0.16099999845027924,id0,
1729403434.415669,2499,1729403434,414210799,,0.1589999943971634,0.0,0.009999999776482582,nan,nan,nan,-0.009999999776482582,2,0,0,True,0.1589999943971634,id0,
1729403434.517423,2500,1729403434,516754928,,0.15399999916553497,0.0,0.009999999776482582,nan,nan,nan,-0.009999999776482582,2,0,0,True,0.15399999916553497,id0,
1729403434.6174123,2501,1729403434,616767021,,0.16500000655651093,0.0,0.009999999776482582,nan,nan,nan,-0.009999999776482582,2,0,0,True,0.16500000655651093,id0,
1729403434.7173333,2502,1729403434,716779725,,0.1550000011920929,0.0,0.009999999776482582,nan,nan,nan,-0.009999999776482582,2,0,0,True,0.1550000011920929,id0,
1729403434.8173335,2503,1729403434,816793113,,0.1599999964237213,0.0,0.009999999776482582,nan,nan,nan,-0.009999999776482582,2,0,0,True,0.1599999964237213,id0,
1729403434.9156337,2504,1729403434,914202632,,0.16500000655651093,0.0,0.009999999776482582,nan,nan,nan,-0.009999999776482582,2,0,0,True,0.16500000655651093,id0,
1729403435.0174773,2505,1729403435,16818817,,0.16200000047683716,0.0,0.009999999776482582,nan,nan,nan,-0.009999999776482582,2,0,0,True,0.16200000047683716,id0,
1729403435.117823,2506,1729403435,116920187,,0.16599999368190765,0.0,0.009999999776482582,nan,nan,nan,-0.009999999776482582,2,0,0,True,0.16599999368190765,id0,
1729403435.2165334,2507,1729403435,215857947,,0.17299999296665192,0.0,0.009999999776482582,nan,nan,nan,-0.009999999776482582,2,0,0,True,0.17299999296665192,id0,
1729403435.3187993,2508,1729403435,317273021,,0.1679999977350235,0.0,0.009999999776482582,nan,nan,nan,-0.009999999776482582,2,0,0,True,0.1679999977350235,id0,
1729403435.4164302,2509,1729403435,415892687,,0.16500000655651093,0.0,0.009999999776482582,nan,nan,nan,-0.009999999776482582,2,0,0,True,0.16500000655651093,id0,
1729403435.5177283,2510,1729403435,516971928,,0.16599999368190765,0.0,0.009999999776482582,nan,nan,nan,-0.009999999776482582,2,0,0,True,0.16599999368190765,id0,
1729403435.6159654,2511,1729403435,614470020,,0.16599999368190765,0.0,0.009999999776482582,nan,nan,nan,-0.009999999776482582,2,0,0,True,0.16599999368190765,id0,
1729403435.7164502,2512,1729403435,715916113,,0.17299999296665192,0.0,0.009999999776482582,nan,nan,nan,-0.009999999776482582,2,0,0,True,0.17299999296665192,id0,
1729403435.8164737,2513,1729403435,815928317,,0.16699999570846558,0.0,0.009999999776482582,nan,nan,nan,-0.009999999776482582,2,0,0,True,0.16699999570846558,id0,
1729403435.9166064,2514,1729403435,915941872,,0.17000000178813934,0.0,0.009999999776482582,nan,nan,nan,-0.009999999776482582,2,0,0,True,0.17000000178813934,id0,
1729403436.015733,2515,1729403436,14539594,,0.16699999570846558,0.0,0.009999999776482582,nan,nan,nan,-0.009999999776482582,2,0,0,True,0.16699999570846558,id0,
1729403436.1186483,2516,1729403436,116391131,,0.15600000321865082,0.0,0.009999999776482582,nan,nan,nan,-0.009999999776482582,2,0,0,True,0.15600000321865082,id0,
1729403436.216869,2517,1729403436,216104261,,0.1589999943971634,0.0,0.009999999776482582,nan,nan,nan,-0.009999999776482582,2,0,0,True,0.1589999943971634,id0,
1729403436.314506,2518,1729403436,314006724,,0.16099999845027924,0.0,0.009999999776482582,nan,nan,nan,-0.009999999776482582,2,0,0,True,0.16099999845027924,id0,
1729403436.416037,2519,1729403436,414482242,,0.164000004529953,0.0,0.009999999776482582,nan,nan,nan,-0.009999999776482582,2,0,0,True,0.164000004529953,id0,
1729403436.5165496,2520,1729403436,516019187,,0.16500000655651093,0.0,0.009999999776482582,nan,nan,nan,-0.009999999776482582,2,0,0,True,0.16500000655651093,id0,
1729403436.6159089,2521,1729403436,614495353,,0.15600000321865082,0.0,0.009999999776482582,nan,nan,nan,-0.009999999776482582,2,0,0,True,0.15600000321865082,id0,
1729403436.7145967,2522,1729403436,713370242,,0.15700000524520874,0.0,0.009999999776482582,nan,nan,nan,-0.009999999776482582,2,0,0,True,0.15700000524520874,id0,
1729403436.8157747,2523,1729403436,814536723,,0.1599999964237213,0.0,0.009999999776482582,nan,nan,nan,-0.009999999776482582,2,0,0,True,0.1599999964237213,id0,
1729403436.916589,2524,1729403436,916071575,,0.164000004529953,0.0,0.009999999776482582,nan,nan,nan,-0.009999999776482582,2,0,0,True,0.164000004529953,id0,
1729403437.0177824,2525,1729403437,17091612,,0.16599999368190765,0.0,0.009999999776482582,nan,nan,nan,-0.009999999776482582,2,0,0,True,0.16599999368190765,id0,
1729403437.1166344,2526,1729403437,116095501,,0.15199999511241913,0.0,0.009999999776482582,nan,nan,nan,-0.009999999776482582,2,0,0,True,0.15199999511241913,id0,
1729403437.216275,2527,1729403437,214580149,,0.15399999916553497,0.0,0.009999999776482582,nan,nan,nan,-0.009999999776482582,2,0,0,True,0.15399999916553497,id0,
1729403437.3164768,2528,1729403437,314553908,,0.15399999916553497,0.0,0.009999999776482582,nan,nan,nan,-0.009999999776482582,2,0,0,True,0.15399999916553497,id0,
1729403437.415065,2529,1729403437,413658186,,0.16200000047683716,0.0,0.009999999776482582,nan,nan,nan,-0.009999999776482582,2,0,0,True,0.16200000047683716,id0,
1729403437.5166783,2530,1729403437,516177056,,0.15800000727176666,0.0,0.009999999776482582,nan,nan,nan,-0.009999999776482582,2,0,0,True,0.15800000727176666,id0,
1729403437.6161156,2531,1729403437,614664593,,0.15600000321865082,0.0,0.009999999776482582,nan,nan,nan,-0.009999999776482582,2,0,0,True,0.15600000321865082,id0,
1729403437.7138762,2532,1729403437,713196741,,0.15700000524520874,0.0,0.009999999776482582,nan,nan,nan,-0.009999999776482582,2,0,0,True,0.15700000524520874,id0,
1729403437.8162222,2533,1729403437,814899575,,0.16699999570846558,0.0,0.009999999776482582,nan,nan,nan,-0.009999999776482582,2,0,0,True,0.16699999570846558,id0,
1729403437.9168131,2534,1729403437,916208408,,0.16899999976158142,0.0,0.009999999776482582,nan,nan,nan,-0.009999999776482582,2,0,0,True,0.16899999976158142,id0,
1729403438.016426,2535,1729403438,14803093,,0.16500000655651093,0.0,0.009999999776482582,nan,nan,nan,-0.009999999776482582,2,0,0,True,0.16500000655651093,id0,
1729403438.1169157,2536,1729403438,116252463,,0.16099999845027924,0.0,0.009999999776482582,nan,nan,nan,-0.009999999776482582,2,0,0,True,0.16099999845027924,id0,
1729403438.2172742,2537,1729403438,216284760,,0.15199999511241913,0.0,0.009999999776482582,nan,nan,nan,-0.009999999776482582,2,0,0,True,0.15199999511241913,id0,
1729403438.3170102,2538,1729403438,316304574,,0.15600000321865082,0.0,0.009999999776482582,nan,nan,nan,-0.009999999776482582,2,0,0,True,0.15600000321865082,id0,
1729403438.4159865,2539,1729403438,414847667,,0.15700000524520874,0.0,0.009999999776482582,nan,nan,nan,-0.009999999776482582,2,0,0,True,0.15700000524520874,id0,
1729403438.5153866,2540,1729403438,513796722,,0.15800000727176666,0.0,0.009999999776482582,nan,nan,nan,-0.009999999776482582,2,0,0,True,0.15800000727176666,id0,
1729403438.6169348,2541,1729403438,616341722,,0.15600000321865082,0.0,0.009999999776482582,nan,nan,nan,-0.009999999776482582,2,0,0,True,0.15600000321865082,id0,
1729403438.7140934,2542,1729403438,713430926,,0.16200000047683716,0.0,0.009999999776482582,nan,nan,nan,-0.009999999776482582,2,0,0,True,0.16200000047683716,id0,
1729403438.8154356,2543,1729403438,813797093,,0.15700000524520874,0.0,0.009999999776482582,nan,nan,nan,-0.009999999776482582,2,0,0,True,0.15700000524520874,id0,
1729403438.91519,2544,1729403438,913778741,,0.15299999713897705,0.0,0.009999999776482582,nan,nan,nan,-0.009999999776482582,2,0,0,True,0.15299999713897705,id0,
1729403439.0172894,2545,1729403439,16371055,,0.15000000596046448,0.0,0.009999999776482582,nan,nan,nan,-0.009999999776482582,2,0,0,True,0.15000000596046448,id0,
1729403439.1140761,2546,1729403439,113386870,,0.16200000047683716,0.0,0.009999999776482582,nan,nan,nan,-0.009999999776482582,2,0,0,True,0.16200000047683716,id0,
1729403439.2154937,2547,1729403439,213909703,,0.17000000178813934,0.0,0.009999999776482582,nan,nan,nan,-0.009999999776482582,2,0,0,True,0.17000000178813934,id0,
1729403439.315692,2548,1729403439,313872444,,0.16300000250339508,0.0,0.009999999776482582,nan,nan,nan,-0.009999999776482582,2,0,0,True,0.16300000250339508,id0,
1729403439.4154189,2549,1729403439,413828055,,0.15399999916553497,0.0,0.009999999776482582,nan,nan,nan,-0.009999999776482582,2,0,0,True,0.15399999916553497,id0,
1729403439.5184982,2550,1729403439,516862888,,0.15700000524520874,0.0,0.009999999776482582,nan,nan,nan,-0.009999999776482582,2,0,0,True,0.15700000524520874,id0,
1729403439.6166024,2551,1729403439,613890740,,0.1599999964237213,0.0,0.009999999776482582,nan,nan,nan,-0.009999999776482582,2,0,0,True,0.1599999964237213,id0,
1729403439.715023,2552,1729403439,713912648,,0.16099999845027924,0.0,0.009999999776482582,nan,nan,nan,-0.009999999776482582,2,0,0,True,0.16099999845027924,id0,
1729403439.817038,2553,1729403439,816501444,,0.15800000727176666,0.0,0.009999999776482582,nan,nan,nan,-0.009999999776482582,2,0,0,True,0.15800000727176666,id0,
1729403439.9152532,2554,1729403439,913955185,,0.16500000655651093,0.0,0.009999999776482582,nan,nan,nan,-0.009999999776482582,2,0,0,True,0.16500000655651093,id0,
1729403440.0174177,2555,1729403440,16610129,,0.15700000524520874,0.0,0.009999999776482582,nan,nan,nan,-0.009999999776482582,2,0,0,True,0.15700000524520874,id0,
1729403440.1170375,2556,1729403440,116536833,,0.16200000047683716,0.0,0.009999999776482582,nan,nan,nan,-0.009999999776482582,2,0,0,True,0.16200000047683716,id0,
1729403440.2140832,2557,1729403440,213560629,,0.15700000524520874,0.0,0.009999999776482582,nan,nan,nan,-0.009999999776482582,2,0,0,True,0.15700000524520874,id0,
1729403440.3160596,2558,1729403440,315546906,,0.15800000727176666,0.0,0.009999999776482582,nan,nan,nan,-0.009999999776482582,2,0,0,True,0.15800000727176666,id0,
1729403440.4174347,2559,1729403440,416648184,,0.1550000011920929,0.0,0.009999999776482582,nan,nan,nan,-0.009999999776482582,2,0,0,True,0.1550000011920929,id0,
1729403440.5161304,2560,1729403440,515595388,,0.15399999916553497,0.0,0.009999999776482582,nan,nan,nan,-0.009999999776482582,2,0,0,True,0.15399999916553497,id0,
1729403440.6184134,2561,1729403440,617200610,,0.15199999511241913,0.0,0.009999999776482582,nan,nan,nan,-0.009999999776482582,2,0,0,True,0.15199999511241913,id0,
1729403440.7175918,2562,1729403440,716696943,,0.16300000250339508,0.0,0.009999999776482582,nan,nan,nan,-0.009999999776482582,2,0,0,True,0.16300000250339508,id0,
1729403440.8146026,2563,1729403440,813712721,,0.16500000655651093,0.0,0.009999999776482582,nan,nan,nan,-0.009999999776482582,2,0,0,True,0.16500000655651093,id0,
1729403440.9155989,2564,1729403440,914248925,,0.16699999570846558,0.0,0.009999999776482582,nan,nan,nan,-0.009999999776482582,2,0,0,True,0.16699999570846558,id0,
1729403441.0163584,2565,1729403441,15696499,,0.16699999570846558,0.0,0.009999999776482582,nan,nan,nan,-0.009999999776482582,2,0,0,True,0.16699999570846558,id0,
1729403441.1163688,2566,1729403441,115703276,,0.16599999368190765,0.0,0.009999999776482582,nan,nan,nan,-0.009999999776482582,2,0,0,True,0.16599999368190765,id0,
1729403441.216358,2567,1729403441,215707813,,0.16699999570846558,0.0,0.009999999776482582,nan,nan,nan,-0.009999999776482582,2,0,0,True,0.16699999570846558,id0,
1729403441.3157444,2568,1729403441,314212443,,0.164000004529953,0.0,0.009999999776482582,nan,nan,nan,-0.009999999776482582,2,0,0,True,0.164000004529953,id0,
1729403441.4163682,2569,1729403441,415721498,,0.1589999943971634,0.0,0.009999999776482582,nan,nan,nan,-0.009999999776482582,2,0,0,True,0.1589999943971634,id0,
1729403441.5161793,2570,1729403441,513999924,,0.15299999713897705,0.0,0.009999999776482582,nan,nan,nan,-0.009999999776482582,2,0,0,True,0.15299999713897705,id0,
1729403441.6162825,2571,1729403441,615741961,,0.15299999713897705,0.0,0.009999999776482582,nan,nan,nan,-0.009999999776482582,2,0,0,True,0.15299999713897705,id0,
1729403441.7164626,2572,1729403441,715809332,,0.1550000011920929,0.0,0.009999999776482582,nan,nan,nan,-0.009999999776482582,2,0,0,True,0.1550000011920929,id0,
1729403441.8166108,2573,1729403441,815883035,,0.15800000727176666,0.0,0.009999999776482582,nan,nan,nan,-0.009999999776482582,2,0,0,True,0.15800000727176666,id0,
1729403441.9163165,2574,1729403441,915782813,,0.16099999845027924,0.0,0.009999999776482582,nan,nan,nan,-0.009999999776482582,2,0,0,True,0.16099999845027924,id0,
1729403442.0164707,2575,1729403442,15800850,,0.15600000321865082,0.0,0.009999999776482582,nan,nan,nan,-0.009999999776482582,2,0,0,True,0.15600000321865082,id0,
1729403442.1157804,2576,1729403442,114354109,,0.1599999964237213,0.0,0.009999999776482582,nan,nan,nan,-0.009999999776482582,2,0,0,True,0.1599999964237213,id0,
1729403442.2170405,2577,1729403442,215839368,,0.15299999713897705,0.0,0.009999999776482582,nan,nan,nan,-0.009999999776482582,2,0,0,True,0.15299999713897705,id0,
1729403442.316395,2578,1729403442,315860313,,0.15299999713897705,0.0,0.009999999776482582,nan,nan,nan,-0.009999999776482582,2,0,0,True,0.15299999713897705,id0,
1729403442.4156535,2579,1729403442,414476572,,0.15399999916553497,0.0,0.009999999776482582,nan,nan,nan,-0.009999999776482582,2,0,0,True,0.15399999916553497,id0,
1729403442.5144134,2580,1729403442,513890887,,0.15600000321865082,0.0,0.009999999776482582,nan,nan,nan,-0.009999999776482582,2,0,0,True,0.15600000321865082,id0,
1729403442.615869,2581,1729403442,614455813,,0.15600000321865082,0.0,0.009999999776482582,nan,nan,nan,-0.009999999776482582,2,0,0,True,0.15600000321865082,id0,
1729403442.7159104,2582,1729403442,714471868,,0.16099999845027924,0.0,0.009999999776482582,nan,nan,nan,-0.009999999776482582,2,0,0,True,0.16099999845027924,id0,
1729403442.8166816,2583,1729403442,814327238,,0.16500000655651093,0.0,0.009999999776482582,nan,nan,nan,-0.009999999776482582,2,0,0,True,0.16500000655651093,id0,
1729403442.9156654,2584,1729403442,914203609,,0.16200000047683716,0.0,0.009999999776482582,nan,nan,nan,-0.009999999776482582,2,0,0,True,0.16200000047683716,id0,
1729403443.016675,2585,1729403443,15961905,,0.15800000727176666,0.0,0.009999999776482582,nan,nan,nan,-0.009999999776482582,2,0,0,True,0.15800000727176666,id0,
1729403443.1155825,2586,1729403443,114440646,,0.15600000321865082,0.0,0.009999999776482582,nan,nan,nan,-0.009999999776482582,2,0,0,True,0.15600000321865082,id0,
1729403443.2169893,2587,1729403443,215976164,,0.15700000524520874,0.0,0.009999999776482582,nan,nan,nan,-0.009999999776482582,2,0,0,True,0.15700000524520874,id0,
1729403443.3195732,2588,1729403443,319005257,,0.15199999511241913,0.0,0.009999999776482582,nan,nan,nan,-0.009999999776482582,2,0,0,True,0.15199999511241913,id0,
1729403443.4154885,2589,1729403443,414418719,,0.16200000047683716,0.0,0.009999999776482582,nan,nan,nan,-0.009999999776482582,2,0,0,True,0.16200000047683716,id0,
1729403443.5166183,2590,1729403443,516092497,,0.16300000250339508,0.0,0.009999999776482582,nan,nan,nan,-0.009999999776482582,2,0,0,True,0.16300000250339508,id0,
1729403443.6173146,2591,1729403443,616115608,,0.16200000047683716,0.0,0.009999999776482582,nan,nan,nan,-0.009999999776482582,2,0,0,True,0.16200000047683716,id0,
1729403443.7156396,2592,1729403443,714399553,,0.15600000321865082,0.0,0.009999999776482582,nan,nan,nan,-0.009999999776482582,2,0,0,True,0.15600000321865082,id0,
1729403443.8181314,2593,1729403443,816569108,,0.1459999978542328,0.0,0.009999999776482582,nan,nan,nan,-0.009999999776482582,2,0,0,True,0.1459999978542328,id0,
1729403443.9157813,2594,1729403443,914446090,,0.15600000321865082,0.0,0.009999999776482582,nan,nan,nan,-0.009999999776482582,2,0,0,True,0.15600000321865082,id0,
1729403444.0166497,2595,1729403444,16112830,,0.15199999511241913,0.0,0.009999999776482582,nan,nan,nan,-0.009999999776482582,2,0,0,True,0.15199999511241913,id0,
1729403444.116046,2596,1729403444,114754108,,0.1589999943971634,0.0,0.009999999776482582,nan,nan,nan,-0.009999999776482582,2,0,0,True,0.1589999943971634,id0,
1729403444.216643,2597,1729403444,216120812,,0.16200000047683716,0.0,0.009999999776482582,nan,nan,nan,-0.009999999776482582,2,0,0,True,0.16200000047683716,id0,
1729403444.3167858,2598,1729403444,316128423,,0.16500000655651093,0.0,0.009999999776482582,nan,nan,nan,-0.009999999776482582,2,0,0,True,0.16500000655651093,id0,
1729403444.41582,2599,1729403444,414529404,,0.15299999713897705,0.0,0.009999999776482582,nan,nan,nan,-0.009999999776482582,2,0,0,True,0.15299999713897705,id0,
1729403444.5168316,2600,1729403444,516174941,,0.14900000393390656,0.0,0.009999999776482582,nan,nan,nan,-0.009999999776482582,2,0,0,True,0.14900000393390656,id0,
1729403444.6167245,2601,1729403444,616199404,,0.15600000321865082,0.0,0.009999999776482582,nan,nan,nan,-0.009999999776482582,2,0,0,True,0.15600000321865082,id0,
1729403444.7167723,2602,1729403444,716210311,,0.15700000524520874,0.0,0.009999999776482582,nan,nan,nan,-0.009999999776482582,2,0,0,True,0.15700000524520874,id0,
1729403444.817127,2603,1729403444,816301126,,0.15399999916553497,0.0,0.009999999776482582,nan,nan,nan,-0.009999999776482582,2,0,0,True,0.15399999916553497,id0,
1729403444.9166853,2604,1729403444,916210867,,0.14800000190734863,0.0,0.009999999776482582,nan,nan,nan,-0.009999999776482582,2,0,0,True,0.14800000190734863,id0,
1729403445.0138693,2605,1729403445,13281496,,0.1469999998807907,0.0,0.009999999776482582,nan,nan,nan,-0.009999999776482582,2,0,0,True,0.1469999998807907,id0,
1729403445.1169167,2606,1729403445,116266422,,0.1599999964237213,0.0,0.009999999776482582,nan,nan,nan,-0.009999999776482582,2,0,0,True,0.1599999964237213,id0,
1729403445.2167983,2607,1729403445,216264737,,0.17000000178813934,0.0,0.009999999776482582,nan,nan,nan,-0.009999999776482582,2,0,0,True,0.17000000178813934,id0,
1729403445.3179326,2608,1729403445,317279644,,0.16500000655651093,0.0,0.009999999776482582,nan,nan,nan,-0.009999999776482582,2,0,0,True,0.16500000655651093,id0,
1729403445.416973,2609,1729403445,416295218,,0.15800000727176666,0.0,0.009999999776482582,nan,nan,nan,-0.009999999776482582,2,0,0,True,0.15800000727176666,id0,
1729403445.5151186,2610,1729403445,513838570,,0.1550000011920929,0.0,0.009999999776482582,nan,nan,nan,-0.009999999776482582,2,0,0,True,0.1550000011920929,id0,
1729403445.617305,2611,1729403445,616389626,,0.15700000524520874,0.0,0.009999999776482582,nan,nan,nan,-0.009999999776482582,2,0,0,True,0.15700000524520874,id0,
1729403445.7141485,2612,1729403445,713406514,,0.15399999916553497,0.0,0.009999999776482582,nan,nan,nan,-0.009999999776482582,2,0,0,True,0.15399999916553497,id0,
1729403445.8172026,2613,1729403445,816415533,,0.15700000524520874,0.0,0.009999999776482582,nan,nan,nan,-0.009999999776482582,2,0,0,True,0.15700000524520874,id0,
1729403445.9158714,2614,1729403445,915355792,,0.15399999916553497,0.0,0.009999999776482582,nan,nan,nan,-0.009999999776482582,2,0,0,True,0.15399999916553497,id0,
1729403446.0152864,2615,1729403446,13722607,,0.15800000727176666,0.0,0.009999999776482582,nan,nan,nan,-0.009999999776482582,2,0,0,True,0.15800000727176666,id0,
1729403446.114084,2616,1729403446,113475088,,0.16500000655651093,0.0,0.009999999776482582,nan,nan,nan,-0.009999999776482582,2,0,0,True,0.16500000655651093,id0,
1729403446.2152412,2617,1729403446,213939107,,0.1599999964237213,0.0,0.009999999776482582,nan,nan,nan,-0.009999999776482582,2,0,0,True,0.1599999964237213,id0,
1729403446.3174005,2618,1729403446,316493236,,0.15800000727176666,0.0,0.009999999776482582,nan,nan,nan,-0.009999999776482582,2,0,0,True,0.15800000727176666,id0,
1729403446.415291,2619,1729403446,413987162,,0.16300000250339508,0.0,0.009999999776482582,nan,nan,nan,-0.009999999776482582,2,0,0,True,0.16300000250339508,id0,
1729403446.5142877,2620,1729403446,513508681,,0.15700000524520874,0.0,0.009999999776482582,nan,nan,nan,-0.009999999776482582,2,0,0,True,0.15700000524520874,id0,
1729403446.6159687,2621,1729403446,615463847,,0.15199999511241913,0.0,0.009999999776482582,nan,nan,nan,-0.009999999776482582,2,0,0,True,0.15199999511241913,id0,
1729403446.717112,2622,1729403446,716459162,,0.15299999713897705,0.0,0.009999999776482582,nan,nan,nan,-0.009999999776482582,2,0,0,True,0.15299999713897705,id0,
1729403446.8154523,2623,1729403446,813786143,,0.16500000655651093,0.0,0.009999999776482582,nan,nan,nan,-0.009999999776482582,2,0,0,True,0.16500000655651093,id0,
1729403446.9142919,2624,1729403446,913553273,,0.16599999368190765,0.0,0.009999999776482582,nan,nan,nan,-0.009999999776482582,2,0,0,True,0.16599999368190765,id0,
1729403447.0170386,2625,1729403447,16508236,,0.16699999570846558,0.0,0.009999999776482582,nan,nan,nan,-0.009999999776482582,2,0,0,True,0.16699999570846558,id0,
1729403447.1156054,2626,1729403447,113880606,,0.16300000250339508,0.0,0.009999999776482582,nan,nan,nan,-0.009999999776482582,2,0,0,True,0.16300000250339508,id0,
1729403447.2143636,2627,1729403447,213552754,,0.1550000011920929,0.0,0.009999999776482582,nan,nan,nan,-0.009999999776482582,2,0,0,True,0.1550000011920929,id0,
1729403447.3161545,2628,1729403447,315552828,,0.15399999916553497,0.0,0.009999999776482582,nan,nan,nan,-0.009999999776482582,2,0,0,True,0.15399999916553497,id0,
1729403447.4168856,2629,1729403447,415556365,,0.1589999943971634,0.0,0.009999999776482582,nan,nan,nan,-0.009999999776482582,2,0,0,True,0.1589999943971634,id0,
1729403447.5163128,2630,1729403447,515602328,,0.16300000250339508,0.0,0.009999999776482582,nan,nan,nan,-0.009999999776482582,2,0,0,True,0.16300000250339508,id0,
1729403447.6150155,2631,1729403447,613836643,,0.15600000321865082,0.0,0.009999999776482582,nan,nan,nan,-0.009999999776482582,2,0,0,True,0.15600000321865082,id0,
1729403447.716193,2632,1729403447,715601143,,0.14800000190734863,0.0,0.009999999776482582,nan,nan,nan,-0.009999999776482582,2,0,0,True,0.14800000190734863,id0,
1729403447.8162794,2633,1729403447,815623384,,0.14800000190734863,0.0,0.009999999776482582,nan,nan,nan,-0.009999999776482582,2,0,0,True,0.14800000190734863,id0,
1729403447.9152434,2634,1729403447,914046698,,0.14900000393390656,0.0,0.009999999776482582,nan,nan,nan,-0.009999999776482582,2,0,0,True,0.14900000393390656,id0,
1729403448.0161662,2635,1729403448,15657846,,0.15000000596046448,0.0,0.009999999776482582,nan,nan,nan,-0.009999999776482582,2,0,0,True,0.15000000596046448,id0,
1729403448.1163025,2636,1729403448,114094143,,0.15199999511241913,0.0,0.009999999776482582,nan,nan,nan,-0.009999999776482582,2,0,0,True,0.15199999511241913,id0,
1729403448.2162685,2637,1729403448,214220068,,0.1589999943971634,0.0,0.009999999776482582,nan,nan,nan,-0.009999999776482582,2,0,0,True,0.1589999943971634,id0,
1729403448.3160896,2638,1729403448,314192717,,0.16200000047683716,0.0,0.009999999776482582,nan,nan,nan,-0.009999999776482582,2,0,0,True,0.16200000047683716,id0,
1729403448.4162476,2639,1729403448,415695957,,0.14800000190734863,0.0,0.009999999776482582,nan,nan,nan,-0.009999999776482582,2,0,0,True,0.14800000190734863,id0,
1729403448.5156097,2640,1729403448,514221161,,0.15399999916553497,0.0,0.009999999776482582,nan,nan,nan,-0.009999999776482582,2,0,0,True,0.15399999916553497,id0,
1729403448.615666,2641,1729403448,614036568,,0.14800000190734863,0.0,0.009999999776482582,nan,nan,nan,-0.009999999776482582,2,0,0,True,0.14800000190734863,id0,
1729403448.715583,2642,1729403448,714123272,,0.15399999916553497,0.0,0.009999999776482582,nan,nan,nan,-0.009999999776482582,2,0,0,True,0.15399999916553497,id0,
1729403448.8156986,2643,1729403448,814157327,,0.15000000596046448,0.0,0.009999999776482582,nan,nan,nan,-0.009999999776482582,2,0,0,True,0.15000000596046448,id0,
1729403448.9163244,2644,1729403448,915782364,,0.16200000047683716,0.0,0.009999999776482582,nan,nan,nan,-0.009999999776482582,2,0,0,True,0.16200000047683716,id0,
1729403449.017465,2645,1729403449,16377457,,0.16300000250339508,0.0,0.009999999776482582,nan,nan,nan,-0.009999999776482582,2,0,0,True,0.16300000250339508,id0,
1729403449.1163666,2646,1729403449,115820272,,0.1599999964237213,0.0,0.009999999776482582,nan,nan,nan,-0.009999999776482582,2,0,0,True,0.1599999964237213,id0,
1729403449.2163649,2647,1729403449,215824179,,0.15700000524520874,0.0,0.009999999776482582,nan,nan,nan,-0.009999999776482582,2,0,0,True,0.15700000524520874,id0,
1729403449.3163548,2648,1729403449,315828586,,0.16099999845027924,0.0,0.009999999776482582,nan,nan,nan,-0.009999999776482582,2,0,0,True,0.16099999845027924,id0,
1729403449.4163983,2649,1729403449,415859234,,0.164000004529953,0.0,0.009999999776482582,nan,nan,nan,-0.009999999776482582,2,0,0,True,0.164000004529953,id0,
1729403449.5154083,2650,1729403449,514268660,,0.15600000321865082,0.0,0.009999999776482582,nan,nan,nan,-0.009999999776482582,2,0,0,True,0.15600000321865082,id0,
1729403449.6157713,2651,1729403449,614323068,,0.14900000393390656,0.0,0.009999999776482582,nan,nan,nan,-0.009999999776482582,2,0,0,True,0.14900000393390656,id0,
1729403449.7146366,2652,1729403449,713972105,,0.15299999713897705,0.0,0.009999999776482582,nan,nan,nan,-0.009999999776482582,2,0,0,True,0.15299999713897705,id0,
1729403449.8165011,2653,1729403449,815886179,,0.15199999511241913,0.0,0.009999999776482582,nan,nan,nan,-0.009999999776482582,2,0,0,True,0.15199999511241913,id0,
1729403449.9168074,2654,1729403449,915999993,,0.1550000011920929,0.0,0.009999999776482582,nan,nan,nan,-0.009999999776482582,2,0,0,True,0.1550000011920929,id0,
1729403450.0166066,2655,1729403450,15950345,,0.15800000727176666,0.0,0.009999999776482582,nan,nan,nan,-0.009999999776482582,2,0,0,True,0.15800000727176666,id0,
1729403450.1165771,2656,1729403450,115937308,,0.14800000190734863,0.0,0.009999999776482582,nan,nan,nan,-0.009999999776482582,2,0,0,True,0.14800000190734863,id0,
1729403450.216582,2657,1729403450,215946512,,0.1550000011920929,0.0,0.009999999776482582,nan,nan,nan,-0.009999999776482582,2,0,0,True,0.1550000011920929,id0,
1729403450.3165777,2658,1729403450,315985012,,0.15299999713897705,0.0,0.009999999776482582,nan,nan,nan,-0.009999999776482582,2,0,0,True,0.15299999713897705,id0,
1729403450.4161508,2659,1729403450,414437345,,0.1509999930858612,0.0,0.009999999776482582,nan,nan,nan,-0.009999999776482582,2,0,0,True,0.1509999930858612,id0,
1729403450.5166063,2660,1729403450,516044326,,0.16099999845027924,0.0,0.009999999776482582,nan,nan,nan,-0.009999999776482582,2,0,0,True,0.16099999845027924,id0,
1729403450.616005,2661,1729403450,614416067,,0.1679999977350235,0.0,0.009999999776482582,nan,nan,nan,-0.009999999776482582,2,0,0,True,0.1679999977350235,id0,
1729403450.7167907,2662,1729403450,716031734,,0.15700000524520874,0.0,0.009999999776482582,nan,nan,nan,-0.009999999776482582,2,0,0,True,0.15700000524520874,id0,
1729403450.816766,2663,1729403450,816069437,,0.14800000190734863,0.0,0.009999999776482582,nan,nan,nan,-0.009999999776482582,2,0,0,True,0.14800000190734863,id0,
1729403450.9167535,2664,1729403450,916074067,,0.15000000596046448,0.0,0.009999999776482582,nan,nan,nan,-0.009999999776482582,2,0,0,True,0.15000000596046448,id0,
1729403451.0168386,2665,1729403451,16080863,,0.1550000011920929,0.0,0.009999999776482582,nan,nan,nan,-0.009999999776482582,2,0,0,True,0.1550000011920929,id0,
1729403451.1159976,2666,1729403451,114533622,,0.14800000190734863,0.0,0.009999999776482582,nan,nan,nan,-0.009999999776482582,2,0,0,True,0.14800000190734863,id0,
1729403451.2161984,2667,1729403451,214622178,,0.1589999943971634,0.0,0.009999999776482582,nan,nan,nan,-0.009999999776482582,2,0,0,True,0.1589999943971634,id0,
1729403451.3147538,2668,1729403451,313710881,,0.16300000250339508,0.0,0.009999999776482582,nan,nan,nan,-0.009999999776482582,2,0,0,True,0.16300000250339508,id0,
