Time,header.seq,header.stamp.secs,header.stamp.nsecs,header.frame_id,status.status,status.service,latitude,longitude,altitude,position_covariance_0,position_covariance_1,position_covariance_2,position_covariance_3,position_covariance_4,position_covariance_5,position_covariance_6,position_covariance_7,position_covariance_8,position_covariance_type
1729403414.5599852,0,1729403412,299799040,base_link,0,1,33.6978125,73.0165257,513.129627392953,1.623076,0.0,0.0,0.0,1.623076,0.0,0.0,0.0,3.629025,2
1729403414.5600333,1,1729403412,399795968,base_link,0,1,33.6978124,73.0165258,513.1296271539533,1.623076,0.0,0.0,0.0,1.623076,0.0,0.0,0.0,3.629025,2
1729403414.5600746,2,1729403412,499792896,base_link,0,1,33.6978124,73.0165258,513.1296271539533,1.640961,0.0,0.0,0.0,1.640961,0.0,0.0,0.0,3.6633959999999997,2
1729403414.5601473,3,1729403412,599789824,base_link,0,1,33.6978125,73.0165258,513.1196278203313,1.640961,0.0,0.0,0.0,1.640961,0.0,0.0,0.0,3.6633959999999997,2
1729403414.5602522,4,1729403412,699787264,base_link,0,1,33.6978125,73.0165258,513.1196278203313,1.6563689999999998,0.0,0.0,0.0,1.6563689999999998,0.0,0.0,0.0,3.6940839999999997,2
1729403414.5604763,5,1729403412,799784192,base_link,0,1,33.6978125,73.0165258,513.1296278203313,1.6563689999999998,0.0,0.0,0.0,1.6563689999999998,0.0,0.0,0.0,3.6940839999999997,2
1729403414.5606391,6,1729403412,899781632,base_link,0,1,33.6978125,73.0165258,513.1296278203313,1.671849,0.0,0.0,0.0,1.671849,0.0,0.0,0.0,3.728761,2
1729403414.5613525,7,1729403412,999779072,base_link,0,1,33.6978125,73.0165258,513.1396278203313,1.671849,0.0,0.0,0.0,1.671849,0.0,0.0,0.0,3.728761,2
1729403414.5614986,8,1729403413,99776768,base_link,0,1,33.6978124,73.0165258,513.1396271539533,1.6822089999999998,0.0,0.0,0.0,1.6822089999999998,0.0,0.0,0.0,3.7519690000000003,2
1729403414.5616102,9,1729403413,199774464,base_link,0,1,33.6978124,73.0165258,513.1396271539533,1.6822089999999998,0.0,0.0,0.0,1.6822089999999998,0.0,0.0,0.0,3.7519690000000003,2
1729403414.5617254,10,1729403413,299772416,base_link,0,1,33.6978124,73.0165258,513.1496271539532,1.6926009999999998,0.0,0.0,0.0,1.6926009999999998,0.0,0.0,0.0,3.7713639999999997,2
1729403414.5619571,11,1729403413,399770880,base_link,0,1,33.6978124,73.0165258,513.1596271539532,1.6926009999999998,0.0,0.0,0.0,1.6926009999999998,0.0,0.0,0.0,3.7713639999999997,2
1729403414.5621781,12,1729403413,499768320,base_link,0,1,33.6978123,73.0165258,513.1696264875754,1.7030249999999998,0.0,0.0,0.0,1.7030249999999998,0.0,0.0,0.0,3.794704,2
1729403414.5631435,13,1729403413,599766016,base_link,0,1,33.6978123,73.0165258,513.1796264875754,1.7030249999999998,0.0,0.0,0.0,1.7030249999999998,0.0,0.0,0.0,3.794704,2
1729403414.563365,14,1729403413,699763456,base_link,0,1,33.6978123,73.0165257,513.1896260601972,1.7108640000000002,0.0,0.0,0.0,1.7108640000000002,0.0,0.0,0.0,3.8142090000000004,2
1729403414.5635276,15,1729403413,799761152,base_link,0,1,33.6978123,73.0165257,513.1996260601971,1.7108640000000002,0.0,0.0,0.0,1.7108640000000002,0.0,0.0,0.0,3.8142090000000004,2
1729403414.5637295,16,1729403413,899758848,base_link,0,1,33.6978123,73.0165258,513.1996264875754,1.718721,0.0,0.0,0.0,1.718721,0.0,0.0,0.0,3.825936,2
1729403414.564153,17,1729403413,999756288,base_link,0,1,33.6978123,73.0165258,513.1996264875754,1.718721,0.0,0.0,0.0,1.718721,0.0,0.0,0.0,3.825936,2
1729403414.564706,18,1729403414,99753728,base_link,0,1,33.6978123,73.0165258,513.2096264875754,1.7265960000000002,0.0,0.0,0.0,1.7265960000000002,0.0,0.0,0.0,3.845521,2
1729403414.5647683,19,1729403414,199751424,base_link,0,1,33.6978123,73.0165258,513.2096264875754,1.7265960000000002,0.0,0.0,0.0,1.7265960000000002,0.0,0.0,0.0,3.845521,2
1729403414.5648098,20,1729403414,299749120,base_link,0,1,33.6978123,73.0165258,513.2096264875754,1.739761,0.0,0.0,0.0,1.739761,0.0,0.0,0.0,3.8809,2
1729403414.5651262,21,1729403414,399746048,base_link,0,1,33.6978123,73.0165258,513.2196264875754,1.739761,0.0,0.0,0.0,1.739761,0.0,0.0,0.0,3.8809,2
1729403414.5655622,22,1729403414,499743744,base_link,0,1,33.6978123,73.0165258,513.2196264875754,1.7582760000000002,0.0,0.0,0.0,1.7582760000000002,0.0,0.0,0.0,3.9204,2
1729403414.6018932,23,1729403414,599741440,base_link,0,1,33.6978123,73.0165258,513.2196264875754,1.7582760000000002,0.0,0.0,0.0,1.7582760000000002,0.0,0.0,0.0,3.9204,2
1729403414.7016032,24,1729403414,699739392,base_link,0,1,33.6978124,73.0165258,513.2296271539533,1.7689000000000001,0.0,0.0,0.0,1.7689000000000001,0.0,0.0,0.0,3.9402250000000003,2
1729403414.8015141,25,1729403414,799737088,base_link,0,1,33.6978124,73.0165258,513.2396271539533,1.7689000000000001,0.0,0.0,0.0,1.7689000000000001,0.0,0.0,0.0,3.9402250000000003,2
1729403414.9017007,26,1729403414,899734528,base_link,0,1,33.6978124,73.0165258,513.2496271539533,1.776889,0.0,0.0,0.0,1.776889,0.0,0.0,0.0,3.9601,2
1729403415.0021734,27,1729403414,999732224,base_link,0,1,33.6978124,73.0165258,513.2596271539533,1.776889,0.0,0.0,0.0,1.776889,0.0,0.0,0.0,3.9601,2
1729403415.1018856,28,1729403415,99729920,base_link,0,1,33.6978124,73.0165258,513.2596271539533,1.7848960000000003,0.0,0.0,0.0,1.7848960000000003,0.0,0.0,0.0,3.976036,2
1729403415.2021859,29,1729403415,199727616,base_link,0,1,33.6978124,73.0165259,513.2596275813316,1.7848960000000003,0.0,0.0,0.0,1.7848960000000003,0.0,0.0,0.0,3.976036,2
1729403415.3016827,30,1729403415,299725568,base_link,0,1,33.6978124,73.0165259,513.2596275813316,1.792921,0.0,0.0,0.0,1.792921,0.0,0.0,0.0,3.992004,2
1729403415.4028823,31,1729403415,399723776,base_link,0,1,33.6978124,73.0165259,513.2596275813316,1.792921,0.0,0.0,0.0,1.792921,0.0,0.0,0.0,3.992004,2
1729403415.504439,32,1729403415,499721216,base_link,0,1,33.6978124,73.0165259,513.2596275813316,1.8009640000000002,0.0,0.0,0.0,1.8009640000000002,0.0,0.0,0.0,4.012009000000001,2
1729403415.60369,33,1729403415,599719168,base_link,0,1,33.6978124,73.0165259,513.2596275813316,1.8009640000000002,0.0,0.0,0.0,1.8009640000000002,0.0,0.0,0.0,4.012009000000001,2
1729403415.7021806,34,1729403415,699717376,base_link,0,1,33.6978124,73.016526,513.2596280087099,1.8090249999999999,0.0,0.0,0.0,1.8090249999999999,0.0,0.0,0.0,4.028049,2
1729403415.8030903,35,1729403415,799715584,base_link,0,1,33.6978124,73.016526,513.2596280087099,1.8090249999999999,0.0,0.0,0.0,1.8090249999999999,0.0,0.0,0.0,4.028049,2
1729403415.902983,36,1729403415,899713792,base_link,0,1,33.6978124,73.016526,513.2596280087099,1.814409,0.0,0.0,0.0,1.814409,0.0,0.0,0.0,4.0441210000000005,2
1729403416.0023186,37,1729403415,999712000,base_link,0,1,33.6978124,73.016526,513.2596280087099,1.814409,0.0,0.0,0.0,1.814409,0.0,0.0,0.0,4.0441210000000005,2
1729403416.1028154,38,1729403416,99710208,base_link,0,1,33.6978125,73.016526,513.2596286750879,1.8225000000000002,0.0,0.0,0.0,1.8225000000000002,0.0,0.0,0.0,4.060225000000001,2
1729403416.2029536,39,1729403416,199708160,base_link,0,1,33.6978125,73.016526,513.2596286750879,1.8225000000000002,0.0,0.0,0.0,1.8225000000000002,0.0,0.0,0.0,4.060225000000001,2
1729403416.3023582,40,1729403416,299706368,base_link,0,1,33.6978125,73.016526,513.2696286750879,1.8279040000000002,0.0,0.0,0.0,1.8279040000000002,0.0,0.0,0.0,4.076361,2
1729403416.402511,41,1729403416,399704576,base_link,0,1,33.6978125,73.016526,513.2696286750879,1.8279040000000002,0.0,0.0,0.0,1.8279040000000002,0.0,0.0,0.0,4.076361,2
1729403416.502707,42,1729403416,499703040,base_link,0,1,33.6978125,73.0165261,513.2696291024663,1.836025,0.0,0.0,0.0,1.836025,0.0,0.0,0.0,4.088483999999999,2
1729403416.602607,43,1729403416,599701248,base_link,0,1,33.6978125,73.0165261,513.2696291024663,1.836025,0.0,0.0,0.0,1.836025,0.0,0.0,0.0,4.088483999999999,2
1729403416.7033536,44,1729403416,699698176,base_link,0,1,33.6978125,73.0165261,513.2696291024663,1.841449,0.0,0.0,0.0,1.841449,0.0,0.0,0.0,4.1046759999999995,2
1729403416.8026505,45,1729403416,799695360,base_link,0,1,33.6978125,73.0165261,513.2596291024663,1.841449,0.0,0.0,0.0,1.841449,0.0,0.0,0.0,4.1046759999999995,2
1729403416.9023442,46,1729403416,899692544,base_link,0,1,33.6978125,73.0165262,513.2596295298448,1.846881,0.0,0.0,0.0,1.846881,0.0,0.0,0.0,4.116841,2
1729403417.0025625,47,1729403416,999689472,base_link,0,1,33.6978125,73.0165262,513.2596295298448,1.846881,0.0,0.0,0.0,1.846881,0.0,0.0,0.0,4.116841,2
1729403417.1030054,48,1729403417,99688448,base_link,0,1,33.6978125,73.0165262,513.2496295298448,1.8523209999999999,0.0,0.0,0.0,1.8523209999999999,0.0,0.0,0.0,4.124961000000001,2
1729403417.202678,49,1729403417,199687168,base_link,0,1,33.6978125,73.0165262,513.2596295298448,1.8523209999999999,0.0,0.0,0.0,1.8523209999999999,0.0,0.0,0.0,4.124961000000001,2
1729403417.3026316,50,1729403417,299684096,base_link,0,1,33.6978124,73.0165262,513.2596288634667,1.857769,0.0,0.0,0.0,1.857769,0.0,0.0,0.0,4.141225,2
1729403417.402455,51,1729403417,399682816,base_link,0,1,33.6978124,73.0165262,513.2696288634667,1.857769,0.0,0.0,0.0,1.857769,0.0,0.0,0.0,4.141225,2
1729403417.5022829,52,1729403417,499681536,base_link,0,1,33.6978124,73.0165262,513.2696288634667,1.8659560000000004,0.0,0.0,0.0,1.8659560000000004,0.0,0.0,0.0,4.1616,2
1729403417.6020486,53,1729403417,599678464,base_link,0,1,33.6978124,73.0165263,513.2696292908449,1.8659560000000004,0.0,0.0,0.0,1.8659560000000004,0.0,0.0,0.0,4.1616,2
1729403417.7022703,54,1729403417,699675392,base_link,0,1,33.6978124,73.0165263,513.2796292908449,1.8769000000000002,0.0,0.0,0.0,1.8769000000000002,0.0,0.0,0.0,4.190209,2
1729403417.8022656,55,1729403417,799672576,base_link,0,1,33.6978124,73.0165263,513.2896292908449,1.8769000000000002,0.0,0.0,0.0,1.8769000000000002,0.0,0.0,0.0,4.190209,2
1729403417.9024923,56,1729403417,899669760,base_link,0,1,33.6978125,73.0165263,513.3096299572231,1.885129,0.0,0.0,0.0,1.885129,0.0,0.0,0.0,4.2025,2
1729403418.0028098,57,1729403417,999666944,base_link,0,1,33.6978125,73.0165264,513.3196303846016,1.885129,0.0,0.0,0.0,1.885129,0.0,0.0,0.0,4.2025,2
1729403418.1028636,58,1729403418,99665920,base_link,0,1,33.6978125,73.0165264,513.3196303846016,1.8933759999999997,0.0,0.0,0.0,1.8933759999999997,0.0,0.0,0.0,4.218915999999999,2
1729403418.2035112,59,1729403418,199663104,base_link,0,1,33.6978125,73.0165264,513.3196303846016,1.8933759999999997,0.0,0.0,0.0,1.8933759999999997,0.0,0.0,0.0,4.218915999999999,2
1729403418.3030765,60,1729403418,299660544,base_link,0,1,33.6978125,73.0165264,513.3296303846016,1.8988839999999998,0.0,0.0,0.0,1.8988839999999998,0.0,0.0,0.0,4.231249,2
1729403418.4031003,61,1729403418,399657984,base_link,0,1,33.6978126,73.0165264,513.3196310509799,1.8988839999999998,0.0,0.0,0.0,1.8988839999999998,0.0,0.0,0.0,4.231249,2
1729403418.5032864,62,1729403418,499655424,base_link,0,1,33.6978126,73.0165265,513.3196314783584,1.901641,0.0,0.0,0.0,1.901641,0.0,0.0,0.0,4.2394810000000005,2
1729403418.6027756,63,1729403418,599652864,base_link,0,1,33.6978126,73.0165265,513.3196314783584,1.901641,0.0,0.0,0.0,1.901641,0.0,0.0,0.0,4.2394810000000005,2
1729403418.70294,64,1729403418,699650304,base_link,0,1,33.6978127,73.0165265,513.3196321447367,1.907161,0.0,0.0,0.0,1.907161,0.0,0.0,0.0,4.247720999999999,2
1729403418.8028853,65,1729403418,799647744,base_link,0,1,33.6978127,73.0165265,513.3196321447367,1.907161,0.0,0.0,0.0,1.907161,0.0,0.0,0.0,4.247720999999999,2
1729403418.9027555,66,1729403418,899645696,base_link,0,1,33.6978127,73.0165265,513.3096321447367,1.9099239999999997,0.0,0.0,0.0,1.9099239999999997,0.0,0.0,0.0,4.255969,2
1729403419.0028222,67,1729403418,999643136,base_link,0,1,33.6978128,73.0165266,513.3096332384937,1.9099239999999997,0.0,0.0,0.0,1.9099239999999997,0.0,0.0,0.0,4.255969,2
1729403419.1028998,68,1729403419,99642112,base_link,0,1,33.6978128,73.0165266,513.3096332384937,1.9154559999999998,0.0,0.0,0.0,1.9154559999999998,0.0,0.0,0.0,4.264225,2
1729403419.2027173,69,1729403419,199639808,base_link,0,1,33.6978128,73.0165266,513.2996332384937,1.9154559999999998,0.0,0.0,0.0,1.9154559999999998,0.0,0.0,0.0,4.264225,2
1729403419.3028462,70,1729403419,299637504,base_link,0,1,33.6978129,73.0165266,513.2896339048722,1.918225,0.0,0.0,0.0,1.918225,0.0,0.0,0.0,4.272489000000001,2
1729403419.4040496,71,1729403419,399635200,base_link,0,1,33.6978129,73.0165266,513.2896339048722,1.918225,0.0,0.0,0.0,1.918225,0.0,0.0,0.0,4.272489000000001,2
1729403419.5031912,72,1729403419,499632896,base_link,0,1,33.6978129,73.0165267,513.2796343322509,1.9209959999999997,0.0,0.0,0.0,1.9209959999999997,0.0,0.0,0.0,4.280761,2
1729403419.6019258,73,1729403419,599630592,base_link,0,1,33.6978129,73.0165267,513.2896343322509,1.9209959999999997,0.0,0.0,0.0,1.9209959999999997,0.0,0.0,0.0,4.280761,2
1729403419.702102,74,1729403419,699628288,base_link,0,1,33.6978129,73.0165267,513.2896343322509,1.9265439999999998,0.0,0.0,0.0,1.9265439999999998,0.0,0.0,0.0,4.289041000000001,2
1729403419.8046088,75,1729403419,799625984,base_link,0,1,33.6978129,73.0165267,513.2996343322509,1.9265439999999998,0.0,0.0,0.0,1.9265439999999998,0.0,0.0,0.0,4.289041000000001,2
1729403419.9020011,76,1729403419,899623936,base_link,0,1,33.6978129,73.0165267,513.3096343322509,1.929321,0.0,0.0,0.0,1.929321,0.0,0.0,0.0,4.293184,2
1729403420.0028324,77,1729403419,999621632,base_link,0,1,33.697813,73.0165267,513.3096349986293,1.929321,0.0,0.0,0.0,1.929321,0.0,0.0,0.0,4.293184,2
1729403420.1039472,78,1729403420,99619328,base_link,0,1,33.697813,73.0165267,513.3096349986293,1.9320999999999997,0.0,0.0,0.0,1.9320999999999997,0.0,0.0,0.0,4.301475999999999,2
1729403420.2026575,79,1729403420,199617280,base_link,0,1,33.697813,73.0165267,513.3096349986293,1.9320999999999997,0.0,0.0,0.0,1.9320999999999997,0.0,0.0,0.0,4.301475999999999,2
1729403420.302941,80,1729403420,299615232,base_link,0,1,33.697813,73.0165267,513.2996349986294,1.940449,0.0,0.0,0.0,1.940449,0.0,0.0,0.0,4.322241000000001,2
1729403420.4014375,81,1729403420,399613184,base_link,0,1,33.697813,73.0165267,513.2896349986294,1.940449,0.0,0.0,0.0,1.940449,0.0,0.0,0.0,4.322241000000001,2
1729403420.5024405,82,1729403420,499611136,base_link,0,1,33.697813,73.0165267,513.2796349986294,1.9488159999999997,0.0,0.0,0.0,1.9488159999999997,0.0,0.0,0.0,4.343056000000001,2
1729403420.6017618,83,1729403420,599609344,base_link,0,1,33.6978131,73.0165267,513.279635665008,1.9488159999999997,0.0,0.0,0.0,1.9488159999999997,0.0,0.0,0.0,4.343056000000001,2
1729403420.7023838,84,1729403420,699607296,base_link,0,1,33.6978131,73.0165266,513.2796352376292,1.957201,0.0,0.0,0.0,1.957201,0.0,0.0,0.0,4.3639209999999995,2
1729403420.8024688,85,1729403420,799605504,base_link,0,1,33.6978131,73.0165266,513.2796352376292,1.957201,0.0,0.0,0.0,1.957201,0.0,0.0,0.0,4.3639209999999995,2
1729403420.9022224,86,1729403420,899603456,base_link,0,1,33.6978131,73.0165266,513.2696352376292,1.9656039999999997,0.0,0.0,0.0,1.9656039999999997,0.0,0.0,0.0,4.376464,2
1729403421.0023024,87,1729403420,999601408,base_link,0,1,33.697813,73.0165266,513.2696345712507,1.9656039999999997,0.0,0.0,0.0,1.9656039999999997,0.0,0.0,0.0,4.376464,2
1729403421.102956,88,1729403421,99599616,base_link,0,1,33.697813,73.0165266,513.2696345712507,1.9712159999999999,0.0,0.0,0.0,1.9712159999999999,0.0,0.0,0.0,4.389025000000001,2
1729403421.203532,89,1729403421,199597568,base_link,0,1,33.6978132,73.0165266,513.2696359040078,1.9712159999999999,0.0,0.0,0.0,1.9712159999999999,0.0,0.0,0.0,4.389025000000001,2
1729403421.3021464,90,1729403421,299596032,base_link,0,1,33.6978132,73.0165266,513.2696359040078,1.9740250000000001,0.0,0.0,0.0,1.9740250000000001,0.0,0.0,0.0,4.397409,2
1729403421.4023826,91,1729403421,399594240,base_link,0,1,33.6978132,73.0165266,513.2696359040078,1.9740250000000001,0.0,0.0,0.0,1.9740250000000001,0.0,0.0,0.0,4.397409,2
1729403421.503212,92,1729403421,499592448,base_link,0,1,33.6978132,73.0165267,513.2696363313867,1.979649,0.0,0.0,0.0,1.979649,0.0,0.0,0.0,4.405801000000001,2
1729403421.6033795,93,1729403421,599590656,base_link,0,1,33.6978132,73.0165267,513.2596363313867,1.979649,0.0,0.0,0.0,1.979649,0.0,0.0,0.0,4.405801000000001,2
1729403421.7025843,94,1729403421,699589120,base_link,0,1,33.6978132,73.0165267,513.2596363313867,1.9824639999999998,0.0,0.0,0.0,1.9824639999999998,0.0,0.0,0.0,4.414201,2
1729403421.8024223,95,1729403421,799587328,base_link,0,1,33.6978133,73.0165267,513.2496369977654,1.9824639999999998,0.0,0.0,0.0,1.9824639999999998,0.0,0.0,0.0,4.414201,2
1729403421.9021864,96,1729403421,899585792,base_link,0,1,33.6978133,73.0165267,513.2496369977654,1.985281,0.0,0.0,0.0,1.985281,0.0,0.0,0.0,4.4226090000000005,2
1729403422.00262,97,1729403421,999584256,base_link,0,1,33.6978133,73.0165267,513.2396369977654,1.985281,0.0,0.0,0.0,1.985281,0.0,0.0,0.0,4.4226090000000005,2
1729403422.1026933,98,1729403422,99582464,base_link,0,1,33.6978134,73.0165266,513.2396372367652,1.9880999999999998,0.0,0.0,0.0,1.9880999999999998,0.0,0.0,0.0,4.4226090000000005,2
1729403422.2022843,99,1729403422,199580928,base_link,0,1,33.6978134,73.0165266,513.2396372367652,1.9880999999999998,0.0,0.0,0.0,1.9880999999999998,0.0,0.0,0.0,4.4226090000000005,2
1729403422.302333,100,1729403422,299579392,base_link,0,1,33.6978134,73.0165266,513.2296372367653,1.9880999999999998,0.0,0.0,0.0,1.9880999999999998,0.0,0.0,0.0,4.431025,2
1729403422.4026315,101,1729403422,399577600,base_link,0,1,33.6978134,73.0165266,513.2296372367653,1.9880999999999998,0.0,0.0,0.0,1.9880999999999998,0.0,0.0,0.0,4.431025,2
1729403422.5023894,102,1729403422,499576064,base_link,0,1,33.6978134,73.0165266,513.2296372367653,1.9824639999999998,0.0,0.0,0.0,1.9824639999999998,0.0,0.0,0.0,4.41,2
1729403422.6021695,103,1729403422,599574528,base_link,0,1,33.6978134,73.0165265,513.2196368093864,1.9824639999999998,0.0,0.0,0.0,1.9824639999999998,0.0,0.0,0.0,4.41,2
1729403422.7022457,104,1729403422,699573248,base_link,0,1,33.6978134,73.0165265,513.2296368093864,1.9712159999999999,0.0,0.0,0.0,1.9712159999999999,0.0,0.0,0.0,4.389025000000001,2
1729403422.8022778,105,1729403422,799571968,base_link,0,1,33.6978134,73.0165264,513.2296363820076,1.9712159999999999,0.0,0.0,0.0,1.9712159999999999,0.0,0.0,0.0,4.389025000000001,2
1729403422.9021883,106,1729403422,899570688,base_link,0,1,33.6978134,73.0165264,513.2296363820076,1.9712159999999999,0.0,0.0,0.0,1.9712159999999999,0.0,0.0,0.0,4.393216000000001,2
1729403423.0022604,107,1729403422,999569408,base_link,0,1,33.6978134,73.0165263,513.2296359546287,1.9712159999999999,0.0,0.0,0.0,1.9712159999999999,0.0,0.0,0.0,4.393216000000001,2
1729403423.102146,108,1729403423,99568128,base_link,0,1,33.6978134,73.0165263,513.2296359546287,1.9740250000000001,0.0,0.0,0.0,1.9740250000000001,0.0,0.0,0.0,4.401604,2
1729403423.2025216,109,1729403423,199566592,base_link,0,1,33.6978134,73.0165263,513.2296359546287,1.9740250000000001,0.0,0.0,0.0,1.9740250000000001,0.0,0.0,0.0,4.401604,2
1729403423.3036587,110,1729403423,299563776,base_link,0,1,33.6978134,73.0165263,513.2296359546287,1.9768359999999998,0.0,0.0,0.0,1.9768359999999998,0.0,0.0,0.0,4.41,2
1729403423.4032276,111,1729403423,399560960,base_link,0,1,33.6978134,73.0165263,513.2296359546287,1.9768359999999998,0.0,0.0,0.0,1.9768359999999998,0.0,0.0,0.0,4.41,2
1729403423.5030465,112,1729403423,499559680,base_link,0,1,33.6978134,73.0165263,513.2296359546287,1.9768359999999998,0.0,0.0,0.0,1.9768359999999998,0.0,0.0,0.0,4.414201,2
1729403423.6031096,113,1729403423,599556864,base_link,0,1,33.6978135,73.0165263,513.2296366210073,1.9768359999999998,0.0,0.0,0.0,1.9768359999999998,0.0,0.0,0.0,4.414201,2
1729403423.7032743,114,1729403423,699554048,base_link,0,1,33.6978135,73.0165263,513.2296366210073,1.9768359999999998,0.0,0.0,0.0,1.9768359999999998,0.0,0.0,0.0,4.414201,2
1729403423.803738,115,1729403423,799552768,base_link,0,1,33.6978136,73.0165263,513.239637287386,1.9768359999999998,0.0,0.0,0.0,1.9768359999999998,0.0,0.0,0.0,4.414201,2
1729403423.9025087,116,1729403423,899550208,base_link,0,1,33.6978136,73.0165263,513.239637287386,1.979649,0.0,0.0,0.0,1.979649,0.0,0.0,0.0,4.414201,2
1729403424.002429,117,1729403423,999549184,base_link,0,1,33.6978136,73.0165263,513.239637287386,1.979649,0.0,0.0,0.0,1.979649,0.0,0.0,0.0,4.414201,2
1729403424.1025262,118,1729403424,99548416,base_link,0,1,33.6978137,73.0165264,513.2496383811438,1.9768359999999998,0.0,0.0,0.0,1.9768359999999998,0.0,0.0,0.0,4.414201,2
1729403424.202714,119,1729403424,199545856,base_link,0,1,33.6978137,73.0165264,513.2496383811438,1.9768359999999998,0.0,0.0,0.0,1.9768359999999998,0.0,0.0,0.0,4.414201,2
1729403424.3028786,120,1729403424,299543040,base_link,0,1,33.6978137,73.0165264,513.2596383811438,1.9740250000000001,0.0,0.0,0.0,1.9740250000000001,0.0,0.0,0.0,4.418404,2
1729403424.4025548,121,1729403424,399542016,base_link,0,1,33.6978137,73.0165264,513.2596383811438,1.9740250000000001,0.0,0.0,0.0,1.9740250000000001,0.0,0.0,0.0,4.418404,2
1729403424.5027843,122,1729403424,499539200,base_link,0,1,33.6978138,73.0165264,513.2696390475226,1.9768359999999998,0.0,0.0,0.0,1.9768359999999998,0.0,0.0,0.0,4.418404,2
1729403424.6036918,123,1729403424,599536896,base_link,0,1,33.6978138,73.0165264,513.2696390475226,1.9768359999999998,0.0,0.0,0.0,1.9768359999999998,0.0,0.0,0.0,4.418404,2
1729403424.7025518,124,1729403424,699534592,base_link,0,1,33.6978139,73.0165264,513.2696397139015,1.9768359999999998,0.0,0.0,0.0,1.9768359999999998,0.0,0.0,0.0,4.418404,2
1729403424.8030047,125,1729403424,799532288,base_link,0,1,33.6978139,73.0165264,513.2696397139015,1.9768359999999998,0.0,0.0,0.0,1.9768359999999998,0.0,0.0,0.0,4.418404,2
1729403424.902729,126,1729403424,899529984,base_link,0,1,33.6978139,73.0165264,513.2696397139015,1.9768359999999998,0.0,0.0,0.0,1.9768359999999998,0.0,0.0,0.0,4.4226090000000005,2
1729403425.00257,127,1729403424,999527680,base_link,0,1,33.697814,73.0165264,513.2796403802804,1.9768359999999998,0.0,0.0,0.0,1.9768359999999998,0.0,0.0,0.0,4.4226090000000005,2
1729403425.103319,128,1729403425,99527168,base_link,0,1,33.697814,73.0165264,513.2896403802804,1.9824639999999998,0.0,0.0,0.0,1.9824639999999998,0.0,0.0,0.0,4.431025,2
1729403425.2038975,129,1729403425,199524864,base_link,0,1,33.697814,73.0165264,513.2896403802804,1.9824639999999998,0.0,0.0,0.0,1.9824639999999998,0.0,0.0,0.0,4.431025,2
1729403425.303146,130,1729403425,299522816,base_link,0,1,33.697814,73.0165264,513.2996403802804,1.985281,0.0,0.0,0.0,1.985281,0.0,0.0,0.0,4.435236,2
1729403425.4026635,131,1729403425,399519744,base_link,0,1,33.697814,73.0165264,513.3096403802804,1.985281,0.0,0.0,0.0,1.985281,0.0,0.0,0.0,4.435236,2
1729403425.5031593,132,1729403425,499517952,base_link,0,1,33.697814,73.0165264,513.3196403802804,1.985281,0.0,0.0,0.0,1.985281,0.0,0.0,0.0,4.435236,2
1729403425.6028373,133,1729403425,599515904,base_link,0,1,33.697814,73.0165264,513.3296403802804,1.985281,0.0,0.0,0.0,1.985281,0.0,0.0,0.0,4.435236,2
1729403425.7032084,134,1729403425,699513856,base_link,0,1,33.697814,73.0165264,513.3396403802805,1.985281,0.0,0.0,0.0,1.985281,0.0,0.0,0.0,4.435236,2
1729403425.8031247,135,1729403425,799513344,base_link,0,1,33.697814,73.0165264,513.3496403802804,1.985281,0.0,0.0,0.0,1.985281,0.0,0.0,0.0,4.435236,2
1729403425.9028816,136,1729403425,899510528,base_link,0,1,33.697814,73.0165264,513.3496403802804,1.9824639999999998,0.0,0.0,0.0,1.9824639999999998,0.0,0.0,0.0,4.435236,2
1729403426.0034835,137,1729403425,999507456,base_link,0,1,33.697814,73.0165264,513.3596403802804,1.9824639999999998,0.0,0.0,0.0,1.9824639999999998,0.0,0.0,0.0,4.435236,2
1729403426.1027954,138,1729403426,99508736,base_link,0,1,33.697814,73.0165264,513.3596403802804,1.979649,0.0,0.0,0.0,1.979649,0.0,0.0,0.0,4.435236,2
1729403426.2043808,139,1729403426,199507456,base_link,0,1,33.6978141,73.0165262,513.3596401919013,1.979649,0.0,0.0,0.0,1.979649,0.0,0.0,0.0,4.435236,2
1729403426.301946,140,1729403426,299507456,base_link,0,1,33.6978141,73.0165262,513.3596401919013,1.979649,0.0,0.0,0.0,1.979649,0.0,0.0,0.0,4.435236,2
1729403426.4031632,141,1729403426,399507456,base_link,0,1,33.6978141,73.0165262,513.3596401919013,1.979649,0.0,0.0,0.0,1.979649,0.0,0.0,0.0,4.435236,2
1729403426.5031455,142,1729403426,499508992,base_link,0,1,33.6978142,73.0165262,513.3596408582803,1.985281,0.0,0.0,0.0,1.985281,0.0,0.0,0.0,4.443664,2
1729403426.603717,143,1729403426,599508736,base_link,0,1,33.6978142,73.0165262,513.3596408582803,1.985281,0.0,0.0,0.0,1.985281,0.0,0.0,0.0,4.443664,2
1729403426.7033758,144,1729403426,699505920,base_link,0,1,33.6978142,73.0165262,513.3596408582803,1.9824639999999998,0.0,0.0,0.0,1.9824639999999998,0.0,0.0,0.0,4.443664,2
1729403426.8024478,145,1729403426,799506176,base_link,0,1,33.6978143,73.0165262,513.3596415246592,1.9824639999999998,0.0,0.0,0.0,1.9824639999999998,0.0,0.0,0.0,4.443664,2
1729403426.9023714,146,1729403426,899503616,base_link,0,1,33.6978143,73.0165262,513.3596415246592,1.979649,0.0,0.0,0.0,1.979649,0.0,0.0,0.0,4.443664,2
1729403427.0018358,147,1729403426,999503872,base_link,0,1,33.6978144,73.0165262,513.3496421910384,1.979649,0.0,0.0,0.0,1.979649,0.0,0.0,0.0,4.443664,2
1729403427.1029682,148,1729403427,99502848,base_link,0,1,33.6978144,73.0165262,513.3396421910384,1.9768359999999998,0.0,0.0,0.0,1.9768359999999998,0.0,0.0,0.0,4.443664,2
1729403427.202783,149,1729403427,199500032,base_link,0,1,33.6978146,73.0165261,513.3296430964173,1.9768359999999998,0.0,0.0,0.0,1.9768359999999998,0.0,0.0,0.0,4.443664,2
1729403427.3033314,150,1729403427,299497472,base_link,0,1,33.6978146,73.0165261,513.3296430964173,1.9740250000000001,0.0,0.0,0.0,1.9740250000000001,0.0,0.0,0.0,4.439449000000001,2
1729403427.4032118,151,1729403427,399497728,base_link,0,1,33.6978146,73.0165261,513.3196430964173,1.9740250000000001,0.0,0.0,0.0,1.9740250000000001,0.0,0.0,0.0,4.439449000000001,2
1729403427.503368,152,1729403427,499498240,base_link,0,1,33.6978146,73.0165261,513.3096430964173,1.9712159999999999,0.0,0.0,0.0,1.9712159999999999,0.0,0.0,0.0,4.439449000000001,2
1729403427.6022947,153,1729403427,599498496,base_link,0,1,33.6978146,73.016526,513.3096426690381,1.9712159999999999,0.0,0.0,0.0,1.9712159999999999,0.0,0.0,0.0,4.439449000000001,2
1729403427.702284,154,1729403427,699495680,base_link,0,1,33.6978147,73.016526,513.3096433354173,1.9712159999999999,0.0,0.0,0.0,1.9712159999999999,0.0,0.0,0.0,4.435236,2
1729403427.802401,155,1729403427,799493120,base_link,0,1,33.6978147,73.016526,513.2996433354173,1.9712159999999999,0.0,0.0,0.0,1.9712159999999999,0.0,0.0,0.0,4.435236,2
1729403427.9025598,156,1729403427,899490560,base_link,0,1,33.6978147,73.016526,513.2996433354173,1.968409,0.0,0.0,0.0,1.968409,0.0,0.0,0.0,4.439449000000001,2
1729403428.0024946,157,1729403427,999487744,base_link,0,1,33.6978147,73.016526,513.2996433354173,1.968409,0.0,0.0,0.0,1.968409,0.0,0.0,0.0,4.439449000000001,2
1729403428.1025448,158,1729403428,99488000,base_link,0,1,33.6978147,73.016526,513.2996433354173,1.968409,0.0,0.0,0.0,1.968409,0.0,0.0,0.0,4.439449000000001,2
1729403428.2041495,159,1729403428,199485440,base_link,0,1,33.6978147,73.016526,513.3096433354173,1.968409,0.0,0.0,0.0,1.968409,0.0,0.0,0.0,4.439449000000001,2
1729403428.3027434,160,1729403428,299483136,base_link,0,1,33.6978147,73.016526,513.3096433354173,1.9656039999999997,0.0,0.0,0.0,1.9656039999999997,0.0,0.0,0.0,4.435236,2
1729403428.4022074,161,1729403428,399480832,base_link,0,1,33.6978147,73.0165259,513.2996429080381,1.9656039999999997,0.0,0.0,0.0,1.9656039999999997,0.0,0.0,0.0,4.435236,2
1729403428.5025742,162,1729403428,499478272,base_link,0,1,33.6978147,73.0165259,513.2996429080381,1.962801,0.0,0.0,0.0,1.962801,0.0,0.0,0.0,4.431025,2
1729403428.602769,163,1729403428,599475712,base_link,0,1,33.6978147,73.0165259,513.2996429080381,1.962801,0.0,0.0,0.0,1.962801,0.0,0.0,0.0,4.431025,2
1729403428.7032766,164,1729403428,699475456,base_link,0,1,33.6978147,73.0165259,513.2996429080381,1.9599999999999997,0.0,0.0,0.0,1.9599999999999997,0.0,0.0,0.0,4.4268160000000005,2
1729403428.8042145,165,1729403428,799476224,base_link,0,1,33.6978148,73.0165259,513.2996435744172,1.9599999999999997,0.0,0.0,0.0,1.9599999999999997,0.0,0.0,0.0,4.4268160000000005,2
1729403428.9021509,166,1729403428,899476992,base_link,0,1,33.6978148,73.0165259,513.2996435744172,1.957201,0.0,0.0,0.0,1.957201,0.0,0.0,0.0,4.4226090000000005,2
1729403429.0023065,167,1729403428,999474688,base_link,0,1,33.6978149,73.0165259,513.2896442407964,1.957201,0.0,0.0,0.0,1.957201,0.0,0.0,0.0,4.4226090000000005,2
1729403429.1027744,168,1729403429,99472640,base_link,0,1,33.6978149,73.0165259,513.2796442407964,1.9544039999999998,0.0,0.0,0.0,1.9544039999999998,0.0,0.0,0.0,4.418404,2
1729403429.2026558,169,1729403429,199470336,base_link,0,1,33.6978149,73.0165258,513.2796438134171,1.9544039999999998,0.0,0.0,0.0,1.9544039999999998,0.0,0.0,0.0,4.418404,2
1729403429.302517,170,1729403429,299468288,base_link,0,1,33.6978149,73.0165258,513.2696438134171,1.9516090000000001,0.0,0.0,0.0,1.9516090000000001,0.0,0.0,0.0,4.414201,2
1729403429.4023092,171,1729403429,399465984,base_link,0,1,33.6978149,73.0165258,513.2596438134171,1.9516090000000001,0.0,0.0,0.0,1.9516090000000001,0.0,0.0,0.0,4.414201,2
1729403429.503202,172,1729403429,499463936,base_link,0,1,33.6978149,73.0165258,513.2596438134171,1.9488159999999997,0.0,0.0,0.0,1.9488159999999997,0.0,0.0,0.0,4.41,2
1729403429.6028473,173,1729403429,599464448,base_link,0,1,33.6978149,73.0165258,513.2496438134172,1.9488159999999997,0.0,0.0,0.0,1.9488159999999997,0.0,0.0,0.0,4.41,2
1729403429.704147,174,1729403429,699465216,base_link,0,1,33.6978149,73.0165258,513.2396438134172,1.9460250000000001,0.0,0.0,0.0,1.9460250000000001,0.0,0.0,0.0,4.405801000000001,2
1729403429.8027666,175,1729403429,799465728,base_link,0,1,33.6978149,73.0165257,513.2396433860381,1.9460250000000001,0.0,0.0,0.0,1.9460250000000001,0.0,0.0,0.0,4.405801000000001,2
1729403429.902411,176,1729403429,899466240,base_link,0,1,33.6978149,73.0165257,513.2396433860381,1.9432359999999997,0.0,0.0,0.0,1.9432359999999997,0.0,0.0,0.0,4.401604,2
1729403430.002895,177,1729403429,999463936,base_link,0,1,33.6978149,73.0165257,513.2396433860381,1.9432359999999997,0.0,0.0,0.0,1.9432359999999997,0.0,0.0,0.0,4.401604,2
1729403430.1027997,178,1729403430,99461888,base_link,0,1,33.6978149,73.0165256,513.2396429586588,1.940449,0.0,0.0,0.0,1.940449,0.0,0.0,0.0,4.401604,2
1729403430.2026863,179,1729403430,199459840,base_link,0,1,33.697815,73.0165256,513.249643625038,1.940449,0.0,0.0,0.0,1.940449,0.0,0.0,0.0,4.401604,2
1729403430.302554,180,1729403430,299457792,base_link,0,1,33.697815,73.0165256,513.249643625038,1.9376639999999998,0.0,0.0,0.0,1.9376639999999998,0.0,0.0,0.0,4.397409,2
1729403430.402742,181,1729403430,399456000,base_link,0,1,33.697815,73.0165256,513.249643625038,1.9376639999999998,0.0,0.0,0.0,1.9376639999999998,0.0,0.0,0.0,4.397409,2
1729403430.502534,182,1729403430,499454208,base_link,0,1,33.697815,73.0165257,513.2496440524172,1.934881,0.0,0.0,0.0,1.934881,0.0,0.0,0.0,4.393216000000001,2
1729403430.602863,183,1729403430,599454976,base_link,0,1,33.697815,73.0165256,513.249643625038,1.934881,0.0,0.0,0.0,1.934881,0.0,0.0,0.0,4.393216000000001,2
1729403430.702744,184,1729403430,699453184,base_link,0,1,33.697815,73.0165256,513.239643625038,1.9320999999999997,0.0,0.0,0.0,1.9320999999999997,0.0,0.0,0.0,4.389025000000001,2
1729403430.8029015,185,1729403430,799453696,base_link,0,1,33.697815,73.0165256,513.229643625038,1.9320999999999997,0.0,0.0,0.0,1.9320999999999997,0.0,0.0,0.0,4.389025000000001,2
1729403430.902824,186,1729403430,899454464,base_link,0,1,33.697815,73.0165255,513.2296431976588,1.929321,0.0,0.0,0.0,1.929321,0.0,0.0,0.0,4.384835999999999,2
1729403431.0030963,187,1729403430,999452672,base_link,0,1,33.697815,73.0165255,513.2296431976588,1.929321,0.0,0.0,0.0,1.929321,0.0,0.0,0.0,4.384835999999999,2
1729403431.1034749,188,1729403431,99453696,base_link,0,1,33.697815,73.0165254,513.2296427702796,1.929321,0.0,0.0,0.0,1.929321,0.0,0.0,0.0,4.384835999999999,2
1729403431.2030997,189,1729403431,199451904,base_link,0,1,33.697815,73.0165254,513.2296427702796,1.929321,0.0,0.0,0.0,1.929321,0.0,0.0,0.0,4.384835999999999,2
1729403431.3025088,190,1729403431,299450112,base_link,0,1,33.697815,73.0165254,513.2396427702796,1.9265439999999998,0.0,0.0,0.0,1.9265439999999998,0.0,0.0,0.0,4.380649,2
1729403431.4025016,191,1729403431,399448320,base_link,0,1,33.697815,73.0165254,513.2296427702796,1.9265439999999998,0.0,0.0,0.0,1.9265439999999998,0.0,0.0,0.0,4.380649,2
1729403431.5028753,192,1729403431,499449600,base_link,0,1,33.697815,73.0165253,513.2296423429004,1.923769,0.0,0.0,0.0,1.923769,0.0,0.0,0.0,4.376464,2
1729403431.6024132,193,1729403431,599447808,base_link,0,1,33.697815,73.0165253,513.2196423429004,1.923769,0.0,0.0,0.0,1.923769,0.0,0.0,0.0,4.376464,2
1729403431.7025988,194,1729403431,699448832,base_link,0,1,33.697815,73.0165253,513.2196423429004,1.9209959999999997,0.0,0.0,0.0,1.9209959999999997,0.0,0.0,0.0,4.376464,2
1729403431.8025668,195,1729403431,799450112,base_link,0,1,33.697815,73.0165253,513.2096423429005,1.9209959999999997,0.0,0.0,0.0,1.9209959999999997,0.0,0.0,0.0,4.376464,2
1729403431.902742,196,1729403431,899448320,base_link,0,1,33.697815,73.0165253,513.2096423429005,1.918225,0.0,0.0,0.0,1.918225,0.0,0.0,0.0,4.376464,2
1729403432.0027797,197,1729403431,999449600,base_link,0,1,33.697815,73.0165253,513.1996423429003,1.918225,0.0,0.0,0.0,1.918225,0.0,0.0,0.0,4.376464,2
1729403432.1028373,198,1729403432,99448064,base_link,0,1,33.697815,73.0165253,513.1896423429004,1.9154559999999998,0.0,0.0,0.0,1.9154559999999998,0.0,0.0,0.0,4.368099999999999,2
1729403432.2032084,199,1729403432,199449344,base_link,0,1,33.697815,73.0165253,513.1796423429004,1.9154559999999998,0.0,0.0,0.0,1.9154559999999998,0.0,0.0,0.0,4.368099999999999,2
1729403432.3033595,200,1729403432,299446272,base_link,0,1,33.697815,73.0165252,513.1696419155213,1.912689,0.0,0.0,0.0,1.912689,0.0,0.0,0.0,4.3639209999999995,2
1729403432.4034026,201,1729403432,399447552,base_link,0,1,33.697815,73.0165252,513.1696419155213,1.912689,0.0,0.0,0.0,1.912689,0.0,0.0,0.0,4.3639209999999995,2
1729403432.5034027,202,1729403432,499444480,base_link,0,1,33.697815,73.0165252,513.1596419155213,1.9099239999999997,0.0,0.0,0.0,1.9099239999999997,0.0,0.0,0.0,4.355569000000001,2
1729403432.603504,203,1729403432,599444224,base_link,0,1,33.697815,73.0165252,513.1596419155213,1.9099239999999997,0.0,0.0,0.0,1.9099239999999997,0.0,0.0,0.0,4.355569000000001,2
1729403432.703106,204,1729403432,699441152,base_link,0,1,33.697815,73.0165252,513.1696419155213,1.907161,0.0,0.0,0.0,1.907161,0.0,0.0,0.0,4.351395999999999,2
1729403432.8029845,205,1729403432,799440128,base_link,0,1,33.697815,73.0165252,513.1696419155213,1.907161,0.0,0.0,0.0,1.907161,0.0,0.0,0.0,4.351395999999999,2
1729403432.902906,206,1729403432,899437056,base_link,0,1,33.697815,73.0165251,513.1796414881421,1.901641,0.0,0.0,0.0,1.901641,0.0,0.0,0.0,4.343056000000001,2
1729403433.003084,207,1729403432,999434240,base_link,0,1,33.697815,73.0165251,513.1796414881421,1.901641,0.0,0.0,0.0,1.901641,0.0,0.0,0.0,4.343056000000001,2
1729403433.1034722,208,1729403433,99435776,base_link,0,1,33.697815,73.0165251,513.1796414881421,1.8988839999999998,0.0,0.0,0.0,1.8988839999999998,0.0,0.0,0.0,4.338889000000001,2
1729403433.2027068,209,1729403433,199436032,base_link,0,1,33.697815,73.0165251,513.1796414881421,1.8988839999999998,0.0,0.0,0.0,1.8988839999999998,0.0,0.0,0.0,4.338889000000001,2
1729403433.3022778,210,1729403433,299434752,base_link,0,1,33.697815,73.0165251,513.1796414881421,1.896129,0.0,0.0,0.0,1.896129,0.0,0.0,0.0,4.330560999999999,2
1729403433.4030468,211,1729403433,399431936,base_link,0,1,33.697815,73.0165251,513.1696414881421,1.896129,0.0,0.0,0.0,1.896129,0.0,0.0,0.0,4.330560999999999,2
1729403433.5039704,212,1729403433,499429376,base_link,0,1,33.697815,73.0165251,513.1696414881421,1.8933759999999997,0.0,0.0,0.0,1.8933759999999997,0.0,0.0,0.0,4.322241000000001,2
1729403433.6030953,213,1729403433,599426816,base_link,0,1,33.697815,73.0165251,513.1696414881421,1.8933759999999997,0.0,0.0,0.0,1.8933759999999997,0.0,0.0,0.0,4.322241000000001,2
1729403433.7033803,214,1729403433,699424256,base_link,0,1,33.697815,73.0165251,513.1696414881421,1.890625,0.0,0.0,0.0,1.890625,0.0,0.0,0.0,4.322241000000001,2
1729403433.8029864,215,1729403433,799424256,base_link,0,1,33.697815,73.016525,513.1696410607632,1.890625,0.0,0.0,0.0,1.890625,0.0,0.0,0.0,4.322241000000001,2
1729403433.9018743,216,1729403433,899424768,base_link,0,1,33.697815,73.016525,513.1696410607632,1.8878760000000003,0.0,0.0,0.0,1.8878760000000003,0.0,0.0,0.0,4.318083999999999,2
1729403434.002173,217,1729403433,999424256,base_link,0,1,33.697815,73.016525,513.1696410607632,1.8878760000000003,0.0,0.0,0.0,1.8878760000000003,0.0,0.0,0.0,4.318083999999999,2
1729403434.1033397,218,1729403434,99423488,base_link,0,1,33.697815,73.016525,513.1696410607632,1.8878760000000003,0.0,0.0,0.0,1.8878760000000003,0.0,0.0,0.0,4.313929,2
1729403434.2021384,219,1729403434,199423744,base_link,0,1,33.6978149,73.0165249,513.1796399670052,1.8878760000000003,0.0,0.0,0.0,1.8878760000000003,0.0,0.0,0.0,4.313929,2
1729403434.302407,220,1729403434,299421184,base_link,0,1,33.6978149,73.0165249,513.1796399670052,1.885129,0.0,0.0,0.0,1.885129,0.0,0.0,0.0,4.305625000000001,2
1729403434.4023826,221,1729403434,399421184,base_link,0,1,33.6978149,73.0165249,513.1896399670052,1.885129,0.0,0.0,0.0,1.885129,0.0,0.0,0.0,4.305625000000001,2
1729403434.5022619,222,1729403434,499418880,base_link,0,1,33.6978149,73.0165249,513.1996399670052,1.879641,0.0,0.0,0.0,1.879641,0.0,0.0,0.0,4.301475999999999,2
1729403434.6027484,223,1729403434,599416576,base_link,0,1,33.6978149,73.0165249,513.2096399670053,1.879641,0.0,0.0,0.0,1.879641,0.0,0.0,0.0,4.301475999999999,2
1729403434.7024055,224,1729403434,699414272,base_link,0,1,33.6978148,73.0165249,513.2096393006265,1.8769000000000002,0.0,0.0,0.0,1.8769000000000002,0.0,0.0,0.0,4.293184,2
1729403434.8023248,225,1729403434,799411968,base_link,0,1,33.6978147,73.0165249,513.2196386342476,1.8769000000000002,0.0,0.0,0.0,1.8769000000000002,0.0,0.0,0.0,4.293184,2
1729403434.902565,226,1729403434,899409664,base_link,0,1,33.6978147,73.0165249,513.2196386342476,1.874161,0.0,0.0,0.0,1.874161,0.0,0.0,0.0,4.2848999999999995,2
1729403435.002296,227,1729403434,999409920,base_link,0,1,33.6978146,73.0165249,513.2296379678689,1.874161,0.0,0.0,0.0,1.874161,0.0,0.0,0.0,4.2848999999999995,2
1729403435.102141,228,1729403435,99407360,base_link,0,1,33.6978146,73.0165249,513.2496379678689,1.8714240000000002,0.0,0.0,0.0,1.8714240000000002,0.0,0.0,0.0,4.280761,2
1729403435.2028024,229,1729403435,199405056,base_link,0,1,33.6978146,73.0165249,513.2596379678689,1.8714240000000002,0.0,0.0,0.0,1.8714240000000002,0.0,0.0,0.0,4.280761,2
1729403435.3023205,230,1729403435,299405312,base_link,0,1,33.6978146,73.0165249,513.2696379678689,1.868689,0.0,0.0,0.0,1.868689,0.0,0.0,0.0,4.272489000000001,2
1729403435.4027898,231,1729403435,399404544,base_link,0,1,33.6978146,73.0165249,513.2696379678689,1.868689,0.0,0.0,0.0,1.868689,0.0,0.0,0.0,4.272489000000001,2
1729403435.5022113,232,1729403435,499405312,base_link,0,1,33.6978146,73.0165249,513.2796379678689,1.8659560000000004,0.0,0.0,0.0,1.8659560000000004,0.0,0.0,0.0,4.268355999999999,2
1729403435.6027448,233,1729403435,599403520,base_link,0,1,33.6978145,73.0165249,513.2796373014903,1.8659560000000004,0.0,0.0,0.0,1.8659560000000004,0.0,0.0,0.0,4.268355999999999,2
1729403435.7031696,234,1729403435,699401728,base_link,0,1,33.6978145,73.0165249,513.2896373014903,1.863225,0.0,0.0,0.0,1.863225,0.0,0.0,0.0,4.264225,2
1729403435.8022988,235,1729403435,799399936,base_link,0,1,33.6978145,73.0165249,513.2896373014903,1.863225,0.0,0.0,0.0,1.863225,0.0,0.0,0.0,4.264225,2
1729403435.902745,236,1729403435,899401216,base_link,0,1,33.6978145,73.016525,513.2796377288691,1.8604960000000004,0.0,0.0,0.0,1.8604960000000004,0.0,0.0,0.0,4.260096,2
1729403436.0021796,237,1729403435,999402240,base_link,0,1,33.6978145,73.016525,513.2796377288691,1.8604960000000004,0.0,0.0,0.0,1.8604960000000004,0.0,0.0,0.0,4.260096,2
1729403436.1025507,238,1729403436,99400448,base_link,0,1,33.6978145,73.016525,513.2696377288692,1.8604960000000004,0.0,0.0,0.0,1.8604960000000004,0.0,0.0,0.0,4.255969,2
1729403436.2034624,239,1729403436,199401216,base_link,0,1,33.6978145,73.016525,513.2696377288692,1.8604960000000004,0.0,0.0,0.0,1.8604960000000004,0.0,0.0,0.0,4.255969,2
1729403436.3033948,240,1729403436,299399680,base_link,0,1,33.6978145,73.016525,513.2596377288692,1.8604960000000004,0.0,0.0,0.0,1.8604960000000004,0.0,0.0,0.0,4.255969,2
1729403436.4026027,241,1729403436,399400448,base_link,0,1,33.6978146,73.016525,513.2496383952479,1.8604960000000004,0.0,0.0,0.0,1.8604960000000004,0.0,0.0,0.0,4.255969,2
1729403436.5023909,242,1729403436,499401472,base_link,0,1,33.6978146,73.016525,513.2496383952479,1.857769,0.0,0.0,0.0,1.857769,0.0,0.0,0.0,4.251843999999999,2
1729403436.6023922,243,1729403436,599402496,base_link,0,1,33.6978146,73.016525,513.2396383952479,1.857769,0.0,0.0,0.0,1.857769,0.0,0.0,0.0,4.251843999999999,2
1729403436.7023246,244,1729403436,699400704,base_link,0,1,33.6978146,73.016525,513.2496383952479,1.857769,0.0,0.0,0.0,1.857769,0.0,0.0,0.0,4.251843999999999,2
1729403436.802662,245,1729403436,799401728,base_link,0,1,33.6978146,73.016525,513.2396383952479,1.857769,0.0,0.0,0.0,1.857769,0.0,0.0,0.0,4.251843999999999,2
1729403436.9023335,246,1729403436,899402752,base_link,0,1,33.6978146,73.016525,513.2396383952479,1.857769,0.0,0.0,0.0,1.857769,0.0,0.0,0.0,4.251843999999999,2
1729403437.002489,247,1729403436,999400960,base_link,0,1,33.6978146,73.016525,513.2396383952479,1.857769,0.0,0.0,0.0,1.857769,0.0,0.0,0.0,4.251843999999999,2
1729403437.1035612,248,1729403437,99401472,base_link,0,1,33.6978146,73.016525,513.2396383952479,1.857769,0.0,0.0,0.0,1.857769,0.0,0.0,0.0,4.247720999999999,2
1729403437.2025108,249,1729403437,199402496,base_link,0,1,33.6978147,73.016525,513.2396390616266,1.857769,0.0,0.0,0.0,1.857769,0.0,0.0,0.0,4.247720999999999,2
1729403437.3033702,250,1729403437,299400960,base_link,0,1,33.6978147,73.016525,513.2496390616266,1.8550440000000004,0.0,0.0,0.0,1.8550440000000004,0.0,0.0,0.0,4.247720999999999,2
1729403437.4030576,251,1729403437,399402240,base_link,0,1,33.6978147,73.016525,513.2496390616266,1.8550440000000004,0.0,0.0,0.0,1.8550440000000004,0.0,0.0,0.0,4.247720999999999,2
1729403437.503623,252,1729403437,499403264,base_link,0,1,33.6978147,73.016525,513.2496390616266,1.8550440000000004,0.0,0.0,0.0,1.8550440000000004,0.0,0.0,0.0,4.2436,2
1729403437.603072,253,1729403437,599404544,base_link,0,1,33.6978147,73.016525,513.2496390616266,1.8550440000000004,0.0,0.0,0.0,1.8550440000000004,0.0,0.0,0.0,4.2436,2
1729403437.7024164,254,1729403437,699403008,base_link,0,1,33.6978147,73.016525,513.2596390616266,1.8550440000000004,0.0,0.0,0.0,1.8550440000000004,0.0,0.0,0.0,4.2436,2
1729403437.8026092,255,1729403437,799403776,base_link,0,1,33.6978147,73.016525,513.2596390616266,1.8550440000000004,0.0,0.0,0.0,1.8550440000000004,0.0,0.0,0.0,4.2436,2
1729403437.9027767,256,1729403437,899405056,base_link,0,1,33.6978147,73.016525,513.2696390616265,1.8604960000000004,0.0,0.0,0.0,1.8604960000000004,0.0,0.0,0.0,4.2436,2
1729403438.0044575,257,1729403437,999406080,base_link,0,1,33.6978147,73.016525,513.2696390616265,1.8604960000000004,0.0,0.0,0.0,1.8604960000000004,0.0,0.0,0.0,4.2436,2
1729403438.1026947,258,1729403438,99402752,base_link,0,1,33.6978147,73.016525,513.2696390616265,1.863225,0.0,0.0,0.0,1.863225,0.0,0.0,0.0,4.2436,2
1729403438.2028081,259,1729403438,199404032,base_link,0,1,33.6978147,73.016525,513.2696390616265,1.863225,0.0,0.0,0.0,1.863225,0.0,0.0,0.0,4.2436,2
1729403438.3032775,260,1729403438,299405568,base_link,0,1,33.6978147,73.016525,513.2696390616265,1.8659560000000004,0.0,0.0,0.0,1.8659560000000004,0.0,0.0,0.0,4.247720999999999,2
1729403438.4027472,261,1729403438,399404288,base_link,0,1,33.6978147,73.016525,513.2696390616265,1.8659560000000004,0.0,0.0,0.0,1.8659560000000004,0.0,0.0,0.0,4.247720999999999,2
1729403438.5028389,262,1729403438,499405568,base_link,0,1,33.6978147,73.016525,513.2696390616265,1.868689,0.0,0.0,0.0,1.868689,0.0,0.0,0.0,4.247720999999999,2
1729403438.6029696,263,1729403438,599406592,base_link,0,1,33.6978147,73.016525,513.2696390616265,1.868689,0.0,0.0,0.0,1.868689,0.0,0.0,0.0,4.247720999999999,2
1729403438.7034073,264,1729403438,699405056,base_link,0,1,33.6978148,73.016525,513.2696397280054,1.8714240000000002,0.0,0.0,0.0,1.8714240000000002,0.0,0.0,0.0,4.247720999999999,2
1729403438.8030818,265,1729403438,799404800,base_link,0,1,33.6978148,73.016525,513.2796397280053,1.8714240000000002,0.0,0.0,0.0,1.8714240000000002,0.0,0.0,0.0,4.247720999999999,2
1729403438.903071,266,1729403438,899404800,base_link,0,1,33.6978148,73.0165251,513.2796401553844,1.8714240000000002,0.0,0.0,0.0,1.8714240000000002,0.0,0.0,0.0,4.251843999999999,2
1729403439.0027947,267,1729403438,999404800,base_link,0,1,33.6978148,73.0165251,513.2796401553844,1.8714240000000002,0.0,0.0,0.0,1.8714240000000002,0.0,0.0,0.0,4.251843999999999,2
1729403439.1034343,268,1729403439,99403520,base_link,0,1,33.6978148,73.0165251,513.2896401553844,1.8714240000000002,0.0,0.0,0.0,1.8714240000000002,0.0,0.0,0.0,4.251843999999999,2
1729403439.2030663,269,1729403439,199403264,base_link,0,1,33.6978148,73.0165252,513.2896405827635,1.8714240000000002,0.0,0.0,0.0,1.8714240000000002,0.0,0.0,0.0,4.251843999999999,2
1729403439.3034682,270,1729403439,299403520,base_link,0,1,33.6978148,73.0165252,513.2896405827635,1.868689,0.0,0.0,0.0,1.868689,0.0,0.0,0.0,4.251843999999999,2
1729403439.403311,271,1729403439,399405056,base_link,0,1,33.6978148,73.0165252,513.2996405827635,1.868689,0.0,0.0,0.0,1.868689,0.0,0.0,0.0,4.251843999999999,2
1729403439.5028784,272,1729403439,499402240,base_link,0,1,33.6978148,73.0165252,513.2996405827635,1.868689,0.0,0.0,0.0,1.868689,0.0,0.0,0.0,4.251843999999999,2
1729403439.603093,273,1729403439,599402240,base_link,0,1,33.6978148,73.0165253,513.2996410101424,1.868689,0.0,0.0,0.0,1.868689,0.0,0.0,0.0,4.251843999999999,2
1729403439.7029753,274,1729403439,699402240,base_link,0,1,33.6978148,73.0165253,513.3096410101424,1.868689,0.0,0.0,0.0,1.868689,0.0,0.0,0.0,4.251843999999999,2
1729403439.8026855,275,1729403439,799401984,base_link,0,1,33.6978148,73.0165253,513.3196410101424,1.868689,0.0,0.0,0.0,1.868689,0.0,0.0,0.0,4.251843999999999,2
1729403439.9027565,276,1729403439,899402240,base_link,0,1,33.6978149,73.0165253,513.3196416765213,1.8659560000000004,0.0,0.0,0.0,1.8659560000000004,0.0,0.0,0.0,4.251843999999999,2
1729403440.0030499,277,1729403439,999402496,base_link,0,1,33.6978149,73.0165254,513.3296421039005,1.8659560000000004,0.0,0.0,0.0,1.8659560000000004,0.0,0.0,0.0,4.251843999999999,2
1729403440.1035726,278,1729403440,99404288,base_link,0,1,33.6978149,73.0165254,513.3396421039006,1.8659560000000004,0.0,0.0,0.0,1.8659560000000004,0.0,0.0,0.0,4.251843999999999,2
1729403440.2031705,279,1729403440,199404544,base_link,0,1,33.697815,73.0165254,513.3496427702796,1.8659560000000004,0.0,0.0,0.0,1.8659560000000004,0.0,0.0,0.0,4.251843999999999,2
1729403440.3030863,280,1729403440,300405056,base_link,0,1,33.697815,73.0165255,513.3596431976588,1.8659560000000004,0.0,0.0,0.0,1.8659560000000004,0.0,0.0,0.0,4.251843999999999,2
1729403440.4029782,281,1729403440,400403520,base_link,0,1,33.6978151,73.0165255,513.3696438640379,1.8659560000000004,0.0,0.0,0.0,1.8659560000000004,0.0,0.0,0.0,4.251843999999999,2
1729403440.5018477,282,1729403440,499401984,base_link,0,1,33.6978151,73.0165255,513.3696438640379,1.863225,0.0,0.0,0.0,1.863225,0.0,0.0,0.0,4.251843999999999,2
1729403440.6021898,283,1729403440,599400704,base_link,0,1,33.6978151,73.0165256,513.3696442914171,1.863225,0.0,0.0,0.0,1.863225,0.0,0.0,0.0,4.251843999999999,2
1729403440.7021027,284,1729403440,699399168,base_link,0,1,33.6978151,73.0165256,513.3796442914171,1.863225,0.0,0.0,0.0,1.863225,0.0,0.0,0.0,4.251843999999999,2
1729403440.8023543,285,1729403440,799397888,base_link,0,1,33.6978152,73.0165256,513.3796449577964,1.863225,0.0,0.0,0.0,1.863225,0.0,0.0,0.0,4.251843999999999,2
1729403440.902418,286,1729403440,899396608,base_link,0,1,33.6978152,73.0165257,513.3796453851758,1.863225,0.0,0.0,0.0,1.863225,0.0,0.0,0.0,4.251843999999999,2
1729403441.0028863,287,1729403440,999395328,base_link,0,1,33.6978153,73.0165257,513.369646051555,1.863225,0.0,0.0,0.0,1.863225,0.0,0.0,0.0,4.251843999999999,2
1729403441.1036513,288,1729403441,99395584,base_link,0,1,33.6978153,73.0165257,513.369646051555,1.8604960000000004,0.0,0.0,0.0,1.8604960000000004,0.0,0.0,0.0,4.255969,2
1729403441.2019343,289,1729403441,199394560,base_link,0,1,33.6978153,73.0165256,513.3696456241756,1.8604960000000004,0.0,0.0,0.0,1.8604960000000004,0.0,0.0,0.0,4.255969,2
1729403441.301876,290,1729403441,299393280,base_link,0,1,33.6978153,73.0165256,513.3596456241756,1.8604960000000004,0.0,0.0,0.0,1.8604960000000004,0.0,0.0,0.0,4.255969,2
1729403441.4019747,291,1729403441,399392000,base_link,0,1,33.6978153,73.0165256,513.3596456241756,1.8604960000000004,0.0,0.0,0.0,1.8604960000000004,0.0,0.0,0.0,4.255969,2
1729403441.5030265,292,1729403441,499392512,base_link,0,1,33.6978153,73.0165256,513.3596456241756,1.8604960000000004,0.0,0.0,0.0,1.8604960000000004,0.0,0.0,0.0,4.255969,2
1729403441.6026263,293,1729403441,599390976,base_link,0,1,33.6978153,73.0165256,513.3596456241756,1.8604960000000004,0.0,0.0,0.0,1.8604960000000004,0.0,0.0,0.0,4.255969,2
1729403441.7020907,294,1729403441,699389696,base_link,0,1,33.6978153,73.0165257,513.349646051555,1.857769,0.0,0.0,0.0,1.857769,0.0,0.0,0.0,4.255969,2
1729403441.8020968,295,1729403441,799388416,base_link,0,1,33.6978153,73.0165257,513.349646051555,1.857769,0.0,0.0,0.0,1.857769,0.0,0.0,0.0,4.255969,2
1729403441.9018872,296,1729403441,899387136,base_link,0,1,33.6978153,73.0165257,513.349646051555,1.857769,0.0,0.0,0.0,1.857769,0.0,0.0,0.0,4.255969,2
1729403442.0021617,297,1729403441,999386112,base_link,0,1,33.6978153,73.0165257,513.349646051555,1.857769,0.0,0.0,0.0,1.857769,0.0,0.0,0.0,4.255969,2
1729403442.1021256,298,1729403442,99385088,base_link,0,1,33.6978153,73.0165257,513.349646051555,1.857769,0.0,0.0,0.0,1.857769,0.0,0.0,0.0,4.255969,2
1729403442.2032084,299,1729403442,199384064,base_link,0,1,33.6978153,73.0165257,513.349646051555,1.857769,0.0,0.0,0.0,1.857769,0.0,0.0,0.0,4.255969,2
1729403442.3022957,300,1729403442,299383040,base_link,0,1,33.6978153,73.0165257,513.349646051555,1.8550440000000004,0.0,0.0,0.0,1.8550440000000004,0.0,0.0,0.0,4.251843999999999,2
1729403442.4025156,301,1729403442,399382272,base_link,0,1,33.6978152,73.0165256,513.3396449577964,1.8550440000000004,0.0,0.0,0.0,1.8550440000000004,0.0,0.0,0.0,4.251843999999999,2
1729403442.5024471,302,1729403442,499381248,base_link,0,1,33.6978152,73.0165256,513.3396449577964,1.8523209999999999,0.0,0.0,0.0,1.8523209999999999,0.0,0.0,0.0,4.247720999999999,2
1729403442.6024096,303,1729403442,599380224,base_link,0,1,33.6978152,73.0165256,513.3396449577964,1.8523209999999999,0.0,0.0,0.0,1.8523209999999999,0.0,0.0,0.0,4.247720999999999,2
1729403442.7025719,304,1729403442,699379456,base_link,0,1,33.6978152,73.0165256,513.3496449577964,1.8523209999999999,0.0,0.0,0.0,1.8523209999999999,0.0,0.0,0.0,4.247720999999999,2
1729403442.8034277,305,1729403442,799378688,base_link,0,1,33.6978152,73.0165256,513.3496449577964,1.8523209999999999,0.0,0.0,0.0,1.8523209999999999,0.0,0.0,0.0,4.247720999999999,2
1729403442.9027648,306,1729403442,899377920,base_link,0,1,33.6978152,73.0165256,513.3496449577964,1.8523209999999999,0.0,0.0,0.0,1.8523209999999999,0.0,0.0,0.0,4.247720999999999,2
1729403443.0026524,307,1729403442,999376896,base_link,0,1,33.6978152,73.0165256,513.3396449577964,1.8523209999999999,0.0,0.0,0.0,1.8523209999999999,0.0,0.0,0.0,4.247720999999999,2
1729403443.1032703,308,1729403443,99376384,base_link,0,1,33.6978152,73.0165256,513.3396449577964,1.8496000000000004,0.0,0.0,0.0,1.8496000000000004,0.0,0.0,0.0,4.247720999999999,2
1729403443.2028651,309,1729403443,199375872,base_link,0,1,33.6978152,73.0165255,513.3396445304171,1.8496000000000004,0.0,0.0,0.0,1.8496000000000004,0.0,0.0,0.0,4.247720999999999,2
1729403443.3022947,310,1729403443,299375616,base_link,0,1,33.6978152,73.0165255,513.3496445304171,1.8496000000000004,0.0,0.0,0.0,1.8496000000000004,0.0,0.0,0.0,4.247720999999999,2
1729403443.4025152,311,1729403443,399374592,base_link,0,1,33.6978152,73.0165255,513.3496445304171,1.8496000000000004,0.0,0.0,0.0,1.8496000000000004,0.0,0.0,0.0,4.247720999999999,2
1729403443.5024412,312,1729403443,499374080,base_link,0,1,33.6978152,73.0165255,513.3596445304171,1.8496000000000004,0.0,0.0,0.0,1.8496000000000004,0.0,0.0,0.0,4.247720999999999,2
1729403443.6057758,313,1729403443,599373824,base_link,0,1,33.6978152,73.0165255,513.3596445304171,1.8496000000000004,0.0,0.0,0.0,1.8496000000000004,0.0,0.0,0.0,4.247720999999999,2
1729403443.7022276,314,1729403443,699373312,base_link,0,1,33.6978152,73.0165254,513.3696441030379,1.8496000000000004,0.0,0.0,0.0,1.8496000000000004,0.0,0.0,0.0,4.247720999999999,2
1729403443.8035228,315,1729403443,800371776,base_link,0,1,33.6978152,73.0165254,513.3696441030379,1.8496000000000004,0.0,0.0,0.0,1.8496000000000004,0.0,0.0,0.0,4.247720999999999,2
1729403443.9021604,316,1729403443,899371520,base_link,0,1,33.6978152,73.0165253,513.3696436756586,1.846881,0.0,0.0,0.0,1.846881,0.0,0.0,0.0,4.247720999999999,2
1729403444.0023627,317,1729403443,999371264,base_link,0,1,33.6978152,73.0165252,513.3696432482794,1.846881,0.0,0.0,0.0,1.846881,0.0,0.0,0.0,4.247720999999999,2
1729403444.1027339,318,1729403444,99370496,base_link,0,1,33.6978152,73.0165252,513.3596432482794,1.846881,0.0,0.0,0.0,1.846881,0.0,0.0,0.0,4.247720999999999,2
1729403444.2029595,319,1729403444,199369984,base_link,0,1,33.6978152,73.016525,513.3496423935212,1.846881,0.0,0.0,0.0,1.846881,0.0,0.0,0.0,4.247720999999999,2
1729403444.302685,320,1729403444,299369472,base_link,0,1,33.6978152,73.016525,513.3496423935212,1.846881,0.0,0.0,0.0,1.846881,0.0,0.0,0.0,4.247720999999999,2
1729403444.4027257,321,1729403444,399368960,base_link,0,1,33.6978152,73.016525,513.3496423935212,1.846881,0.0,0.0,0.0,1.846881,0.0,0.0,0.0,4.247720999999999,2
1729403444.5025477,322,1729403444,499368704,base_link,0,1,33.6978152,73.0165249,513.349641966142,1.846881,0.0,0.0,0.0,1.846881,0.0,0.0,0.0,4.251843999999999,2
1729403444.6024005,323,1729403444,599368704,base_link,0,1,33.6978151,73.0165249,513.339641299763,1.846881,0.0,0.0,0.0,1.846881,0.0,0.0,0.0,4.251843999999999,2
1729403444.7030213,324,1729403444,699368704,base_link,0,1,33.6978151,73.0165248,513.3396408723839,1.846881,0.0,0.0,0.0,1.846881,0.0,0.0,0.0,4.251843999999999,2
1729403444.803779,325,1729403444,799368448,base_link,0,1,33.6978151,73.0165248,513.3296408723838,1.846881,0.0,0.0,0.0,1.846881,0.0,0.0,0.0,4.251843999999999,2
1729403444.9032772,326,1729403444,899368192,base_link,0,1,33.6978151,73.0165247,513.3196404450049,1.846881,0.0,0.0,0.0,1.846881,0.0,0.0,0.0,4.251843999999999,2
1729403445.0022924,327,1729403444,999367936,base_link,0,1,33.6978151,73.0165246,513.2996400176258,1.846881,0.0,0.0,0.0,1.846881,0.0,0.0,0.0,4.251843999999999,2
1729403445.1024418,328,1729403445,99367680,base_link,0,1,33.697815,73.0165246,513.299639351247,1.846881,0.0,0.0,0.0,1.846881,0.0,0.0,0.0,4.260096,2
1729403445.2025127,329,1729403445,199366912,base_link,0,1,33.6978149,73.0165245,513.2996382574894,1.846881,0.0,0.0,0.0,1.846881,0.0,0.0,0.0,4.260096,2
1729403445.3025985,330,1729403445,299367168,base_link,0,1,33.6978149,73.0165244,513.2896378301106,1.8496000000000004,0.0,0.0,0.0,1.8496000000000004,0.0,0.0,0.0,4.260096,2
1729403445.4023757,331,1729403445,399366912,base_link,0,1,33.6978149,73.0165244,513.2896378301106,1.8496000000000004,0.0,0.0,0.0,1.8496000000000004,0.0,0.0,0.0,4.260096,2
1729403445.5027173,332,1729403445,499366656,base_link,0,1,33.6978149,73.0165243,513.2796374027316,1.846881,0.0,0.0,0.0,1.846881,0.0,0.0,0.0,4.264225,2
1729403445.6025436,333,1729403445,599366656,base_link,0,1,33.6978149,73.0165242,513.2796369753529,1.846881,0.0,0.0,0.0,1.846881,0.0,0.0,0.0,4.264225,2
1729403445.7024295,334,1729403445,699366912,base_link,0,1,33.6978149,73.0165241,513.2796365479741,1.846881,0.0,0.0,0.0,1.846881,0.0,0.0,0.0,4.264225,2
1729403445.8026655,335,1729403445,799365376,base_link,0,1,33.6978149,73.016524,513.2796361205952,1.846881,0.0,0.0,0.0,1.846881,0.0,0.0,0.0,4.264225,2
1729403445.9026055,336,1729403445,899363840,base_link,0,1,33.6978149,73.0165239,513.2896356932165,1.846881,0.0,0.0,0.0,1.846881,0.0,0.0,0.0,4.264225,2
1729403446.0026262,337,1729403445,999363840,base_link,0,1,33.6978149,73.0165239,513.2996356932165,1.846881,0.0,0.0,0.0,1.846881,0.0,0.0,0.0,4.264225,2
1729403446.103383,338,1729403446,99363840,base_link,0,1,33.6978149,73.0165238,513.2996352658378,1.846881,0.0,0.0,0.0,1.846881,0.0,0.0,0.0,4.264225,2
1729403446.203049,339,1729403446,199362304,base_link,0,1,33.6978149,73.0165237,513.309634838459,1.846881,0.0,0.0,0.0,1.846881,0.0,0.0,0.0,4.264225,2
1729403446.3032043,340,1729403446,299362304,base_link,0,1,33.6978148,73.0165237,513.3096341720807,1.846881,0.0,0.0,0.0,1.846881,0.0,0.0,0.0,4.264225,2
1729403446.4037807,341,1729403446,399361024,base_link,0,1,33.6978148,73.0165236,513.3096337447021,1.846881,0.0,0.0,0.0,1.846881,0.0,0.0,0.0,4.264225,2
1729403446.5032246,342,1729403446,499359744,base_link,0,1,33.6978148,73.0165235,513.3196333173235,1.846881,0.0,0.0,0.0,1.846881,0.0,0.0,0.0,4.264225,2
1729403446.6026003,343,1729403446,599360000,base_link,0,1,33.6978147,73.0165235,513.3196326509452,1.846881,0.0,0.0,0.0,1.846881,0.0,0.0,0.0,4.264225,2
1729403446.7026632,344,1729403446,699359232,base_link,0,1,33.6978147,73.0165234,513.3096322235666,1.8441640000000004,0.0,0.0,0.0,1.8441640000000004,0.0,0.0,0.0,4.264225,2
1729403446.8021328,345,1729403446,799357952,base_link,0,1,33.6978147,73.0165234,513.3096322235666,1.8441640000000004,0.0,0.0,0.0,1.8441640000000004,0.0,0.0,0.0,4.264225,2
1729403446.903083,346,1729403446,899356928,base_link,0,1,33.6978147,73.0165233,513.2996317961881,1.8441640000000004,0.0,0.0,0.0,1.8441640000000004,0.0,0.0,0.0,4.264225,2
1729403447.003184,347,1729403446,999355648,base_link,0,1,33.6978147,73.0165233,513.2996317961881,1.8441640000000004,0.0,0.0,0.0,1.8441640000000004,0.0,0.0,0.0,4.264225,2
1729403447.1031563,348,1729403447,99356416,base_link,0,1,33.6978147,73.0165232,513.2996313688096,1.8441640000000004,0.0,0.0,0.0,1.8441640000000004,0.0,0.0,0.0,4.264225,2
1729403447.2037773,349,1729403447,199356928,base_link,0,1,33.6978146,73.0165232,513.2996307024315,1.8441640000000004,0.0,0.0,0.0,1.8441640000000004,0.0,0.0,0.0,4.264225,2
1729403447.3033879,350,1729403447,299356160,base_link,0,1,33.6978146,73.0165232,513.2996307024315,1.8441640000000004,0.0,0.0,0.0,1.8441640000000004,0.0,0.0,0.0,4.260096,2
1729403447.4026322,351,1729403447,399355136,base_link,0,1,33.6978146,73.0165231,513.3096302750531,1.8441640000000004,0.0,0.0,0.0,1.8441640000000004,0.0,0.0,0.0,4.260096,2
1729403447.5030808,352,1729403447,499354368,base_link,0,1,33.6978146,73.0165231,513.3196302750531,1.841449,0.0,0.0,0.0,1.841449,0.0,0.0,0.0,4.260096,2
1729403447.601823,353,1729403447,599353856,base_link,0,1,33.6978146,73.016523,513.3096298476747,1.841449,0.0,0.0,0.0,1.841449,0.0,0.0,0.0,4.260096,2
1729403447.702399,354,1729403447,699352832,base_link,0,1,33.6978145,73.016523,513.3096291812968,1.841449,0.0,0.0,0.0,1.841449,0.0,0.0,0.0,4.260096,2
1729403447.8021958,355,1729403447,799352064,base_link,0,1,33.6978145,73.0165229,513.3096287539184,1.841449,0.0,0.0,0.0,1.841449,0.0,0.0,0.0,4.260096,2
1729403447.901797,356,1729403447,899351040,base_link,0,1,33.6978145,73.0165229,513.3096287539184,1.841449,0.0,0.0,0.0,1.841449,0.0,0.0,0.0,4.260096,2
1729403448.003185,357,1729403447,999350272,base_link,0,1,33.6978145,73.0165229,513.3096287539184,1.841449,0.0,0.0,0.0,1.841449,0.0,0.0,0.0,4.260096,2
1729403448.102063,358,1729403448,99351040,base_link,0,1,33.6978145,73.0165229,513.2996287539185,1.841449,0.0,0.0,0.0,1.841449,0.0,0.0,0.0,4.264225,2
1729403448.204188,359,1729403448,199350272,base_link,0,1,33.6978144,73.0165228,513.2996276601623,1.841449,0.0,0.0,0.0,1.841449,0.0,0.0,0.0,4.264225,2
1729403448.3032174,360,1729403448,299349504,base_link,0,1,33.6978144,73.0165228,513.2996276601623,1.841449,0.0,0.0,0.0,1.841449,0.0,0.0,0.0,4.264225,2
