Time,header.seq,header.stamp.secs,header.stamp.nsecs,header.frame_id,status.status,status.service,latitude,longitude,altitude,position_covariance_0,position_covariance_1,position_covariance_2,position_covariance_3,position_covariance_4,position_covariance_5,position_covariance_6,position_covariance_7,position_covariance_8,position_covariance_type
1729403414.5599957,2277,1729403412,129799040,base_link,0,1,33.6978122,73.0165257,509.26962539381947,1.623076,0.0,0.0,0.0,1.623076,0.0,0.0,0.0,3.629025,2
1729403414.5600803,2278,1729403412,329795968,base_link,0,1,33.6978122,73.0165257,509.2596253938195,1.640961,0.0,0.0,0.0,1.640961,0.0,0.0,0.0,3.6633959999999997,2
1729403414.5601218,2279,1729403412,329792896,base_link,0,1,33.6978122,73.0165257,509.2596253938195,1.640961,0.0,0.0,0.0,1.640961,0.0,0.0,0.0,3.6633959999999997,2
1729403414.560182,2280,1729403412,529789824,base_link,0,1,33.6978121,73.0165258,509.2596251548198,1.6563689999999998,0.0,0.0,0.0,1.6563689999999998,0.0,0.0,0.0,3.6940839999999997,2
1729403414.5603178,2281,1729403412,529787264,base_link,0,1,33.6978121,73.0165258,509.2596251548198,1.6563689999999998,0.0,0.0,0.0,1.6563689999999998,0.0,0.0,0.0,3.6940839999999997,2
1729403414.5605438,2282,1729403412,729784192,base_link,0,1,33.6978121,73.0165257,509.2496247274417,1.671849,0.0,0.0,0.0,1.671849,0.0,0.0,0.0,3.728761,2
1729403414.561261,2283,1729403412,729781632,base_link,0,1,33.6978121,73.0165257,509.2496247274417,1.671849,0.0,0.0,0.0,1.671849,0.0,0.0,0.0,3.728761,2
1729403414.5614185,2284,1729403412,929779072,base_link,0,1,33.6978119,73.0165256,509.2596229673082,1.6822089999999998,0.0,0.0,0.0,1.6822089999999998,0.0,0.0,0.0,3.7519690000000003,2
1729403414.5615642,2285,1729403412,929776768,base_link,0,1,33.6978119,73.0165256,509.2596229673082,1.6822089999999998,0.0,0.0,0.0,1.6822089999999998,0.0,0.0,0.0,3.7519690000000003,2
1729403414.5616567,2286,1729403413,129774464,base_link,0,1,33.6978119,73.0165256,509.28962296730816,1.6926009999999998,0.0,0.0,0.0,1.6926009999999998,0.0,0.0,0.0,3.7713639999999997,2
1729403414.5617807,2287,1729403413,129772416,base_link,0,1,33.6978119,73.0165256,509.28962296730816,1.6926009999999998,0.0,0.0,0.0,1.6926009999999998,0.0,0.0,0.0,3.7713639999999997,2
1729403414.5620515,2288,1729403413,329770880,base_link,0,1,33.6978117,73.0165256,509.3196216345531,1.7030249999999998,0.0,0.0,0.0,1.7030249999999998,0.0,0.0,0.0,3.794704,2
1729403414.562286,2289,1729403413,329768320,base_link,0,1,33.6978117,73.0165256,509.3196216345531,1.7030249999999998,0.0,0.0,0.0,1.7030249999999998,0.0,0.0,0.0,3.794704,2
1729403414.5627983,2290,1729403413,529766016,base_link,0,1,33.6978117,73.0165256,509.32962163455306,1.7108640000000002,0.0,0.0,0.0,1.7108640000000002,0.0,0.0,0.0,3.8142090000000004,2
1729403414.5630283,2291,1729403413,529763456,base_link,0,1,33.6978117,73.0165256,509.32962163455306,1.7108640000000002,0.0,0.0,0.0,1.7108640000000002,0.0,0.0,0.0,3.8142090000000004,2
1729403414.5631886,2292,1729403413,729761152,base_link,0,1,33.6978119,73.0165257,509.3496233946863,1.718721,0.0,0.0,0.0,1.718721,0.0,0.0,0.0,3.825936,2
1729403414.5634441,2293,1729403413,729758848,base_link,0,1,33.6978119,73.0165257,509.3496233946863,1.718721,0.0,0.0,0.0,1.718721,0.0,0.0,0.0,3.825936,2
1729403414.563603,2294,1729403413,929756288,base_link,0,1,33.6978119,73.0165258,509.38962382206427,1.7265960000000002,0.0,0.0,0.0,1.7265960000000002,0.0,0.0,0.0,3.845521,2
1729403414.563793,2295,1729403413,929753728,base_link,0,1,33.6978119,73.0165258,509.38962382206427,1.7265960000000002,0.0,0.0,0.0,1.7265960000000002,0.0,0.0,0.0,3.845521,2
1729403414.5640762,2296,1729403414,129751424,base_link,0,1,33.697812,73.0165258,509.409624488442,1.739761,0.0,0.0,0.0,1.739761,0.0,0.0,0.0,3.8809,2
1729403414.564298,2297,1729403414,129749120,base_link,0,1,33.697812,73.0165258,509.409624488442,1.739761,0.0,0.0,0.0,1.739761,0.0,0.0,0.0,3.8809,2
1729403414.5647252,2298,1729403414,329746048,base_link,0,1,33.697812,73.0165259,509.3996249158202,1.7582760000000002,0.0,0.0,0.0,1.7582760000000002,0.0,0.0,0.0,3.9204,2
1729403414.5647817,2299,1729403414,329743744,base_link,0,1,33.697812,73.0165259,509.3996249158202,1.7582760000000002,0.0,0.0,0.0,1.7582760000000002,0.0,0.0,0.0,3.9204,2
1729403414.6094322,2300,1729403414,529741440,base_link,0,1,33.6978121,73.0165261,509.3996264369544,1.7689000000000001,0.0,0.0,0.0,1.7689000000000001,0.0,0.0,0.0,3.9402250000000003,2
1729403414.71076,2301,1729403414,529739392,base_link,0,1,33.6978121,73.0165261,509.3996264369544,1.7689000000000001,0.0,0.0,0.0,1.7689000000000001,0.0,0.0,0.0,3.9402250000000003,2
1729403414.8096404,2302,1729403414,729737088,base_link,0,1,33.6978121,73.016526,509.34962600957624,1.776889,0.0,0.0,0.0,1.776889,0.0,0.0,0.0,3.9601,2
1729403414.9096293,2303,1729403414,729734528,base_link,0,1,33.6978121,73.016526,509.34962600957624,1.776889,0.0,0.0,0.0,1.776889,0.0,0.0,0.0,3.9601,2
1729403415.0094144,2304,1729403414,929732224,base_link,0,1,33.6978121,73.016526,509.30962600957616,1.7848960000000003,0.0,0.0,0.0,1.7848960000000003,0.0,0.0,0.0,3.976036,2
1729403415.1080992,2305,1729403414,929729920,base_link,0,1,33.6978121,73.016526,509.30962600957616,1.7848960000000003,0.0,0.0,0.0,1.7848960000000003,0.0,0.0,0.0,3.976036,2
1729403415.209359,2306,1729403415,129727616,base_link,0,1,33.6978121,73.016526,509.2496260095762,1.792921,0.0,0.0,0.0,1.792921,0.0,0.0,0.0,3.992004,2
1729403415.3079746,2307,1729403415,129725568,base_link,0,1,33.6978121,73.016526,509.2496260095762,1.792921,0.0,0.0,0.0,1.792921,0.0,0.0,0.0,3.992004,2
1729403415.4098513,2308,1729403415,329723776,base_link,0,1,33.6978121,73.0165261,509.22962643695445,1.8009640000000002,0.0,0.0,0.0,1.8009640000000002,0.0,0.0,0.0,4.012009000000001,2
1729403415.5112052,2309,1729403415,329721216,base_link,0,1,33.6978121,73.0165261,509.22962643695445,1.8009640000000002,0.0,0.0,0.0,1.8009640000000002,0.0,0.0,0.0,4.012009000000001,2
1729403415.6075094,2310,1729403415,529719168,base_link,0,1,33.697812,73.0165261,509.20962577057657,1.8090249999999999,0.0,0.0,0.0,1.8090249999999999,0.0,0.0,0.0,4.028049,2
1729403415.7105894,2311,1729403415,529717376,base_link,0,1,33.697812,73.0165261,509.20962577057657,1.8090249999999999,0.0,0.0,0.0,1.8090249999999999,0.0,0.0,0.0,4.028049,2
1729403415.8105679,2312,1729403415,729715584,base_link,0,1,33.6978121,73.0165261,509.20962643695447,1.814409,0.0,0.0,0.0,1.814409,0.0,0.0,0.0,4.0441210000000005,2
1729403415.9098682,2313,1729403415,729713792,base_link,0,1,33.6978121,73.0165261,509.20962643695447,1.814409,0.0,0.0,0.0,1.814409,0.0,0.0,0.0,4.0441210000000005,2
1729403416.0098634,2314,1729403415,929712000,base_link,0,1,33.6978122,73.0165262,509.2196275307107,1.8225000000000002,0.0,0.0,0.0,1.8225000000000002,0.0,0.0,0.0,4.060225000000001,2
1729403416.1108146,2315,1729403415,929710208,base_link,0,1,33.6978122,73.0165262,509.2196275307107,1.8225000000000002,0.0,0.0,0.0,1.8225000000000002,0.0,0.0,0.0,4.060225000000001,2
1729403416.210572,2316,1729403416,129708160,base_link,0,1,33.6978122,73.0165263,509.23962795808893,1.8279040000000002,0.0,0.0,0.0,1.8279040000000002,0.0,0.0,0.0,4.076361,2
1729403416.313183,2317,1729403416,129706368,base_link,0,1,33.6978122,73.0165263,509.23962795808893,1.8279040000000002,0.0,0.0,0.0,1.8279040000000002,0.0,0.0,0.0,4.076361,2
1729403416.4099543,2318,1729403416,329704576,base_link,0,1,33.6978122,73.0165263,509.22962795808894,1.836025,0.0,0.0,0.0,1.836025,0.0,0.0,0.0,4.088483999999999,2
1729403416.5100877,2319,1729403416,329703040,base_link,0,1,33.6978122,73.0165263,509.22962795808894,1.836025,0.0,0.0,0.0,1.836025,0.0,0.0,0.0,4.088483999999999,2
1729403416.6111267,2320,1729403416,529701248,base_link,0,1,33.6978122,73.0165263,509.20962795808896,1.841449,0.0,0.0,0.0,1.841449,0.0,0.0,0.0,4.1046759999999995,2
1729403416.7105947,2321,1729403416,529698176,base_link,0,1,33.6978122,73.0165263,509.20962795808896,1.841449,0.0,0.0,0.0,1.841449,0.0,0.0,0.0,4.1046759999999995,2
1729403416.810816,2322,1729403416,729695360,base_link,0,1,33.6978122,73.0165264,509.20962838546734,1.846881,0.0,0.0,0.0,1.846881,0.0,0.0,0.0,4.116841,2
1729403416.9120162,2323,1729403416,729692544,base_link,0,1,33.6978122,73.0165264,509.20962838546734,1.846881,0.0,0.0,0.0,1.846881,0.0,0.0,0.0,4.116841,2
1729403417.0128963,2324,1729403416,929689472,base_link,0,1,33.6978122,73.0165265,509.2396288128457,1.8523209999999999,0.0,0.0,0.0,1.8523209999999999,0.0,0.0,0.0,4.124961000000001,2
1729403417.1090376,2325,1729403416,929688448,base_link,0,1,33.6978122,73.0165265,509.2396288128457,1.8523209999999999,0.0,0.0,0.0,1.8523209999999999,0.0,0.0,0.0,4.124961000000001,2
1729403417.2075732,2326,1729403417,129687168,base_link,0,1,33.6978122,73.0165265,509.2496288128457,1.857769,0.0,0.0,0.0,1.857769,0.0,0.0,0.0,4.141225,2
1729403417.3098626,2327,1729403417,129684096,base_link,0,1,33.6978122,73.0165265,509.2496288128457,1.857769,0.0,0.0,0.0,1.857769,0.0,0.0,0.0,4.141225,2
1729403417.4077845,2328,1729403417,329682816,base_link,0,1,33.6978123,73.0165265,509.25962947922375,1.8659560000000004,0.0,0.0,0.0,1.8659560000000004,0.0,0.0,0.0,4.1616,2
1729403417.5107455,2329,1729403417,329681536,base_link,0,1,33.6978123,73.0165265,509.25962947922375,1.8659560000000004,0.0,0.0,0.0,1.8659560000000004,0.0,0.0,0.0,4.1616,2
1729403417.6128626,2330,1729403417,529678464,base_link,0,1,33.6978124,73.0165266,509.25963057298037,1.8769000000000002,0.0,0.0,0.0,1.8769000000000002,0.0,0.0,0.0,4.190209,2
1729403417.7128057,2331,1729403417,529675392,base_link,0,1,33.6978124,73.0165266,509.25963057298037,1.8769000000000002,0.0,0.0,0.0,1.8769000000000002,0.0,0.0,0.0,4.190209,2
1729403417.807168,2332,1729403417,729672576,base_link,0,1,33.6978125,73.0165266,509.2496312393587,1.885129,0.0,0.0,0.0,1.885129,0.0,0.0,0.0,4.2025,2
1729403417.9107513,2333,1729403417,729669760,base_link,0,1,33.6978125,73.0165266,509.2496312393587,1.885129,0.0,0.0,0.0,1.885129,0.0,0.0,0.0,4.2025,2
1729403418.010274,2334,1729403417,929666944,base_link,0,1,33.6978125,73.0165266,509.2196312393587,1.8933759999999997,0.0,0.0,0.0,1.8933759999999997,0.0,0.0,0.0,4.218915999999999,2
1729403418.1081645,2335,1729403417,929665920,base_link,0,1,33.6978125,73.0165266,509.2196312393587,1.8933759999999997,0.0,0.0,0.0,1.8933759999999997,0.0,0.0,0.0,4.218915999999999,2
1729403418.2101073,2336,1729403418,129663104,base_link,0,1,33.6978125,73.0165265,509.18963081198007,1.8988839999999998,0.0,0.0,0.0,1.8988839999999998,0.0,0.0,0.0,4.231249,2
1729403418.3078566,2337,1729403418,129660544,base_link,0,1,33.6978125,73.0165265,509.18963081198007,1.8988839999999998,0.0,0.0,0.0,1.8988839999999998,0.0,0.0,0.0,4.231249,2
1729403418.4142847,2338,1729403418,329657984,base_link,0,1,33.6978126,73.0165266,509.1896319057369,1.901641,0.0,0.0,0.0,1.901641,0.0,0.0,0.0,4.2394810000000005,2
1729403418.5085566,2339,1729403418,329655424,base_link,0,1,33.6978126,73.0165266,509.1896319057369,1.901641,0.0,0.0,0.0,1.901641,0.0,0.0,0.0,4.2394810000000005,2
1729403418.6111126,2340,1729403418,529652864,base_link,0,1,33.6978129,73.0165267,509.21963433225096,1.907161,0.0,0.0,0.0,1.907161,0.0,0.0,0.0,4.247720999999999,2
1729403418.7102628,2341,1729403418,529650304,base_link,0,1,33.6978129,73.0165267,509.21963433225096,1.907161,0.0,0.0,0.0,1.907161,0.0,0.0,0.0,4.247720999999999,2
1729403418.8104186,2342,1729403418,729647744,base_link,0,1,33.6978129,73.0165267,509.20963433225097,1.9099239999999997,0.0,0.0,0.0,1.9099239999999997,0.0,0.0,0.0,4.255969,2
1729403418.9101255,2343,1729403418,729645696,base_link,0,1,33.6978129,73.0165267,509.20963433225097,1.9099239999999997,0.0,0.0,0.0,1.9099239999999997,0.0,0.0,0.0,4.255969,2
1729403419.010752,2344,1729403418,929643136,base_link,0,1,33.6978131,73.0165268,509.24963609238677,1.9154559999999998,0.0,0.0,0.0,1.9154559999999998,0.0,0.0,0.0,4.264225,2
1729403419.112314,2345,1729403418,929642112,base_link,0,1,33.6978131,73.0165268,509.24963609238677,1.9154559999999998,0.0,0.0,0.0,1.9154559999999998,0.0,0.0,0.0,4.264225,2
1729403419.2080173,2346,1729403419,129639808,base_link,0,1,33.6978133,73.0165268,509.2596374251441,1.918225,0.0,0.0,0.0,1.918225,0.0,0.0,0.0,4.272489000000001,2
1729403419.311207,2347,1729403419,129637504,base_link,0,1,33.6978133,73.0165268,509.2596374251441,1.918225,0.0,0.0,0.0,1.918225,0.0,0.0,0.0,4.272489000000001,2
1729403419.410539,2348,1729403419,329635200,base_link,0,1,33.6978133,73.0165267,509.2496369977653,1.9209959999999997,0.0,0.0,0.0,1.9209959999999997,0.0,0.0,0.0,4.280761,2
1729403419.5087478,2349,1729403419,329632896,base_link,0,1,33.6978133,73.0165267,509.2496369977653,1.9209959999999997,0.0,0.0,0.0,1.9209959999999997,0.0,0.0,0.0,4.280761,2
1729403419.6081965,2350,1729403419,529630592,base_link,0,1,33.6978134,73.0165268,509.2696380915229,1.9265439999999998,0.0,0.0,0.0,1.9265439999999998,0.0,0.0,0.0,4.289041000000001,2
1729403419.7111282,2351,1729403419,529628288,base_link,0,1,33.6978134,73.0165268,509.2696380915229,1.9265439999999998,0.0,0.0,0.0,1.9265439999999998,0.0,0.0,0.0,4.289041000000001,2
1729403419.8122876,2352,1729403419,729625984,base_link,0,1,33.6978135,73.0165268,509.25963875790177,1.929321,0.0,0.0,0.0,1.929321,0.0,0.0,0.0,4.293184,2
1729403419.9102302,2353,1729403419,729623936,base_link,0,1,33.6978135,73.0165268,509.25963875790177,1.929321,0.0,0.0,0.0,1.929321,0.0,0.0,0.0,4.293184,2
1729403420.0103157,2354,1729403419,929621632,base_link,0,1,33.6978135,73.0165267,509.2696383305229,1.9320999999999997,0.0,0.0,0.0,1.9320999999999997,0.0,0.0,0.0,4.301475999999999,2
1729403420.1092968,2355,1729403419,929619328,base_link,0,1,33.6978135,73.0165267,509.2696383305229,1.9320999999999997,0.0,0.0,0.0,1.9320999999999997,0.0,0.0,0.0,4.301475999999999,2
1729403420.214193,2356,1729403420,129617280,base_link,0,1,33.6978136,73.0165266,509.2496385695228,1.940449,0.0,0.0,0.0,1.940449,0.0,0.0,0.0,4.322241000000001,2
1729403420.308135,2357,1729403420,129615232,base_link,0,1,33.6978136,73.0165266,509.2496385695228,1.940449,0.0,0.0,0.0,1.940449,0.0,0.0,0.0,4.322241000000001,2
1729403420.409262,2358,1729403420,329613184,base_link,0,1,33.6978136,73.0165265,509.23963814214386,1.9488159999999997,0.0,0.0,0.0,1.9488159999999997,0.0,0.0,0.0,4.343056000000001,2
1729403420.507576,2359,1729403420,329611136,base_link,0,1,33.6978136,73.0165265,509.23963814214386,1.9488159999999997,0.0,0.0,0.0,1.9488159999999997,0.0,0.0,0.0,4.343056000000001,2
1729403420.6098323,2360,1729403420,529609344,base_link,0,1,33.6978136,73.0165265,509.2096381421439,1.957201,0.0,0.0,0.0,1.957201,0.0,0.0,0.0,4.3639209999999995,2
1729403420.709498,2361,1729403420,529607296,base_link,0,1,33.6978136,73.0165265,509.2096381421439,1.957201,0.0,0.0,0.0,1.957201,0.0,0.0,0.0,4.3639209999999995,2
1729403420.8104713,2362,1729403420,729605504,base_link,0,1,33.6978135,73.0165265,509.2196374757651,1.9656039999999997,0.0,0.0,0.0,1.9656039999999997,0.0,0.0,0.0,4.376464,2
1729403420.91197,2363,1729403420,729603456,base_link,0,1,33.6978135,73.0165265,509.2196374757651,1.9656039999999997,0.0,0.0,0.0,1.9656039999999997,0.0,0.0,0.0,4.376464,2
1729403421.0096154,2364,1729403420,929601408,base_link,0,1,33.6978135,73.0165264,509.2096370483863,1.9712159999999999,0.0,0.0,0.0,1.9712159999999999,0.0,0.0,0.0,4.389025000000001,2
1729403421.109566,2365,1729403420,929599616,base_link,0,1,33.6978135,73.0165264,509.2096370483863,1.9712159999999999,0.0,0.0,0.0,1.9712159999999999,0.0,0.0,0.0,4.389025000000001,2
1729403421.2111104,2366,1729403421,129597568,base_link,0,1,33.6978137,73.0165264,509.20963838114375,1.9740250000000001,0.0,0.0,0.0,1.9740250000000001,0.0,0.0,0.0,4.397409,2
1729403421.3114586,2367,1729403421,129596032,base_link,0,1,33.6978137,73.0165264,509.20963838114375,1.9740250000000001,0.0,0.0,0.0,1.9740250000000001,0.0,0.0,0.0,4.397409,2
1729403421.4099743,2368,1729403421,329594240,base_link,0,1,33.6978138,73.0165264,509.1796390475225,1.979649,0.0,0.0,0.0,1.979649,0.0,0.0,0.0,4.405801000000001,2
1729403421.5102694,2369,1729403421,329592448,base_link,0,1,33.6978138,73.0165264,509.1796390475225,1.979649,0.0,0.0,0.0,1.979649,0.0,0.0,0.0,4.405801000000001,2
1729403421.6088152,2370,1729403421,529590656,base_link,0,1,33.6978138,73.0165265,509.1796394749015,1.9824639999999998,0.0,0.0,0.0,1.9824639999999998,0.0,0.0,0.0,4.414201,2
1729403421.7086895,2371,1729403421,529589120,base_link,0,1,33.6978138,73.0165265,509.1796394749015,1.9824639999999998,0.0,0.0,0.0,1.9824639999999998,0.0,0.0,0.0,4.414201,2
1729403421.8104916,2372,1729403421,729587328,base_link,0,1,33.6978138,73.0165265,509.1796394749015,1.985281,0.0,0.0,0.0,1.985281,0.0,0.0,0.0,4.4226090000000005,2
1729403421.9105031,2373,1729403421,729585792,base_link,0,1,33.6978138,73.0165265,509.1796394749015,1.985281,0.0,0.0,0.0,1.985281,0.0,0.0,0.0,4.4226090000000005,2
1729403422.0103326,2374,1729403421,929584256,base_link,0,1,33.6978139,73.0165265,509.1696401412804,1.9880999999999998,0.0,0.0,0.0,1.9880999999999998,0.0,0.0,0.0,4.4226090000000005,2
1729403422.1098452,2375,1729403421,929582464,base_link,0,1,33.6978139,73.0165265,509.1696401412804,1.9880999999999998,0.0,0.0,0.0,1.9880999999999998,0.0,0.0,0.0,4.4226090000000005,2
1729403422.2097356,2376,1729403422,129580928,base_link,0,1,33.697814,73.0165264,509.1496403802804,1.9880999999999998,0.0,0.0,0.0,1.9880999999999998,0.0,0.0,0.0,4.431025,2
1729403422.309918,2377,1729403422,129579392,base_link,0,1,33.697814,73.0165264,509.1496403802804,1.9880999999999998,0.0,0.0,0.0,1.9880999999999998,0.0,0.0,0.0,4.431025,2
1729403422.4106522,2378,1729403422,329577600,base_link,0,1,33.6978141,73.0165263,509.13964061928027,1.9824639999999998,0.0,0.0,0.0,1.9824639999999998,0.0,0.0,0.0,4.41,2
1729403422.5077329,2379,1729403422,329576064,base_link,0,1,33.6978141,73.0165263,509.13964061928027,1.9824639999999998,0.0,0.0,0.0,1.9824639999999998,0.0,0.0,0.0,4.41,2
1729403422.607707,2380,1729403422,529574528,base_link,0,1,33.6978141,73.0165262,509.12964019190133,1.9712159999999999,0.0,0.0,0.0,1.9712159999999999,0.0,0.0,0.0,4.389025000000001,2
1729403422.7098017,2381,1729403422,529573248,base_link,0,1,33.6978141,73.0165262,509.12964019190133,1.9712159999999999,0.0,0.0,0.0,1.9712159999999999,0.0,0.0,0.0,4.389025000000001,2
1729403422.8103342,2382,1729403422,729571968,base_link,0,1,33.697814,73.0165261,509.12963909814334,1.9712159999999999,0.0,0.0,0.0,1.9712159999999999,0.0,0.0,0.0,4.393216000000001,2
1729403422.910417,2383,1729403422,729570688,base_link,0,1,33.697814,73.0165261,509.12963909814334,1.9712159999999999,0.0,0.0,0.0,1.9712159999999999,0.0,0.0,0.0,4.393216000000001,2
1729403423.0098422,2384,1729403422,929569408,base_link,0,1,33.6978139,73.0165262,509.11963885914355,1.9740250000000001,0.0,0.0,0.0,1.9740250000000001,0.0,0.0,0.0,4.401604,2
1729403423.1100483,2385,1729403422,929568128,base_link,0,1,33.6978139,73.0165262,509.11963885914355,1.9740250000000001,0.0,0.0,0.0,1.9740250000000001,0.0,0.0,0.0,4.401604,2
1729403423.2074358,2386,1729403423,129566592,base_link,0,1,33.697814,73.0165262,509.1196395255224,1.9768359999999998,0.0,0.0,0.0,1.9768359999999998,0.0,0.0,0.0,4.41,2
1729403423.3082967,2387,1729403423,129563776,base_link,0,1,33.697814,73.0165262,509.1196395255224,1.9768359999999998,0.0,0.0,0.0,1.9768359999999998,0.0,0.0,0.0,4.41,2
1729403423.408467,2388,1729403423,329560960,base_link,0,1,33.6978141,73.0165262,509.12964019190133,1.9768359999999998,0.0,0.0,0.0,1.9768359999999998,0.0,0.0,0.0,4.414201,2
1729403423.511489,2389,1729403423,329559680,base_link,0,1,33.6978141,73.0165262,509.12964019190133,1.9768359999999998,0.0,0.0,0.0,1.9768359999999998,0.0,0.0,0.0,4.414201,2
1729403423.6100845,2390,1729403423,529556864,base_link,0,1,33.6978141,73.0165262,509.1396401919013,1.9768359999999998,0.0,0.0,0.0,1.9768359999999998,0.0,0.0,0.0,4.414201,2
1729403423.7086337,2391,1729403423,529554048,base_link,0,1,33.6978141,73.0165262,509.1396401919013,1.9768359999999998,0.0,0.0,0.0,1.9768359999999998,0.0,0.0,0.0,4.414201,2
1729403423.8106434,2392,1729403423,729552768,base_link,0,1,33.6978143,73.0165262,509.1396415246592,1.979649,0.0,0.0,0.0,1.979649,0.0,0.0,0.0,4.414201,2
1729403423.910874,2393,1729403423,729550208,base_link,0,1,33.6978143,73.0165262,509.1396415246592,1.979649,0.0,0.0,0.0,1.979649,0.0,0.0,0.0,4.414201,2
1729403424.010726,2394,1729403423,929549184,base_link,0,1,33.6978143,73.0165263,509.13964195203823,1.9768359999999998,0.0,0.0,0.0,1.9768359999999998,0.0,0.0,0.0,4.414201,2
1729403424.1078935,2395,1729403423,929548416,base_link,0,1,33.6978143,73.0165263,509.13964195203823,1.9768359999999998,0.0,0.0,0.0,1.9768359999999998,0.0,0.0,0.0,4.414201,2
1729403424.210929,2396,1729403424,129545856,base_link,0,1,33.6978144,73.0165263,509.1296426184174,1.9740250000000001,0.0,0.0,0.0,1.9740250000000001,0.0,0.0,0.0,4.418404,2
1729403424.3103228,2397,1729403424,129543040,base_link,0,1,33.6978144,73.0165263,509.1296426184174,1.9740250000000001,0.0,0.0,0.0,1.9740250000000001,0.0,0.0,0.0,4.418404,2
1729403424.4084866,2398,1729403424,329542016,base_link,0,1,33.6978146,73.0165263,509.11964395117576,1.9768359999999998,0.0,0.0,0.0,1.9768359999999998,0.0,0.0,0.0,4.418404,2
1729403424.511085,2399,1729403424,329539200,base_link,0,1,33.6978146,73.0165263,509.11964395117576,1.9768359999999998,0.0,0.0,0.0,1.9768359999999998,0.0,0.0,0.0,4.418404,2
1729403424.6103387,2400,1729403424,529536896,base_link,0,1,33.6978148,73.0165262,509.0896448565551,1.9768359999999998,0.0,0.0,0.0,1.9768359999999998,0.0,0.0,0.0,4.418404,2
1729403424.7105587,2401,1729403424,529534592,base_link,0,1,33.6978148,73.0165262,509.0896448565551,1.9768359999999998,0.0,0.0,0.0,1.9768359999999998,0.0,0.0,0.0,4.418404,2
1729403424.810054,2402,1729403424,729532288,base_link,0,1,33.6978148,73.0165261,509.0796444291757,1.9768359999999998,0.0,0.0,0.0,1.9768359999999998,0.0,0.0,0.0,4.4226090000000005,2
1729403424.9106379,2403,1729403424,729529984,base_link,0,1,33.6978148,73.0165261,509.0796444291757,1.9768359999999998,0.0,0.0,0.0,1.9768359999999998,0.0,0.0,0.0,4.4226090000000005,2
1729403425.007971,2404,1729403424,929527680,base_link,0,1,33.6978148,73.016526,509.05964400179647,1.9824639999999998,0.0,0.0,0.0,1.9824639999999998,0.0,0.0,0.0,4.431025,2
1729403425.1121514,2405,1729403424,929527168,base_link,0,1,33.6978148,73.016526,509.05964400179647,1.9824639999999998,0.0,0.0,0.0,1.9824639999999998,0.0,0.0,0.0,4.431025,2
1729403425.2103875,2406,1729403425,129524864,base_link,0,1,33.6978148,73.016526,509.05964400179647,1.985281,0.0,0.0,0.0,1.985281,0.0,0.0,0.0,4.435236,2
1729403425.3107598,2407,1729403425,129522816,base_link,0,1,33.6978148,73.016526,509.05964400179647,1.985281,0.0,0.0,0.0,1.985281,0.0,0.0,0.0,4.435236,2
1729403425.413106,2408,1729403425,329519744,base_link,0,1,33.6978149,73.016526,509.0596446681757,1.985281,0.0,0.0,0.0,1.985281,0.0,0.0,0.0,4.435236,2
1729403425.5081255,2409,1729403425,329517952,base_link,0,1,33.6978149,73.016526,509.0596446681757,1.985281,0.0,0.0,0.0,1.985281,0.0,0.0,0.0,4.435236,2
1729403425.6112375,2410,1729403425,529515904,base_link,0,1,33.6978149,73.0165259,509.0596442407964,1.985281,0.0,0.0,0.0,1.985281,0.0,0.0,0.0,4.435236,2
1729403425.7084494,2411,1729403425,529513856,base_link,0,1,33.6978149,73.0165259,509.0596442407964,1.985281,0.0,0.0,0.0,1.985281,0.0,0.0,0.0,4.435236,2
1729403425.8102736,2412,1729403425,729513344,base_link,0,1,33.6978148,73.0165258,509.039643147038,1.9824639999999998,0.0,0.0,0.0,1.9824639999999998,0.0,0.0,0.0,4.435236,2
1729403425.9097123,2413,1729403425,729510528,base_link,0,1,33.6978148,73.0165258,509.039643147038,1.9824639999999998,0.0,0.0,0.0,1.9824639999999998,0.0,0.0,0.0,4.435236,2
1729403426.0094774,2414,1729403425,929507456,base_link,0,1,33.6978149,73.0165258,509.0296438134171,1.979649,0.0,0.0,0.0,1.979649,0.0,0.0,0.0,4.435236,2
1729403426.1105006,2415,1729403425,929508736,base_link,0,1,33.6978149,73.0165258,509.0296438134171,1.979649,0.0,0.0,0.0,1.979649,0.0,0.0,0.0,4.435236,2
1729403426.2115667,2416,1729403426,129507456,base_link,0,1,33.697815,73.0165256,509.01964362503793,1.979649,0.0,0.0,0.0,1.979649,0.0,0.0,0.0,4.435236,2
1729403426.3106737,2417,1729403426,129507456,base_link,0,1,33.697815,73.0165256,509.01964362503793,1.979649,0.0,0.0,0.0,1.979649,0.0,0.0,0.0,4.435236,2
1729403426.4101129,2418,1729403426,329507456,base_link,0,1,33.6978151,73.0165255,509.0196438640379,1.985281,0.0,0.0,0.0,1.985281,0.0,0.0,0.0,4.443664,2
1729403426.5099804,2419,1729403426,329508992,base_link,0,1,33.6978151,73.0165255,509.0196438640379,1.985281,0.0,0.0,0.0,1.985281,0.0,0.0,0.0,4.443664,2
1729403426.6086397,2420,1729403426,529508736,base_link,0,1,33.6978152,73.0165256,509.02964495779634,1.9824639999999998,0.0,0.0,0.0,1.9824639999999998,0.0,0.0,0.0,4.443664,2
1729403426.709588,2421,1729403426,529505920,base_link,0,1,33.6978152,73.0165256,509.02964495779634,1.9824639999999998,0.0,0.0,0.0,1.9824639999999998,0.0,0.0,0.0,4.443664,2
1729403426.811842,2422,1729403426,729506176,base_link,0,1,33.6978152,73.0165255,509.0096445304171,1.979649,0.0,0.0,0.0,1.979649,0.0,0.0,0.0,4.443664,2
1729403426.9104342,2423,1729403426,729503616,base_link,0,1,33.6978152,73.0165255,509.0096445304171,1.979649,0.0,0.0,0.0,1.979649,0.0,0.0,0.0,4.443664,2
1729403427.010404,2424,1729403426,929503872,base_link,0,1,33.6978153,73.0165255,508.9996451967964,1.9768359999999998,0.0,0.0,0.0,1.9768359999999998,0.0,0.0,0.0,4.443664,2
1729403427.1100478,2425,1729403426,929502848,base_link,0,1,33.6978153,73.0165255,508.9996451967964,1.9768359999999998,0.0,0.0,0.0,1.9768359999999998,0.0,0.0,0.0,4.443664,2
1729403427.2103267,2426,1729403427,129500032,base_link,0,1,33.6978153,73.0165255,509.0096451967964,1.9740250000000001,0.0,0.0,0.0,1.9740250000000001,0.0,0.0,0.0,4.439449000000001,2
1729403427.3085392,2427,1729403427,129497472,base_link,0,1,33.6978153,73.0165255,509.0096451967964,1.9740250000000001,0.0,0.0,0.0,1.9740250000000001,0.0,0.0,0.0,4.439449000000001,2
1729403427.4100587,2428,1729403427,329497728,base_link,0,1,33.6978152,73.0165254,509.0096441030379,1.9712159999999999,0.0,0.0,0.0,1.9712159999999999,0.0,0.0,0.0,4.439449000000001,2
1729403427.50991,2429,1729403427,329498240,base_link,0,1,33.6978152,73.0165254,509.0096441030379,1.9712159999999999,0.0,0.0,0.0,1.9712159999999999,0.0,0.0,0.0,4.439449000000001,2
1729403427.6084013,2430,1729403427,529498496,base_link,0,1,33.6978151,73.0165254,509.0296434366587,1.9712159999999999,0.0,0.0,0.0,1.9712159999999999,0.0,0.0,0.0,4.435236,2
1729403427.708423,2431,1729403427,529495680,base_link,0,1,33.6978151,73.0165254,509.0296434366587,1.9712159999999999,0.0,0.0,0.0,1.9712159999999999,0.0,0.0,0.0,4.435236,2
1729403427.8107274,2432,1729403427,729493120,base_link,0,1,33.697815,73.0165254,509.0296427702796,1.968409,0.0,0.0,0.0,1.968409,0.0,0.0,0.0,4.439449000000001,2
1729403427.9097106,2433,1729403427,729490560,base_link,0,1,33.697815,73.0165254,509.0296427702796,1.968409,0.0,0.0,0.0,1.968409,0.0,0.0,0.0,4.439449000000001,2
1729403428.0082762,2434,1729403427,929487744,base_link,0,1,33.6978148,73.0165254,509.01964143752156,1.968409,0.0,0.0,0.0,1.968409,0.0,0.0,0.0,4.439449000000001,2
1729403428.1126204,2435,1729403427,929488000,base_link,0,1,33.6978148,73.0165254,509.01964143752156,1.968409,0.0,0.0,0.0,1.968409,0.0,0.0,0.0,4.439449000000001,2
1729403428.2137332,2436,1729403428,129485440,base_link,0,1,33.6978147,73.0165253,509.0196403437635,1.9656039999999997,0.0,0.0,0.0,1.9656039999999997,0.0,0.0,0.0,4.435236,2
1729403428.3087673,2437,1729403428,129483136,base_link,0,1,33.6978147,73.0165253,509.0196403437635,1.9656039999999997,0.0,0.0,0.0,1.9656039999999997,0.0,0.0,0.0,4.435236,2
1729403428.4097648,2438,1729403428,329480832,base_link,0,1,33.6978146,73.0165252,508.99963925000577,1.962801,0.0,0.0,0.0,1.962801,0.0,0.0,0.0,4.431025,2
1729403428.5078087,2439,1729403428,329478272,base_link,0,1,33.6978146,73.0165252,508.99963925000577,1.962801,0.0,0.0,0.0,1.962801,0.0,0.0,0.0,4.431025,2
1729403428.6087577,2440,1729403428,529475712,base_link,0,1,33.6978146,73.0165252,509.00963925000576,1.9599999999999997,0.0,0.0,0.0,1.9599999999999997,0.0,0.0,0.0,4.4268160000000005,2
1729403428.7123551,2441,1729403428,529475456,base_link,0,1,33.6978146,73.0165252,509.00963925000576,1.9599999999999997,0.0,0.0,0.0,1.9599999999999997,0.0,0.0,0.0,4.4268160000000005,2
1729403428.8110662,2442,1729403428,729476224,base_link,0,1,33.6978147,73.0165252,508.9896399163846,1.957201,0.0,0.0,0.0,1.957201,0.0,0.0,0.0,4.4226090000000005,2
1729403428.9084058,2443,1729403428,729476992,base_link,0,1,33.6978147,73.0165252,508.9896399163846,1.957201,0.0,0.0,0.0,1.957201,0.0,0.0,0.0,4.4226090000000005,2
1729403429.0081084,2444,1729403428,929474688,base_link,0,1,33.6978147,73.0165251,508.96963948900554,1.9544039999999998,0.0,0.0,0.0,1.9544039999999998,0.0,0.0,0.0,4.418404,2
1729403429.1097548,2445,1729403428,929472640,base_link,0,1,33.6978147,73.0165251,508.96963948900554,1.9544039999999998,0.0,0.0,0.0,1.9544039999999998,0.0,0.0,0.0,4.418404,2
1729403429.2098734,2446,1729403429,129470336,base_link,0,1,33.6978146,73.016525,508.9596383952479,1.9516090000000001,0.0,0.0,0.0,1.9516090000000001,0.0,0.0,0.0,4.414201,2
1729403429.309767,2447,1729403429,129468288,base_link,0,1,33.6978146,73.016525,508.9596383952479,1.9516090000000001,0.0,0.0,0.0,1.9516090000000001,0.0,0.0,0.0,4.414201,2
1729403429.4103987,2448,1729403429,329465984,base_link,0,1,33.6978146,73.016525,508.9496383952478,1.9488159999999997,0.0,0.0,0.0,1.9488159999999997,0.0,0.0,0.0,4.41,2
1729403429.509276,2449,1729403429,329463936,base_link,0,1,33.6978146,73.016525,508.9496383952478,1.9488159999999997,0.0,0.0,0.0,1.9488159999999997,0.0,0.0,0.0,4.41,2
1729403429.6074717,2450,1729403429,529464448,base_link,0,1,33.6978146,73.0165249,508.93963796786886,1.9460250000000001,0.0,0.0,0.0,1.9460250000000001,0.0,0.0,0.0,4.405801000000001,2
1729403429.7076602,2451,1729403429,529465216,base_link,0,1,33.6978146,73.0165249,508.93963796786886,1.9460250000000001,0.0,0.0,0.0,1.9460250000000001,0.0,0.0,0.0,4.405801000000001,2
1729403429.8098931,2452,1729403429,729465728,base_link,0,1,33.6978147,73.0165248,508.93963820686866,1.9432359999999997,0.0,0.0,0.0,1.9432359999999997,0.0,0.0,0.0,4.401604,2
1729403429.910261,2453,1729403429,729466240,base_link,0,1,33.6978147,73.0165248,508.93963820686866,1.9432359999999997,0.0,0.0,0.0,1.9432359999999997,0.0,0.0,0.0,4.401604,2
1729403430.009808,2454,1729403429,929463936,base_link,0,1,33.6978147,73.0165249,508.93963863424756,1.940449,0.0,0.0,0.0,1.940449,0.0,0.0,0.0,4.401604,2
1729403430.111518,2455,1729403429,929461888,base_link,0,1,33.6978147,73.0165249,508.93963863424756,1.940449,0.0,0.0,0.0,1.940449,0.0,0.0,0.0,4.401604,2
1729403430.2108874,2456,1729403430,129459840,base_link,0,1,33.6978147,73.0165249,508.92963863424757,1.9376639999999998,0.0,0.0,0.0,1.9376639999999998,0.0,0.0,0.0,4.397409,2
1729403430.310629,2457,1729403430,129457792,base_link,0,1,33.6978147,73.0165249,508.92963863424757,1.9376639999999998,0.0,0.0,0.0,1.9376639999999998,0.0,0.0,0.0,4.397409,2
1729403430.4093678,2458,1729403430,329456000,base_link,0,1,33.6978147,73.016525,508.9096390616266,1.934881,0.0,0.0,0.0,1.934881,0.0,0.0,0.0,4.393216000000001,2
1729403430.5083125,2459,1729403430,329454208,base_link,0,1,33.6978147,73.016525,508.9096390616266,1.934881,0.0,0.0,0.0,1.934881,0.0,0.0,0.0,4.393216000000001,2
1729403430.6104536,2460,1729403430,529454976,base_link,0,1,33.6978146,73.0165249,508.85963796786893,1.9320999999999997,0.0,0.0,0.0,1.9320999999999997,0.0,0.0,0.0,4.389025000000001,2
1729403430.7108254,2461,1729403430,529453184,base_link,0,1,33.6978146,73.0165249,508.85963796786893,1.9320999999999997,0.0,0.0,0.0,1.9320999999999997,0.0,0.0,0.0,4.389025000000001,2
1729403430.809931,2462,1729403430,729453696,base_link,0,1,33.6978146,73.0165248,508.8396375404901,1.929321,0.0,0.0,0.0,1.929321,0.0,0.0,0.0,4.384835999999999,2
1729403430.9107153,2463,1729403430,729454464,base_link,0,1,33.6978146,73.0165248,508.8396375404901,1.929321,0.0,0.0,0.0,1.929321,0.0,0.0,0.0,4.384835999999999,2
1729403431.00917,2464,1729403430,929452672,base_link,0,1,33.6978147,73.0165249,508.83963863424765,1.929321,0.0,0.0,0.0,1.929321,0.0,0.0,0.0,4.384835999999999,2
1729403431.1112092,2465,1729403430,929453696,base_link,0,1,33.6978147,73.0165249,508.83963863424765,1.929321,0.0,0.0,0.0,1.929321,0.0,0.0,0.0,4.384835999999999,2
1729403431.2079606,2466,1729403431,129451904,base_link,0,1,33.6978148,73.0165248,508.79963887324743,1.9265439999999998,0.0,0.0,0.0,1.9265439999999998,0.0,0.0,0.0,4.380649,2
1729403431.307866,2467,1729403431,129450112,base_link,0,1,33.6978148,73.0165248,508.79963887324743,1.9265439999999998,0.0,0.0,0.0,1.9265439999999998,0.0,0.0,0.0,4.380649,2
1729403431.4098296,2468,1729403431,329448320,base_link,0,1,33.6978148,73.0165247,508.75963844586863,1.923769,0.0,0.0,0.0,1.923769,0.0,0.0,0.0,4.376464,2
1729403431.5079277,2469,1729403431,329449600,base_link,0,1,33.6978148,73.0165247,508.75963844586863,1.923769,0.0,0.0,0.0,1.923769,0.0,0.0,0.0,4.376464,2
1729403431.610374,2470,1729403431,529447808,base_link,0,1,33.6978148,73.0165248,508.7496388732475,1.9209959999999997,0.0,0.0,0.0,1.9209959999999997,0.0,0.0,0.0,4.376464,2
1729403431.7101717,2471,1729403431,529448832,base_link,0,1,33.6978148,73.0165248,508.7496388732475,1.9209959999999997,0.0,0.0,0.0,1.9209959999999997,0.0,0.0,0.0,4.376464,2
1729403431.808371,2472,1729403431,729450112,base_link,0,1,33.6978147,73.0165249,508.7596386342476,1.918225,0.0,0.0,0.0,1.918225,0.0,0.0,0.0,4.376464,2
1729403431.9101288,2473,1729403431,729448320,base_link,0,1,33.6978147,73.0165249,508.7596386342476,1.918225,0.0,0.0,0.0,1.918225,0.0,0.0,0.0,4.376464,2
1729403432.0101674,2474,1729403431,929449600,base_link,0,1,33.6978146,73.0165248,508.7296375404901,1.9154559999999998,0.0,0.0,0.0,1.9154559999999998,0.0,0.0,0.0,4.368099999999999,2
1729403432.10808,2475,1729403431,929448064,base_link,0,1,33.6978146,73.0165248,508.7296375404901,1.9154559999999998,0.0,0.0,0.0,1.9154559999999998,0.0,0.0,0.0,4.368099999999999,2
1729403432.2081842,2476,1729403432,129449344,base_link,0,1,33.6978145,73.0165247,508.7396364467327,1.912689,0.0,0.0,0.0,1.912689,0.0,0.0,0.0,4.3639209999999995,2
1729403432.308154,2477,1729403432,129446272,base_link,0,1,33.6978145,73.0165247,508.7396364467327,1.912689,0.0,0.0,0.0,1.912689,0.0,0.0,0.0,4.3639209999999995,2
1729403432.4080355,2478,1729403432,329447552,base_link,0,1,33.6978144,73.0165247,508.7696357803541,1.9099239999999997,0.0,0.0,0.0,1.9099239999999997,0.0,0.0,0.0,4.355569000000001,2
1729403432.5081518,2479,1729403432,329444480,base_link,0,1,33.6978144,73.0165247,508.7696357803541,1.9099239999999997,0.0,0.0,0.0,1.9099239999999997,0.0,0.0,0.0,4.355569000000001,2
1729403432.6103785,2480,1729403432,529444224,base_link,0,1,33.6978145,73.0165247,508.76963644673265,1.907161,0.0,0.0,0.0,1.907161,0.0,0.0,0.0,4.351395999999999,2
1729403432.7093365,2481,1729403432,529441152,base_link,0,1,33.6978145,73.0165247,508.76963644673265,1.907161,0.0,0.0,0.0,1.907161,0.0,0.0,0.0,4.351395999999999,2
1729403432.8101776,2482,1729403432,729440128,base_link,0,1,33.6978145,73.0165247,508.78963644673263,1.901641,0.0,0.0,0.0,1.901641,0.0,0.0,0.0,4.343056000000001,2
1729403432.9092941,2483,1729403432,729437056,base_link,0,1,33.6978145,73.0165247,508.78963644673263,1.901641,0.0,0.0,0.0,1.901641,0.0,0.0,0.0,4.343056000000001,2
1729403433.0082343,2484,1729403432,929434240,base_link,0,1,33.6978145,73.0165247,508.77963644673264,1.8988839999999998,0.0,0.0,0.0,1.8988839999999998,0.0,0.0,0.0,4.338889000000001,2
1729403433.1104233,2485,1729403432,929435776,base_link,0,1,33.6978145,73.0165247,508.77963644673264,1.8988839999999998,0.0,0.0,0.0,1.8988839999999998,0.0,0.0,0.0,4.338889000000001,2
1729403433.2132196,2486,1729403433,129436032,base_link,0,1,33.6978145,73.0165247,508.77963644673264,1.896129,0.0,0.0,0.0,1.896129,0.0,0.0,0.0,4.330560999999999,2
1729403433.3103158,2487,1729403433,129434752,base_link,0,1,33.6978145,73.0165247,508.77963644673264,1.896129,0.0,0.0,0.0,1.896129,0.0,0.0,0.0,4.330560999999999,2
1729403433.4095988,2488,1729403433,329431936,base_link,0,1,33.6978145,73.0165246,508.7896360193538,1.8933759999999997,0.0,0.0,0.0,1.8933759999999997,0.0,0.0,0.0,4.322241000000001,2
1729403433.5096803,2489,1729403433,329429376,base_link,0,1,33.6978145,73.0165246,508.7896360193538,1.8933759999999997,0.0,0.0,0.0,1.8933759999999997,0.0,0.0,0.0,4.322241000000001,2
1729403433.609312,2490,1729403433,529426816,base_link,0,1,33.6978145,73.0165246,508.7996360193538,1.890625,0.0,0.0,0.0,1.890625,0.0,0.0,0.0,4.322241000000001,2
1729403433.7102888,2491,1729403433,529424256,base_link,0,1,33.6978145,73.0165246,508.7996360193538,1.890625,0.0,0.0,0.0,1.890625,0.0,0.0,0.0,4.322241000000001,2
1729403433.8101466,2492,1729403433,729424256,base_link,0,1,33.6978145,73.0165246,508.8096360193538,1.8878760000000003,0.0,0.0,0.0,1.8878760000000003,0.0,0.0,0.0,4.318083999999999,2
1729403433.9101908,2493,1729403433,729424768,base_link,0,1,33.6978145,73.0165246,508.8096360193538,1.8878760000000003,0.0,0.0,0.0,1.8878760000000003,0.0,0.0,0.0,4.318083999999999,2
1729403434.0081158,2494,1729403433,929424256,base_link,0,1,33.6978144,73.0165246,508.81963535297524,1.8878760000000003,0.0,0.0,0.0,1.8878760000000003,0.0,0.0,0.0,4.313929,2
1729403434.1104407,2495,1729403433,929423488,base_link,0,1,33.6978144,73.0165246,508.81963535297524,1.8878760000000003,0.0,0.0,0.0,1.8878760000000003,0.0,0.0,0.0,4.313929,2
1729403434.2103968,2496,1729403434,129423744,base_link,0,1,33.6978143,73.0165245,508.8296342592181,1.885129,0.0,0.0,0.0,1.885129,0.0,0.0,0.0,4.305625000000001,2
1729403434.3082724,2497,1729403434,129421184,base_link,0,1,33.6978143,73.0165245,508.8296342592181,1.885129,0.0,0.0,0.0,1.885129,0.0,0.0,0.0,4.305625000000001,2
1729403434.409611,2498,1729403434,329421184,base_link,0,1,33.6978142,73.0165245,508.8196335928398,1.879641,0.0,0.0,0.0,1.879641,0.0,0.0,0.0,4.301475999999999,2
1729403434.5096505,2499,1729403434,329418880,base_link,0,1,33.6978142,73.0165245,508.8196335928398,1.879641,0.0,0.0,0.0,1.879641,0.0,0.0,0.0,4.301475999999999,2
1729403434.6092465,2500,1729403434,529416576,base_link,0,1,33.6978141,73.0165246,508.82963335384005,1.8769000000000002,0.0,0.0,0.0,1.8769000000000002,0.0,0.0,0.0,4.293184,2
1729403434.7106557,2501,1729403434,529414272,base_link,0,1,33.6978141,73.0165246,508.82963335384005,1.8769000000000002,0.0,0.0,0.0,1.8769000000000002,0.0,0.0,0.0,4.293184,2
1729403434.8096857,2502,1729403434,729411968,base_link,0,1,33.6978139,73.0165246,508.8496320210836,1.874161,0.0,0.0,0.0,1.874161,0.0,0.0,0.0,4.2848999999999995,2
1729403434.9083884,2503,1729403434,729409664,base_link,0,1,33.6978139,73.0165246,508.8496320210836,1.874161,0.0,0.0,0.0,1.874161,0.0,0.0,0.0,4.2848999999999995,2
1729403435.0098183,2504,1729403434,929409920,base_link,0,1,33.6978139,73.0165245,508.799631593705,1.8714240000000002,0.0,0.0,0.0,1.8714240000000002,0.0,0.0,0.0,4.280761,2
1729403435.110637,2505,1729403434,929407360,base_link,0,1,33.6978139,73.0165245,508.799631593705,1.8714240000000002,0.0,0.0,0.0,1.8714240000000002,0.0,0.0,0.0,4.280761,2
1729403435.2083812,2506,1729403435,129405056,base_link,0,1,33.697814,73.0165246,508.82963268746175,1.868689,0.0,0.0,0.0,1.868689,0.0,0.0,0.0,4.272489000000001,2
1729403435.310731,2507,1729403435,129405312,base_link,0,1,33.697814,73.0165246,508.82963268746175,1.868689,0.0,0.0,0.0,1.868689,0.0,0.0,0.0,4.272489000000001,2
1729403435.4112694,2508,1729403435,329404544,base_link,0,1,33.697814,73.0165247,508.8296331148404,1.8659560000000004,0.0,0.0,0.0,1.8659560000000004,0.0,0.0,0.0,4.268355999999999,2
1729403435.511285,2509,1729403435,329405312,base_link,0,1,33.697814,73.0165247,508.8296331148404,1.8659560000000004,0.0,0.0,0.0,1.8659560000000004,0.0,0.0,0.0,4.268355999999999,2
1729403435.6083643,2510,1729403435,529403520,base_link,0,1,33.697814,73.0165248,508.84963354221907,1.863225,0.0,0.0,0.0,1.863225,0.0,0.0,0.0,4.264225,2
1729403435.7078435,2511,1729403435,529401728,base_link,0,1,33.697814,73.0165248,508.84963354221907,1.863225,0.0,0.0,0.0,1.863225,0.0,0.0,0.0,4.264225,2
1729403435.8108258,2512,1729403435,729399936,base_link,0,1,33.697814,73.0165249,508.8796339695977,1.8604960000000004,0.0,0.0,0.0,1.8604960000000004,0.0,0.0,0.0,4.260096,2
1729403435.9096866,2513,1729403435,729401216,base_link,0,1,33.697814,73.0165249,508.8796339695977,1.8604960000000004,0.0,0.0,0.0,1.8604960000000004,0.0,0.0,0.0,4.260096,2
1729403436.0076237,2514,1729403435,929402240,base_link,0,1,33.6978141,73.0165249,508.9096346359761,1.8604960000000004,0.0,0.0,0.0,1.8604960000000004,0.0,0.0,0.0,4.255969,2
1729403436.1114845,2515,1729403435,929400448,base_link,0,1,33.6978141,73.0165249,508.9096346359761,1.8604960000000004,0.0,0.0,0.0,1.8604960000000004,0.0,0.0,0.0,4.255969,2
1729403436.210158,2516,1729403436,129401216,base_link,0,1,33.6978142,73.016525,508.95963572973335,1.8604960000000004,0.0,0.0,0.0,1.8604960000000004,0.0,0.0,0.0,4.255969,2
1729403436.3081975,2517,1729403436,129399680,base_link,0,1,33.6978142,73.016525,508.95963572973335,1.8604960000000004,0.0,0.0,0.0,1.8604960000000004,0.0,0.0,0.0,4.255969,2
1729403436.4099388,2518,1729403436,329400448,base_link,0,1,33.6978143,73.016525,508.98963639611185,1.857769,0.0,0.0,0.0,1.857769,0.0,0.0,0.0,4.251843999999999,2
1729403436.5100713,2519,1729403436,329401472,base_link,0,1,33.6978143,73.016525,508.98963639611185,1.857769,0.0,0.0,0.0,1.857769,0.0,0.0,0.0,4.251843999999999,2
1729403436.608016,2520,1729403436,529402496,base_link,0,1,33.6978144,73.016525,509.02963706249045,1.857769,0.0,0.0,0.0,1.857769,0.0,0.0,0.0,4.251843999999999,2
1729403436.7079356,2521,1729403436,529400704,base_link,0,1,33.6978144,73.016525,509.02963706249045,1.857769,0.0,0.0,0.0,1.857769,0.0,0.0,0.0,4.251843999999999,2
1729403436.8077154,2522,1729403436,729401728,base_link,0,1,33.6978144,73.016525,509.0696370624904,1.857769,0.0,0.0,0.0,1.857769,0.0,0.0,0.0,4.251843999999999,2
1729403436.9108183,2523,1729403436,729402752,base_link,0,1,33.6978144,73.016525,509.0696370624904,1.857769,0.0,0.0,0.0,1.857769,0.0,0.0,0.0,4.251843999999999,2
1729403437.0098362,2524,1729403436,929400960,base_link,0,1,33.6978144,73.0165251,509.1196374898693,1.857769,0.0,0.0,0.0,1.857769,0.0,0.0,0.0,4.247720999999999,2
1729403437.1100304,2525,1729403436,929401472,base_link,0,1,33.6978144,73.0165251,509.1196374898693,1.857769,0.0,0.0,0.0,1.857769,0.0,0.0,0.0,4.247720999999999,2
1729403437.2099946,2526,1729403437,129402496,base_link,0,1,33.6978145,73.0165251,509.139638156248,1.8550440000000004,0.0,0.0,0.0,1.8550440000000004,0.0,0.0,0.0,4.247720999999999,2
1729403437.307249,2527,1729403437,129400960,base_link,0,1,33.6978145,73.0165251,509.139638156248,1.8550440000000004,0.0,0.0,0.0,1.8550440000000004,0.0,0.0,0.0,4.247720999999999,2
1729403437.4079459,2528,1729403437,329402240,base_link,0,1,33.6978144,73.0165252,509.16963791724817,1.8550440000000004,0.0,0.0,0.0,1.8550440000000004,0.0,0.0,0.0,4.2436,2
1729403437.5099483,2529,1729403437,329403264,base_link,0,1,33.6978144,73.0165252,509.16963791724817,1.8550440000000004,0.0,0.0,0.0,1.8550440000000004,0.0,0.0,0.0,4.2436,2
1729403437.60813,2530,1729403437,529404544,base_link,0,1,33.6978144,73.0165253,509.189638344627,1.8550440000000004,0.0,0.0,0.0,1.8550440000000004,0.0,0.0,0.0,4.2436,2
1729403437.707936,2531,1729403437,529403008,base_link,0,1,33.6978144,73.0165253,509.189638344627,1.8550440000000004,0.0,0.0,0.0,1.8550440000000004,0.0,0.0,0.0,4.2436,2
1729403437.810923,2532,1729403437,729403776,base_link,0,1,33.6978144,73.0165253,509.159638344627,1.8604960000000004,0.0,0.0,0.0,1.8604960000000004,0.0,0.0,0.0,4.2436,2
1729403437.9101284,2533,1729403437,729405056,base_link,0,1,33.6978144,73.0165253,509.159638344627,1.8604960000000004,0.0,0.0,0.0,1.8604960000000004,0.0,0.0,0.0,4.2436,2
1729403438.010344,2534,1729403437,929406080,base_link,0,1,33.6978145,73.0165253,509.1596390110058,1.863225,0.0,0.0,0.0,1.863225,0.0,0.0,0.0,4.2436,2
1729403438.109025,2535,1729403437,929402752,base_link,0,1,33.6978145,73.0165253,509.1596390110058,1.863225,0.0,0.0,0.0,1.863225,0.0,0.0,0.0,4.2436,2
1729403438.2106202,2536,1729403438,129404032,base_link,0,1,33.6978146,73.0165253,509.1996396773846,1.8659560000000004,0.0,0.0,0.0,1.8659560000000004,0.0,0.0,0.0,4.247720999999999,2
1729403438.312221,2537,1729403438,129405568,base_link,0,1,33.6978146,73.0165253,509.1996396773846,1.8659560000000004,0.0,0.0,0.0,1.8659560000000004,0.0,0.0,0.0,4.247720999999999,2
1729403438.4079263,2538,1729403438,329404288,base_link,0,1,33.6978146,73.0165253,509.1996396773846,1.868689,0.0,0.0,0.0,1.868689,0.0,0.0,0.0,4.247720999999999,2
1729403438.5092106,2539,1729403438,329405568,base_link,0,1,33.6978146,73.0165253,509.1996396773846,1.868689,0.0,0.0,0.0,1.868689,0.0,0.0,0.0,4.247720999999999,2
1729403438.6091106,2540,1729403438,529406592,base_link,0,1,33.6978146,73.0165252,509.1896392500057,1.8714240000000002,0.0,0.0,0.0,1.8714240000000002,0.0,0.0,0.0,4.247720999999999,2
1729403438.7080429,2541,1729403438,529405056,base_link,0,1,33.6978146,73.0165252,509.1896392500057,1.8714240000000002,0.0,0.0,0.0,1.8714240000000002,0.0,0.0,0.0,4.247720999999999,2
1729403438.8092875,2542,1729403438,729404800,base_link,0,1,33.6978147,73.0165253,509.1896403437635,1.8714240000000002,0.0,0.0,0.0,1.8714240000000002,0.0,0.0,0.0,4.251843999999999,2
1729403438.9077694,2543,1729403438,729404800,base_link,0,1,33.6978147,73.0165253,509.1896403437635,1.8714240000000002,0.0,0.0,0.0,1.8714240000000002,0.0,0.0,0.0,4.251843999999999,2
1729403439.0093174,2544,1729403438,929404800,base_link,0,1,33.6978147,73.0165253,509.1696403437635,1.8714240000000002,0.0,0.0,0.0,1.8714240000000002,0.0,0.0,0.0,4.251843999999999,2
1729403439.1084256,2545,1729403438,929403520,base_link,0,1,33.6978147,73.0165253,509.1696403437635,1.8714240000000002,0.0,0.0,0.0,1.8714240000000002,0.0,0.0,0.0,4.251843999999999,2
1729403439.2093024,2546,1729403439,129403264,base_link,0,1,33.6978149,73.0165254,509.1796421039005,1.868689,0.0,0.0,0.0,1.868689,0.0,0.0,0.0,4.251843999999999,2
1729403439.3082435,2547,1729403439,129403520,base_link,0,1,33.6978149,73.0165254,509.1796421039005,1.868689,0.0,0.0,0.0,1.868689,0.0,0.0,0.0,4.251843999999999,2
1729403439.4082763,2548,1729403439,329405056,base_link,0,1,33.697815,73.0165253,509.1396423429004,1.868689,0.0,0.0,0.0,1.868689,0.0,0.0,0.0,4.251843999999999,2
1729403439.5101342,2549,1729403439,329402240,base_link,0,1,33.697815,73.0165253,509.1396423429004,1.868689,0.0,0.0,0.0,1.868689,0.0,0.0,0.0,4.251843999999999,2
1729403439.609671,2550,1729403439,529402240,base_link,0,1,33.697815,73.0165254,509.12964277027964,1.868689,0.0,0.0,0.0,1.868689,0.0,0.0,0.0,4.251843999999999,2
1729403439.7092278,2551,1729403439,529402240,base_link,0,1,33.697815,73.0165254,509.12964277027964,1.868689,0.0,0.0,0.0,1.868689,0.0,0.0,0.0,4.251843999999999,2
1729403439.8093312,2552,1729403439,729401984,base_link,0,1,33.6978151,73.0165254,509.10964343665876,1.8659560000000004,0.0,0.0,0.0,1.8659560000000004,0.0,0.0,0.0,4.251843999999999,2
1729403439.9094121,2553,1729403439,729402240,base_link,0,1,33.6978151,73.0165254,509.10964343665876,1.8659560000000004,0.0,0.0,0.0,1.8659560000000004,0.0,0.0,0.0,4.251843999999999,2
1729403440.0098925,2554,1729403439,929402496,base_link,0,1,33.6978153,73.0165255,509.1196451967964,1.8659560000000004,0.0,0.0,0.0,1.8659560000000004,0.0,0.0,0.0,4.251843999999999,2
1729403440.1081054,2555,1729403439,929404288,base_link,0,1,33.6978153,73.0165255,509.1196451967964,1.8659560000000004,0.0,0.0,0.0,1.8659560000000004,0.0,0.0,0.0,4.251843999999999,2
1729403440.2082732,2556,1729403440,129404544,base_link,0,1,33.6978154,73.0165255,509.09964586317574,1.8659560000000004,0.0,0.0,0.0,1.8659560000000004,0.0,0.0,0.0,4.251843999999999,2
1729403440.3083816,2557,1729403440,129405056,base_link,0,1,33.6978154,73.0165255,509.09964586317574,1.8659560000000004,0.0,0.0,0.0,1.8659560000000004,0.0,0.0,0.0,4.251843999999999,2
1729403440.409506,2558,1729403440,329403520,base_link,0,1,33.6978155,73.0165256,509.0896469569344,1.863225,0.0,0.0,0.0,1.863225,0.0,0.0,0.0,4.251843999999999,2
1729403440.509503,2559,1729403440,329401984,base_link,0,1,33.6978155,73.0165256,509.0896469569344,1.863225,0.0,0.0,0.0,1.863225,0.0,0.0,0.0,4.251843999999999,2
1729403440.6101542,2560,1729403440,529400704,base_link,0,1,33.6978156,73.0165256,509.0796476233137,1.863225,0.0,0.0,0.0,1.863225,0.0,0.0,0.0,4.251843999999999,2
1729403440.71063,2561,1729403440,529399168,base_link,0,1,33.6978156,73.0165256,509.0796476233137,1.863225,0.0,0.0,0.0,1.863225,0.0,0.0,0.0,4.251843999999999,2
1729403440.8075604,2562,1729403440,729397888,base_link,0,1,33.6978157,73.0165256,509.0796482896932,1.863225,0.0,0.0,0.0,1.863225,0.0,0.0,0.0,4.251843999999999,2
1729403440.9104776,2563,1729403440,729396608,base_link,0,1,33.6978157,73.0165256,509.0796482896932,1.863225,0.0,0.0,0.0,1.863225,0.0,0.0,0.0,4.251843999999999,2
1729403441.0083199,2564,1729403440,929395328,base_link,0,1,33.6978157,73.0165255,509.0596478623138,1.8604960000000004,0.0,0.0,0.0,1.8604960000000004,0.0,0.0,0.0,4.255969,2
1729403441.108265,2565,1729403440,929395584,base_link,0,1,33.6978157,73.0165255,509.0596478623138,1.8604960000000004,0.0,0.0,0.0,1.8604960000000004,0.0,0.0,0.0,4.255969,2
1729403441.208159,2566,1729403441,129394560,base_link,0,1,33.6978156,73.0165255,509.05964719593436,1.8604960000000004,0.0,0.0,0.0,1.8604960000000004,0.0,0.0,0.0,4.255969,2
1729403441.3083243,2567,1729403441,129393280,base_link,0,1,33.6978156,73.0165255,509.05964719593436,1.8604960000000004,0.0,0.0,0.0,1.8604960000000004,0.0,0.0,0.0,4.255969,2
1729403441.41038,2568,1729403441,329392000,base_link,0,1,33.6978156,73.0165254,509.05964676855496,1.8604960000000004,0.0,0.0,0.0,1.8604960000000004,0.0,0.0,0.0,4.255969,2
1729403441.5083268,2569,1729403441,329392512,base_link,0,1,33.6978156,73.0165254,509.05964676855496,1.8604960000000004,0.0,0.0,0.0,1.8604960000000004,0.0,0.0,0.0,4.255969,2
1729403441.608359,2570,1729403441,529390976,base_link,0,1,33.6978156,73.0165255,509.05964719593436,1.857769,0.0,0.0,0.0,1.857769,0.0,0.0,0.0,4.255969,2
1729403441.7094128,2571,1729403441,529389696,base_link,0,1,33.6978156,73.0165255,509.05964719593436,1.857769,0.0,0.0,0.0,1.857769,0.0,0.0,0.0,4.255969,2
1729403441.8094213,2572,1729403441,729388416,base_link,0,1,33.6978156,73.0165255,509.05964719593436,1.857769,0.0,0.0,0.0,1.857769,0.0,0.0,0.0,4.255969,2
1729403441.9084387,2573,1729403441,729387136,base_link,0,1,33.6978156,73.0165255,509.05964719593436,1.857769,0.0,0.0,0.0,1.857769,0.0,0.0,0.0,4.255969,2
1729403442.008617,2574,1729403441,929386112,base_link,0,1,33.6978156,73.0165254,509.039646768555,1.857769,0.0,0.0,0.0,1.857769,0.0,0.0,0.0,4.255969,2
1729403442.1086946,2575,1729403441,929385088,base_link,0,1,33.6978156,73.0165254,509.039646768555,1.857769,0.0,0.0,0.0,1.857769,0.0,0.0,0.0,4.255969,2
1729403442.2085238,2576,1729403442,129384064,base_link,0,1,33.6978155,73.0165252,509.029645247417,1.8550440000000004,0.0,0.0,0.0,1.8550440000000004,0.0,0.0,0.0,4.251843999999999,2
1729403442.308435,2577,1729403442,129383040,base_link,0,1,33.6978155,73.0165252,509.029645247417,1.8550440000000004,0.0,0.0,0.0,1.8550440000000004,0.0,0.0,0.0,4.251843999999999,2
1729403442.4076667,2578,1729403442,329382272,base_link,0,1,33.6978153,73.0165251,509.0196434872793,1.8523209999999999,0.0,0.0,0.0,1.8523209999999999,0.0,0.0,0.0,4.247720999999999,2
1729403442.5076144,2579,1729403442,329381248,base_link,0,1,33.6978153,73.0165251,509.0196434872793,1.8523209999999999,0.0,0.0,0.0,1.8523209999999999,0.0,0.0,0.0,4.247720999999999,2
1729403442.6084132,2580,1729403442,529380224,base_link,0,1,33.6978152,73.0165249,508.979641966142,1.8523209999999999,0.0,0.0,0.0,1.8523209999999999,0.0,0.0,0.0,4.247720999999999,2
1729403442.708468,2581,1729403442,529379456,base_link,0,1,33.6978152,73.0165249,508.979641966142,1.8523209999999999,0.0,0.0,0.0,1.8523209999999999,0.0,0.0,0.0,4.247720999999999,2
1729403442.8111012,2582,1729403442,729378688,base_link,0,1,33.6978151,73.0165247,508.969640445005,1.8523209999999999,0.0,0.0,0.0,1.8523209999999999,0.0,0.0,0.0,4.247720999999999,2
1729403442.9075105,2583,1729403442,729377920,base_link,0,1,33.6978151,73.0165247,508.969640445005,1.8523209999999999,0.0,0.0,0.0,1.8523209999999999,0.0,0.0,0.0,4.247720999999999,2
1729403443.0105984,2584,1729403442,929376896,base_link,0,1,33.697815,73.0165246,508.96963935124717,1.8496000000000004,0.0,0.0,0.0,1.8496000000000004,0.0,0.0,0.0,4.247720999999999,2
1729403443.1081712,2585,1729403442,929376384,base_link,0,1,33.697815,73.0165246,508.96963935124717,1.8496000000000004,0.0,0.0,0.0,1.8496000000000004,0.0,0.0,0.0,4.247720999999999,2
1729403443.2072477,2586,1729403443,129375872,base_link,0,1,33.697815,73.0165246,508.9496393512471,1.8496000000000004,0.0,0.0,0.0,1.8496000000000004,0.0,0.0,0.0,4.247720999999999,2
1729403443.310661,2587,1729403443,129375616,base_link,0,1,33.697815,73.0165246,508.9496393512471,1.8496000000000004,0.0,0.0,0.0,1.8496000000000004,0.0,0.0,0.0,4.247720999999999,2
1729403443.4084878,2588,1729403443,329374592,base_link,0,1,33.697815,73.0165246,508.9496393512471,1.8496000000000004,0.0,0.0,0.0,1.8496000000000004,0.0,0.0,0.0,4.247720999999999,2
1729403443.507416,2589,1729403443,329374080,base_link,0,1,33.697815,73.0165246,508.9496393512471,1.8496000000000004,0.0,0.0,0.0,1.8496000000000004,0.0,0.0,0.0,4.247720999999999,2
1729403443.615701,2590,1729403443,529373824,base_link,0,1,33.697815,73.0165244,508.93963849648924,1.8496000000000004,0.0,0.0,0.0,1.8496000000000004,0.0,0.0,0.0,4.247720999999999,2
1729403443.70869,2591,1729403443,529373312,base_link,0,1,33.697815,73.0165244,508.93963849648924,1.8496000000000004,0.0,0.0,0.0,1.8496000000000004,0.0,0.0,0.0,4.247720999999999,2
1729403443.8110595,2592,1729403443,729371776,base_link,0,1,33.6978149,73.0165243,508.91963740273167,1.846881,0.0,0.0,0.0,1.846881,0.0,0.0,0.0,4.247720999999999,2
1729403443.9098065,2593,1729403443,729371520,base_link,0,1,33.6978149,73.0165243,508.91963740273167,1.846881,0.0,0.0,0.0,1.846881,0.0,0.0,0.0,4.247720999999999,2
1729403444.0099456,2594,1729403443,929371264,base_link,0,1,33.6978148,73.0165241,508.89963588159554,1.846881,0.0,0.0,0.0,1.846881,0.0,0.0,0.0,4.247720999999999,2
1729403444.1088336,2595,1729403443,929370496,base_link,0,1,33.6978148,73.0165241,508.89963588159554,1.846881,0.0,0.0,0.0,1.846881,0.0,0.0,0.0,4.247720999999999,2
1729403444.2081974,2596,1729403444,129369984,base_link,0,1,33.6978147,73.0165239,508.8696343604597,1.846881,0.0,0.0,0.0,1.846881,0.0,0.0,0.0,4.247720999999999,2
1729403444.3077595,2597,1729403444,129369472,base_link,0,1,33.6978147,73.0165239,508.8696343604597,1.846881,0.0,0.0,0.0,1.846881,0.0,0.0,0.0,4.247720999999999,2
1729403444.410019,2598,1729403444,329368960,base_link,0,1,33.6978146,73.0165238,508.85963326670276,1.846881,0.0,0.0,0.0,1.846881,0.0,0.0,0.0,4.251843999999999,2
1729403444.5077808,2599,1729403444,329368704,base_link,0,1,33.6978146,73.0165238,508.85963326670276,1.846881,0.0,0.0,0.0,1.846881,0.0,0.0,0.0,4.251843999999999,2
1729403444.6076581,2600,1729403444,529368704,base_link,0,1,33.6978145,73.0165237,508.849632172946,1.846881,0.0,0.0,0.0,1.846881,0.0,0.0,0.0,4.251843999999999,2
1729403444.7079177,2601,1729403444,529368704,base_link,0,1,33.6978145,73.0165237,508.849632172946,1.846881,0.0,0.0,0.0,1.846881,0.0,0.0,0.0,4.251843999999999,2
1729403444.8099203,2602,1729403444,729368448,base_link,0,1,33.6978146,73.0165235,508.829631984567,1.846881,0.0,0.0,0.0,1.846881,0.0,0.0,0.0,4.251843999999999,2
1729403444.9074504,2603,1729403444,729368192,base_link,0,1,33.6978146,73.0165235,508.829631984567,1.846881,0.0,0.0,0.0,1.846881,0.0,0.0,0.0,4.251843999999999,2
1729403445.0076592,2604,1729403444,929367936,base_link,0,1,33.6978145,73.0165234,508.8096308908104,1.846881,0.0,0.0,0.0,1.846881,0.0,0.0,0.0,4.260096,2
1729403445.1078887,2605,1729403444,929367680,base_link,0,1,33.6978145,73.0165234,508.8096308908104,1.846881,0.0,0.0,0.0,1.846881,0.0,0.0,0.0,4.260096,2
1729403445.2080057,2606,1729403445,129366912,base_link,0,1,33.6978144,73.0165233,508.8096297970539,1.8496000000000004,0.0,0.0,0.0,1.8496000000000004,0.0,0.0,0.0,4.260096,2
1729403445.3079228,2607,1729403445,129367168,base_link,0,1,33.6978144,73.0165233,508.8096297970539,1.8496000000000004,0.0,0.0,0.0,1.8496000000000004,0.0,0.0,0.0,4.260096,2
1729403445.4076378,2608,1729403445,329366912,base_link,0,1,33.6978144,73.0165232,508.8096293696755,1.846881,0.0,0.0,0.0,1.846881,0.0,0.0,0.0,4.264225,2
1729403445.509923,2609,1729403445,329366656,base_link,0,1,33.6978144,73.0165232,508.8096293696755,1.846881,0.0,0.0,0.0,1.846881,0.0,0.0,0.0,4.264225,2
1729403445.607835,2610,1729403445,529366656,base_link,0,1,33.6978144,73.016523,508.81962851491886,1.846881,0.0,0.0,0.0,1.846881,0.0,0.0,0.0,4.264225,2
1729403445.7080624,2611,1729403445,529366912,base_link,0,1,33.6978144,73.016523,508.81962851491886,1.846881,0.0,0.0,0.0,1.846881,0.0,0.0,0.0,4.264225,2
1729403445.8092475,2612,1729403445,729365376,base_link,0,1,33.6978143,73.0165229,508.8496274211628,1.846881,0.0,0.0,0.0,1.846881,0.0,0.0,0.0,4.264225,2
1729403445.9079342,2613,1729403445,729363840,base_link,0,1,33.6978143,73.0165229,508.8496274211628,1.846881,0.0,0.0,0.0,1.846881,0.0,0.0,0.0,4.264225,2
1729403446.0078747,2614,1729403445,929363840,base_link,0,1,33.6978141,73.0165228,508.86962566102915,1.846881,0.0,0.0,0.0,1.846881,0.0,0.0,0.0,4.264225,2
1729403446.1078453,2615,1729403445,929363840,base_link,0,1,33.6978141,73.0165228,508.86962566102915,1.846881,0.0,0.0,0.0,1.846881,0.0,0.0,0.0,4.264225,2
1729403446.2081106,2616,1729403446,129362304,base_link,0,1,33.6978139,73.0165228,508.8996243282739,1.846881,0.0,0.0,0.0,1.846881,0.0,0.0,0.0,4.264225,2
1729403446.3102899,2617,1729403446,129362304,base_link,0,1,33.6978139,73.0165228,508.8996243282739,1.846881,0.0,0.0,0.0,1.846881,0.0,0.0,0.0,4.264225,2
1729403446.409753,2618,1729403446,329361024,base_link,0,1,33.6978138,73.0165226,508.9096228071403,1.846881,0.0,0.0,0.0,1.846881,0.0,0.0,0.0,4.264225,2
1729403446.50838,2619,1729403446,329359744,base_link,0,1,33.6978138,73.0165226,508.9096228071403,1.846881,0.0,0.0,0.0,1.846881,0.0,0.0,0.0,4.264225,2
1729403446.6092994,2620,1729403446,529360000,base_link,0,1,33.6978136,73.0165225,508.89962104700766,1.8441640000000004,0.0,0.0,0.0,1.8441640000000004,0.0,0.0,0.0,4.264225,2
1729403446.7080486,2621,1729403446,529359232,base_link,0,1,33.6978136,73.0165225,508.89962104700766,1.8441640000000004,0.0,0.0,0.0,1.8441640000000004,0.0,0.0,0.0,4.264225,2
1729403446.809328,2622,1729403446,729357952,base_link,0,1,33.6978136,73.0165224,508.88962061962985,1.8441640000000004,0.0,0.0,0.0,1.8441640000000004,0.0,0.0,0.0,4.264225,2
1729403446.908092,2623,1729403446,729356928,base_link,0,1,33.6978136,73.0165224,508.88962061962985,1.8441640000000004,0.0,0.0,0.0,1.8441640000000004,0.0,0.0,0.0,4.264225,2
1729403447.0105622,2624,1729403446,929355648,base_link,0,1,33.6978135,73.0165224,508.88961995325263,1.8441640000000004,0.0,0.0,0.0,1.8441640000000004,0.0,0.0,0.0,4.264225,2
1729403447.1080775,2625,1729403446,929356416,base_link,0,1,33.6978135,73.0165224,508.88961995325263,1.8441640000000004,0.0,0.0,0.0,1.8441640000000004,0.0,0.0,0.0,4.264225,2
1729403447.2081146,2626,1729403447,129356928,base_link,0,1,33.6978134,73.0165223,508.8696188594977,1.8441640000000004,0.0,0.0,0.0,1.8441640000000004,0.0,0.0,0.0,4.260096,2
1729403447.3081093,2627,1729403447,129356160,base_link,0,1,33.6978134,73.0165223,508.8696188594977,1.8441640000000004,0.0,0.0,0.0,1.8441640000000004,0.0,0.0,0.0,4.260096,2
1729403447.4082441,2628,1729403447,329355136,base_link,0,1,33.6978134,73.0165222,508.87961843211986,1.841449,0.0,0.0,0.0,1.841449,0.0,0.0,0.0,4.260096,2
1729403447.5105095,2629,1729403447,329354368,base_link,0,1,33.6978134,73.0165222,508.87961843211986,1.841449,0.0,0.0,0.0,1.841449,0.0,0.0,0.0,4.260096,2
1729403447.6082501,2630,1729403447,529353856,base_link,0,1,33.6978133,73.016522,508.84961691098744,1.841449,0.0,0.0,0.0,1.841449,0.0,0.0,0.0,4.260096,2
1729403447.708392,2631,1729403447,529352832,base_link,0,1,33.6978133,73.016522,508.84961691098744,1.841449,0.0,0.0,0.0,1.841449,0.0,0.0,0.0,4.260096,2
1729403447.807814,2632,1729403447,729352064,base_link,0,1,33.6978133,73.0165219,508.83961648360986,1.841449,0.0,0.0,0.0,1.841449,0.0,0.0,0.0,4.260096,2
