Time,header.seq,header.stamp.secs,header.stamp.nsecs,header.frame_id,child_frame_id,pose.pose.position.x,pose.pose.position.y,pose.pose.position.z,pose.pose.orientation.x,pose.pose.orientation.y,pose.pose.orientation.z,pose.pose.orientation.w,pose.covariance,twist.twist.linear.x,twist.twist.linear.y,twist.twist.linear.z,twist.twist.angular.x,twist.twist.angular.y,twist.twist.angular.z,twist.covariance
1729403414.559972,2277,1729403412,299799040,map,base_link,0.8344628048449303,-4.33720249282435,0.039,-0.0066864205328061805,-0.002306486239201487,-0.2391643380435433,-0.970953341469033,"(1.623076, 0.0, 0.0, 0.0, 0.0, 0.0, 0.0, 1.623076, 0.0, 0.0, 0.0, 0.0, 0.0, 0.0, 3.629025, 0.0, 0.0, 0.0, 0.0, 0.0, 0.0, 99999.0, 0.0, 0.0, 0.0, 0.0, 0.0, 0.0, 99999.0, 0.0, 0.0, 0.0, 0.0, 0.0, 0.0, 99999.0)",-0.01,-0.03,0.03,0.0,0.0,0.0,"(-1.0, 0.0, 0.0, 0.0, 0.0, 0.0, 0.0, 0.0, 0.0, 0.0, 0.0, 0.0, 0.0, 0.0, 0.0, 0.0, 0.0, 0.0, 0.0, 0.0, 0.0, 0.0, 0.0, 0.0, 0.0, 0.0, 0.0, 0.0, 0.0, 0.0, 0.0, 0.0, 0.0, 0.0, 0.0, 0.0)"
1729403414.560055,2278,1729403412,399795968,map,base_link,0.843734614300523,-4.34829508180189,0.037,-0.006664155145872746,-0.002336872853769593,-0.23914132462192206,-0.9709590902399181,"(1.623076, 0.0, 0.0, 0.0, 0.0, 0.0, 0.0, 1.623076, 0.0, 0.0, 0.0, 0.0, 0.0, 0.0, 3.629025, 0.0, 0.0, 0.0, 0.0, 0.0, 0.0, 99999.0, 0.0, 0.0, 0.0, 0.0, 0.0, 0.0, 99999.0, 0.0, 0.0, 0.0, 0.0, 0.0, 0.0, 99999.0)",-0.01,-0.03,0.03,0.0,0.0,0.0,"(-1.0, 0.0, 0.0, 0.0, 0.0, 0.0, 0.0, 0.0, 0.0, 0.0, 0.0, 0.0, 0.0, 0.0, 0.0, 0.0, 0.0, 0.0, 0.0, 0.0, 0.0, 0.0, 0.0, 0.0, 0.0, 0.0, 0.0, 0.0, 0.0, 0.0, 0.0, 0.0, 0.0, 0.0, 0.0, 0.0)"
1729403414.5601013,2279,1729403412,499792896,map,base_link,0.843734614300523,-4.34829508180189,0.031,-0.006649550424071913,-0.002340901665370588,-0.23910345242683229,-0.9709685075717545,"(1.640961, 0.0, 0.0, 0.0, 0.0, 0.0, 0.0, 1.640961, 0.0, 0.0, 0.0, 0.0, 0.0, 0.0, 3.6633959999999997, 0.0, 0.0, 0.0, 0.0, 0.0, 0.0, 99999.0, 0.0, 0.0, 0.0, 0.0, 0.0, 0.0, 99999.0, 0.0, 0.0, 0.0, 0.0, 0.0, 0.0, 99999.0)",-0.01,-0.03,0.03,0.0,0.0,0.0,"(-1.0, 0.0, 0.0, 0.0, 0.0, 0.0, 0.0, 0.0, 0.0, 0.0, 0.0, 0.0, 0.0, 0.0, 0.0, 0.0, 0.0, 0.0, 0.0, 0.0, 0.0, 0.0, 0.0, 0.0, 0.0, 0.0, 0.0, 0.0, 0.0, 0.0, 0.0, 0.0, 0.0, 0.0, 0.0, 0.0)"
1729403414.5601532,2280,1729403412,599789824,map,base_link,0.843734612150206,-4.33720248456732,0.028,-0.006636997807701679,-0.0023838768129916033,-0.2390315501296888,-0.9709861921953573,"(1.640961, 0.0, 0.0, 0.0, 0.0, 0.0, 0.0, 1.640961, 0.0, 0.0, 0.0, 0.0, 0.0, 0.0, 3.6633959999999997, 0.0, 0.0, 0.0, 0.0, 0.0, 0.0, 99999.0, 0.0, 0.0, 0.0, 0.0, 0.0, 0.0, 99999.0, 0.0, 0.0, 0.0, 0.0, 0.0, 0.0, 99999.0)",-0.01,-0.02,0.03,0.0,0.0,0.0,"(-1.0, 0.0, 0.0, 0.0, 0.0, 0.0, 0.0, 0.0, 0.0, 0.0, 0.0, 0.0, 0.0, 0.0, 0.0, 0.0, 0.0, 0.0, 0.0, 0.0, 0.0, 0.0, 0.0, 0.0, 0.0, 0.0, 0.0, 0.0, 0.0, 0.0, 0.0, 0.0, 0.0, 0.0, 0.0, 0.0)"
1729403414.5602815,2281,1729403412,699787264,map,base_link,0.843734612150206,-4.33720248456732,0.029,-0.00661737333157766,-0.002428327104106005,-0.2389399612502418,-0.9710087582073598,"(1.6563689999999998, 0.0, 0.0, 0.0, 0.0, 0.0, 0.0, 1.6563689999999998, 0.0, 0.0, 0.0, 0.0, 0.0, 0.0, 3.6940839999999997, 0.0, 0.0, 0.0, 0.0, 0.0, 0.0, 99999.0, 0.0, 0.0, 0.0, 0.0, 0.0, 0.0, 99999.0, 0.0, 0.0, 0.0, 0.0, 0.0, 0.0, 99999.0)",-0.01,-0.02,0.03,0.0,0.0,0.0,"(-1.0, 0.0, 0.0, 0.0, 0.0, 0.0, 0.0, 0.0, 0.0, 0.0, 0.0, 0.0, 0.0, 0.0, 0.0, 0.0, 0.0, 0.0, 0.0, 0.0, 0.0, 0.0, 0.0, 0.0, 0.0, 0.0, 0.0, 0.0, 0.0, 0.0, 0.0, 0.0, 0.0, 0.0, 0.0, 0.0)"
1729403414.5605245,2282,1729403412,799784192,map,base_link,0.8437346134303644,-4.337202491749787,0.032,-0.006622552837599958,-0.0024392444914390268,-0.23888616468866392,-0.971021931884427,"(1.6563689999999998, 0.0, 0.0, 0.0, 0.0, 0.0, 0.0, 1.6563689999999998, 0.0, 0.0, 0.0, 0.0, 0.0, 0.0, 3.6940839999999997, 0.0, 0.0, 0.0, 0.0, 0.0, 0.0, 99999.0, 0.0, 0.0, 0.0, 0.0, 0.0, 0.0, 99999.0, 0.0, 0.0, 0.0, 0.0, 0.0, 0.0, 99999.0)",0.0,-0.02,0.02,0.0,0.0,0.0,"(-1.0, 0.0, 0.0, 0.0, 0.0, 0.0, 0.0, 0.0, 0.0, 0.0, 0.0, 0.0, 0.0, 0.0, 0.0, 0.0, 0.0, 0.0, 0.0, 0.0, 0.0, 0.0, 0.0, 0.0, 0.0, 0.0, 0.0, 0.0, 0.0, 0.0, 0.0, 0.0, 0.0, 0.0, 0.0, 0.0)"
1729403414.5606723,2283,1729403412,899781632,map,base_link,0.8437346134303644,-4.337202491749787,0.038,-0.006611773303754791,-0.002414678919675158,-0.23887367724745245,-0.9710251387568576,"(1.671849, 0.0, 0.0, 0.0, 0.0, 0.0, 0.0, 1.671849, 0.0, 0.0, 0.0, 0.0, 0.0, 0.0, 3.728761, 0.0, 0.0, 0.0, 0.0, 0.0, 0.0, 99999.0, 0.0, 0.0, 0.0, 0.0, 0.0, 0.0, 99999.0, 0.0, 0.0, 0.0, 0.0, 0.0, 0.0, 99999.0)",0.0,-0.02,0.02,0.0,0.0,0.0,"(-1.0, 0.0, 0.0, 0.0, 0.0, 0.0, 0.0, 0.0, 0.0, 0.0, 0.0, 0.0, 0.0, 0.0, 0.0, 0.0, 0.0, 0.0, 0.0, 0.0, 0.0, 0.0, 0.0, 0.0, 0.0, 0.0, 0.0, 0.0, 0.0, 0.0, 0.0, 0.0, 0.0, 0.0, 0.0, 0.0)"
1729403414.561378,2284,1729403412,999779072,map,base_link,0.8437346146118049,-4.3372024978684385,0.043,-0.006592351545019986,-0.002416241155561797,-0.23888473413573585,-0.9710225468425973,"(1.671849, 0.0, 0.0, 0.0, 0.0, 0.0, 0.0, 1.671849, 0.0, 0.0, 0.0, 0.0, 0.0, 0.0, 3.728761, 0.0, 0.0, 0.0, 0.0, 0.0, 0.0, 99999.0, 0.0, 0.0, 0.0, 0.0, 0.0, 0.0, 99999.0, 0.0, 0.0, 0.0, 0.0, 0.0, 0.0, 99999.0)",0.0,-0.02,0.02,0.0,0.0,0.0,"(-1.0, 0.0, 0.0, 0.0, 0.0, 0.0, 0.0, 0.0, 0.0, 0.0, 0.0, 0.0, 0.0, 0.0, 0.0, 0.0, 0.0, 0.0, 0.0, 0.0, 0.0, 0.0, 0.0, 0.0, 0.0, 0.0, 0.0, 0.0, 0.0, 0.0, 0.0, 0.0, 0.0, 0.0, 0.0, 0.0)"
1729403414.561511,2285,1729403413,99776768,map,base_link,0.8437346155806813,-4.348295088984357,0.045,-0.006598912499603068,-0.0024213917938514613,-0.23890078250349056,-0.9710185411900347,"(1.6822089999999998, 0.0, 0.0, 0.0, 0.0, 0.0, 0.0, 1.6822089999999998, 0.0, 0.0, 0.0, 0.0, 0.0, 0.0, 3.7519690000000003, 0.0, 0.0, 0.0, 0.0, 0.0, 0.0, 99999.0, 0.0, 0.0, 0.0, 0.0, 0.0, 0.0, 99999.0, 0.0, 0.0, 0.0, 0.0, 0.0, 0.0, 99999.0)",0.0,-0.02,0.02,0.0,0.0,0.0,"(-1.0, 0.0, 0.0, 0.0, 0.0, 0.0, 0.0, 0.0, 0.0, 0.0, 0.0, 0.0, 0.0, 0.0, 0.0, 0.0, 0.0, 0.0, 0.0, 0.0, 0.0, 0.0, 0.0, 0.0, 0.0, 0.0, 0.0, 0.0, 0.0, 0.0, 0.0, 0.0, 0.0, 0.0, 0.0, 0.0)"
1729403414.561635,2286,1729403413,199774464,map,base_link,0.8437346155806813,-4.348295088984357,0.048,-0.006592521391000726,-0.002401996181928945,-0.2388795713591499,-0.9710238511299917,"(1.6822089999999998, 0.0, 0.0, 0.0, 0.0, 0.0, 0.0, 1.6822089999999998, 0.0, 0.0, 0.0, 0.0, 0.0, 0.0, 3.7519690000000003, 0.0, 0.0, 0.0, 0.0, 0.0, 0.0, 99999.0, 0.0, 0.0, 0.0, 0.0, 0.0, 0.0, 99999.0, 0.0, 0.0, 0.0, 0.0, 0.0, 0.0, 99999.0)",0.0,-0.02,0.02,0.0,0.0,0.0,"(-1.0, 0.0, 0.0, 0.0, 0.0, 0.0, 0.0, 0.0, 0.0, 0.0, 0.0, 0.0, 0.0, 0.0, 0.0, 0.0, 0.0, 0.0, 0.0, 0.0, 0.0, 0.0, 0.0, 0.0, 0.0, 0.0, 0.0, 0.0, 0.0, 0.0, 0.0, 0.0, 0.0, 0.0, 0.0, 0.0)"
1729403414.5617478,2287,1729403413,299772416,map,base_link,0.8437346170341575,-4.348295095597184,0.054,-0.006598006528491123,-0.002411560842032861,-0.2388443640136943,-0.9710324507775469,"(1.6926009999999998, 0.0, 0.0, 0.0, 0.0, 0.0, 0.0, 1.6926009999999998, 0.0, 0.0, 0.0, 0.0, 0.0, 0.0, 3.7713639999999997, 0.0, 0.0, 0.0, 0.0, 0.0, 0.0, 99999.0, 0.0, 0.0, 0.0, 0.0, 0.0, 0.0, 99999.0, 0.0, 0.0, 0.0, 0.0, 0.0, 0.0, 99999.0)",0.0,-0.02,0.02,0.0,0.0,0.0,"(-1.0, 0.0, 0.0, 0.0, 0.0, 0.0, 0.0, 0.0, 0.0, 0.0, 0.0, 0.0, 0.0, 0.0, 0.0, 0.0, 0.0, 0.0, 0.0, 0.0, 0.0, 0.0, 0.0, 0.0, 0.0, 0.0, 0.0, 0.0, 0.0, 0.0, 0.0, 0.0, 0.0, 0.0, 0.0, 0.0)"
1729403414.561892,2288,1729403413,399770880,map,base_link,0.843734618264957,-4.348295102247742,0.06,-0.006587745950212893,-0.0024201327553348743,-0.2387651842455477,-0.971051971499431,"(1.6926009999999998, 0.0, 0.0, 0.0, 0.0, 0.0, 0.0, 1.6926009999999998, 0.0, 0.0, 0.0, 0.0, 0.0, 0.0, 3.7713639999999997, 0.0, 0.0, 0.0, 0.0, 0.0, 0.0, 99999.0, 0.0, 0.0, 0.0, 0.0, 0.0, 0.0, 99999.0, 0.0, 0.0, 0.0, 0.0, 0.0, 0.0, 99999.0)",0.0,-0.02,0.01,0.0,0.0,0.0,"(-1.0, 0.0, 0.0, 0.0, 0.0, 0.0, 0.0, 0.0, 0.0, 0.0, 0.0, 0.0, 0.0, 0.0, 0.0, 0.0, 0.0, 0.0, 0.0, 0.0, 0.0, 0.0, 0.0, 0.0, 0.0, 0.0, 0.0, 0.0, 0.0, 0.0, 0.0, 0.0, 0.0, 0.0, 0.0, 0.0)"
1729403414.5621626,2289,1729403413,499768320,map,base_link,0.8437346205392329,-4.359387697218508,0.071,-0.0065919612059333246,-0.00242942906465955,-0.2386956540867704,-0.9710690133260189,"(1.7030249999999998, 0.0, 0.0, 0.0, 0.0, 0.0, 0.0, 1.7030249999999998, 0.0, 0.0, 0.0, 0.0, 0.0, 0.0, 3.794704, 0.0, 0.0, 0.0, 0.0, 0.0, 0.0, 99999.0, 0.0, 0.0, 0.0, 0.0, 0.0, 0.0, 99999.0, 0.0, 0.0, 0.0, 0.0, 0.0, 0.0, 99999.0)",0.0,-0.02,0.01,0.0,0.0,0.0,"(-1.0, 0.0, 0.0, 0.0, 0.0, 0.0, 0.0, 0.0, 0.0, 0.0, 0.0, 0.0, 0.0, 0.0, 0.0, 0.0, 0.0, 0.0, 0.0, 0.0, 0.0, 0.0, 0.0, 0.0, 0.0, 0.0, 0.0, 0.0, 0.0, 0.0, 0.0, 0.0, 0.0, 0.0, 0.0, 0.0)"
1729403414.5635712,2290,1729403413,599766016,map,base_link,0.843734622042068,-4.359387704750662,0.085,-0.006561741287866352,-0.0024476197477925144,-0.23868095541378714,-0.9710727852388837,"(1.7030249999999998, 0.0, 0.0, 0.0, 0.0, 0.0, 0.0, 1.7030249999999998, 0.0, 0.0, 0.0, 0.0, 0.0, 0.0, 3.794704, 0.0, 0.0, 0.0, 0.0, 0.0, 0.0, 99999.0, 0.0, 0.0, 0.0, 0.0, 0.0, 0.0, 99999.0, 0.0, 0.0, 0.0, 0.0, 0.0, 0.0, 99999.0)",0.0,-0.02,0.01,0.0,0.0,0.0,"(-1.0, 0.0, 0.0, 0.0, 0.0, 0.0, 0.0, 0.0, 0.0, 0.0, 0.0, 0.0, 0.0, 0.0, 0.0, 0.0, 0.0, 0.0, 0.0, 0.0, 0.0, 0.0, 0.0, 0.0, 0.0, 0.0, 0.0, 0.0, 0.0, 0.0, 0.0, 0.0, 0.0, 0.0, 0.0, 0.0)"
1729403414.563729,2291,1729403413,699763456,map,base_link,0.8344628145141156,-4.359387712270587,0.095,-0.00652392834957219,-0.0024611630099435015,-0.23868788766139776,-0.971071301871942,"(1.7108640000000002, 0.0, 0.0, 0.0, 0.0, 0.0, 0.0, 1.7108640000000002, 0.0, 0.0, 0.0, 0.0, 0.0, 0.0, 3.8142090000000004, 0.0, 0.0, 0.0, 0.0, 0.0, 0.0, 99999.0, 0.0, 0.0, 0.0, 0.0, 0.0, 0.0, 99999.0, 0.0, 0.0, 0.0, 0.0, 0.0, 0.0, 99999.0)",0.0,-0.02,0.01,0.0,0.0,0.0,"(-1.0, 0.0, 0.0, 0.0, 0.0, 0.0, 0.0, 0.0, 0.0, 0.0, 0.0, 0.0, 0.0, 0.0, 0.0, 0.0, 0.0, 0.0, 0.0, 0.0, 0.0, 0.0, 0.0, 0.0, 0.0, 0.0, 0.0, 0.0, 0.0, 0.0, 0.0, 0.0, 0.0, 0.0, 0.0, 0.0)"
1729403414.563972,2292,1729403413,799761152,map,base_link,0.8344628159675918,-4.359387718883415,0.102,-0.006491457407532804,-0.0024827528052205816,-0.23869151677321887,-0.971070572481596,"(1.7108640000000002, 0.0, 0.0, 0.0, 0.0, 0.0, 0.0, 1.7108640000000002, 0.0, 0.0, 0.0, 0.0, 0.0, 0.0, 3.8142090000000004, 0.0, 0.0, 0.0, 0.0, 0.0, 0.0, 99999.0, 0.0, 0.0, 0.0, 0.0, 0.0, 0.0, 99999.0, 0.0, 0.0, 0.0, 0.0, 0.0, 0.0, 99999.0)",0.0,-0.01,0.0,0.0,0.0,0.0,"(-1.0, 0.0, 0.0, 0.0, 0.0, 0.0, 0.0, 0.0, 0.0, 0.0, 0.0, 0.0, 0.0, 0.0, 0.0, 0.0, 0.0, 0.0, 0.0, 0.0, 0.0, 0.0, 0.0, 0.0, 0.0, 0.0, 0.0, 0.0, 0.0, 0.0, 0.0, 0.0, 0.0, 0.0, 0.0, 0.0)"
1729403414.5641992,2293,1729403413,899758848,map,base_link,0.8437346245530258,-4.35938771819627,0.105,-0.006494301794362864,-0.0025057068540355856,-0.2386842272729739,-0.9710722862529177,"(1.718721, 0.0, 0.0, 0.0, 0.0, 0.0, 0.0, 1.718721, 0.0, 0.0, 0.0, 0.0, 0.0, 0.0, 3.825936, 0.0, 0.0, 0.0, 0.0, 0.0, 0.0, 99999.0, 0.0, 0.0, 0.0, 0.0, 0.0, 0.0, 99999.0, 0.0, 0.0, 0.0, 0.0, 0.0, 0.0, 99999.0)",0.0,-0.01,0.0,0.0,0.0,0.0,"(-1.0, 0.0, 0.0, 0.0, 0.0, 0.0, 0.0, 0.0, 0.0, 0.0, 0.0, 0.0, 0.0, 0.0, 0.0, 0.0, 0.0, 0.0, 0.0, 0.0, 0.0, 0.0, 0.0, 0.0, 0.0, 0.0, 0.0, 0.0, 0.0, 0.0, 0.0, 0.0, 0.0, 0.0, 0.0, 0.0)"
1729403414.5650198,2294,1729403413,999756288,map,base_link,0.8437346245530258,-4.35938771819627,0.107,-0.006505624785131353,-0.002528910664653079,-0.23867785479421055,-0.9710737166084966,"(1.718721, 0.0, 0.0, 0.0, 0.0, 0.0, 0.0, 1.718721, 0.0, 0.0, 0.0, 0.0, 0.0, 0.0, 3.825936, 0.0, 0.0, 0.0, 0.0, 0.0, 0.0, 99999.0, 0.0, 0.0, 0.0, 0.0, 0.0, 0.0, 99999.0, 0.0, 0.0, 0.0, 0.0, 0.0, 0.0, 99999.0)",0.0,-0.01,0.0,0.0,0.0,0.0,"(-1.0, 0.0, 0.0, 0.0, 0.0, 0.0, 0.0, 0.0, 0.0, 0.0, 0.0, 0.0, 0.0, 0.0, 0.0, 0.0, 0.0, 0.0, 0.0, 0.0, 0.0, 0.0, 0.0, 0.0, 0.0, 0.0, 0.0, 0.0, 0.0, 0.0, 0.0, 0.0, 0.0, 0.0, 0.0, 0.0)"
1729403414.5659125,2295,1729403414,99753728,map,base_link,0.8437346260558609,-4.359387725341006,0.111,-0.006498316004623637,-0.0025394781639415088,-0.23861561603560355,-0.9710890333659981,"(1.7265960000000002, 0.0, 0.0, 0.0, 0.0, 0.0, 0.0, 1.7265960000000002, 0.0, 0.0, 0.0, 0.0, 0.0, 0.0, 3.845521, 0.0, 0.0, 0.0, 0.0, 0.0, 0.0, 99999.0, 0.0, 0.0, 0.0, 0.0, 0.0, 0.0, 99999.0, 0.0, 0.0, 0.0, 0.0, 0.0, 0.0, 99999.0)",0.0,-0.01,0.0,0.0,0.0,0.0,"(-1.0, 0.0, 0.0, 0.0, 0.0, 0.0, 0.0, 0.0, 0.0, 0.0, 0.0, 0.0, 0.0, 0.0, 0.0, 0.0, 0.0, 0.0, 0.0, 0.0, 0.0, 0.0, 0.0, 0.0, 0.0, 0.0, 0.0, 0.0, 0.0, 0.0, 0.0, 0.0, 0.0, 0.0, 0.0, 0.0)"
1729403414.5659502,2296,1729403414,199751424,map,base_link,0.8437346260558609,-4.359387725341006,0.115,-0.006491109660605733,-0.002562072986752915,-0.23847323210275417,-0.9711239976686039,"(1.7265960000000002, 0.0, 0.0, 0.0, 0.0, 0.0, 0.0, 1.7265960000000002, 0.0, 0.0, 0.0, 0.0, 0.0, 0.0, 3.845521, 0.0, 0.0, 0.0, 0.0, 0.0, 0.0, 99999.0, 0.0, 0.0, 0.0, 0.0, 0.0, 0.0, 99999.0, 0.0, 0.0, 0.0, 0.0, 0.0, 0.0, 99999.0)",0.0,-0.01,0.0,0.0,0.0,0.0,"(-1.0, 0.0, 0.0, 0.0, 0.0, 0.0, 0.0, 0.0, 0.0, 0.0, 0.0, 0.0, 0.0, 0.0, 0.0, 0.0, 0.0, 0.0, 0.0, 0.0, 0.0, 0.0, 0.0, 0.0, 0.0, 0.0, 0.0, 0.0, 0.0, 0.0, 0.0, 0.0, 0.0, 0.0, 0.0, 0.0)"
1729403414.5659947,2297,1729403414,299749120,map,base_link,0.8437346260558609,-4.359387725341006,0.119,-0.0064694186234272285,-0.002561176568286871,-0.2383594508753275,-0.9711520782944725,"(1.739761, 0.0, 0.0, 0.0, 0.0, 0.0, 0.0, 1.739761, 0.0, 0.0, 0.0, 0.0, 0.0, 0.0, 3.8809, 0.0, 0.0, 0.0, 0.0, 0.0, 0.0, 99999.0, 0.0, 0.0, 0.0, 0.0, 0.0, 0.0, 99999.0, 0.0, 0.0, 0.0, 0.0, 0.0, 0.0, 99999.0)",0.0,-0.01,0.0,0.0,0.0,0.0,"(-1.0, 0.0, 0.0, 0.0, 0.0, 0.0, 0.0, 0.0, 0.0, 0.0, 0.0, 0.0, 0.0, 0.0, 0.0, 0.0, 0.0, 0.0, 0.0, 0.0, 0.0, 0.0, 0.0, 0.0, 0.0, 0.0, 0.0, 0.0, 0.0, 0.0, 0.0, 0.0, 0.0, 0.0, 0.0, 0.0)"
1729403414.566214,2298,1729403414,399746048,map,base_link,0.8437346270146248,-4.35938773149739,0.122,-0.0064544134771984014,-0.0025801342400002046,-0.23828557477743556,-0.9711702571161023,"(1.739761, 0.0, 0.0, 0.0, 0.0, 0.0, 0.0, 1.739761, 0.0, 0.0, 0.0, 0.0, 0.0, 0.0, 3.8809, 0.0, 0.0, 0.0, 0.0, 0.0, 0.0, 99999.0, 0.0, 0.0, 0.0, 0.0, 0.0, 0.0, 99999.0, 0.0, 0.0, 0.0, 0.0, 0.0, 0.0, 99999.0)",0.0,-0.01,0.0,0.0,0.0,0.0,"(-1.0, 0.0, 0.0, 0.0, 0.0, 0.0, 0.0, 0.0, 0.0, 0.0, 0.0, 0.0, 0.0, 0.0, 0.0, 0.0, 0.0, 0.0, 0.0, 0.0, 0.0, 0.0, 0.0, 0.0, 0.0, 0.0, 0.0, 0.0, 0.0, 0.0, 0.0, 0.0, 0.0, 0.0, 0.0, 0.0)"
1729403414.566501,2299,1729403414,499743744,map,base_link,0.8437346270146248,-4.35938773149739,0.125,-0.006447326222366003,-0.002604778675407738,-0.23823370495986218,-0.9711829636756051,"(1.7582760000000002, 0.0, 0.0, 0.0, 0.0, 0.0, 0.0, 1.7582760000000002, 0.0, 0.0, 0.0, 0.0, 0.0, 0.0, 3.9204, 0.0, 0.0, 0.0, 0.0, 0.0, 0.0, 99999.0, 0.0, 0.0, 0.0, 0.0, 0.0, 0.0, 99999.0, 0.0, 0.0, 0.0, 0.0, 0.0, 0.0, 99999.0)",0.0,0.0,0.0,0.0,0.0,0.0,"(-1.0, 0.0, 0.0, 0.0, 0.0, 0.0, 0.0, 0.0, 0.0, 0.0, 0.0, 0.0, 0.0, 0.0, 0.0, 0.0, 0.0, 0.0, 0.0, 0.0, 0.0, 0.0, 0.0, 0.0, 0.0, 0.0, 0.0, 0.0, 0.0, 0.0, 0.0, 0.0, 0.0, 0.0, 0.0, 0.0)"
1729403414.6018848,2300,1729403414,599741440,map,base_link,0.8437346270146248,-4.35938773149739,0.127,-0.006451302601580949,-0.002632958443655781,-0.23821670613447404,-0.9711870309796247,"(1.7582760000000002, 0.0, 0.0, 0.0, 0.0, 0.0, 0.0, 1.7582760000000002, 0.0, 0.0, 0.0, 0.0, 0.0, 0.0, 3.9204, 0.0, 0.0, 0.0, 0.0, 0.0, 0.0, 99999.0, 0.0, 0.0, 0.0, 0.0, 0.0, 0.0, 99999.0, 0.0, 0.0, 0.0, 0.0, 0.0, 0.0, 99999.0)",0.0,0.0,0.0,0.0,0.0,0.0,"(-1.0, 0.0, 0.0, 0.0, 0.0, 0.0, 0.0, 0.0, 0.0, 0.0, 0.0, 0.0, 0.0, 0.0, 0.0, 0.0, 0.0, 0.0, 0.0, 0.0, 0.0, 0.0, 0.0, 0.0, 0.0, 0.0, 0.0, 0.0, 0.0, 0.0, 0.0, 0.0, 0.0, 0.0, 0.0, 0.0)"
1729403414.7016246,2301,1729403414,699739392,map,base_link,0.8437346275233424,-4.3482951500789895,0.132,-0.006416554886063366,-0.002637404323293976,-0.23821091607614908,-0.9711886693037515,"(1.7689000000000001, 0.0, 0.0, 0.0, 0.0, 0.0, 0.0, 1.7689000000000001, 0.0, 0.0, 0.0, 0.0, 0.0, 0.0, 3.9402250000000003, 0.0, 0.0, 0.0, 0.0, 0.0, 0.0, 99999.0, 0.0, 0.0, 0.0, 0.0, 0.0, 0.0, 99999.0, 0.0, 0.0, 0.0, 0.0, 0.0, 0.0, 99999.0)",0.0,0.0,0.0,0.0,0.0,0.0,"(-1.0, 0.0, 0.0, 0.0, 0.0, 0.0, 0.0, 0.0, 0.0, 0.0, 0.0, 0.0, 0.0, 0.0, 0.0, 0.0, 0.0, 0.0, 0.0, 0.0, 0.0, 0.0, 0.0, 0.0, 0.0, 0.0, 0.0, 0.0, 0.0, 0.0, 0.0, 0.0, 0.0, 0.0, 0.0, 0.0)"
1729403414.8015385,2302,1729403414,799737088,map,base_link,0.8437346287541418,-4.348295156729549,0.14,-0.006398270003086027,-0.0026401477411406487,-0.23818017304915928,-0.9711963225461397,"(1.7689000000000001, 0.0, 0.0, 0.0, 0.0, 0.0, 0.0, 1.7689000000000001, 0.0, 0.0, 0.0, 0.0, 0.0, 0.0, 3.9402250000000003, 0.0, 0.0, 0.0, 0.0, 0.0, 0.0, 99999.0, 0.0, 0.0, 0.0, 0.0, 0.0, 0.0, 99999.0, 0.0, 0.0, 0.0, 0.0, 0.0, 0.0, 99999.0)",0.0,0.0,0.0,0.0,0.0,0.0,"(-1.0, 0.0, 0.0, 0.0, 0.0, 0.0, 0.0, 0.0, 0.0, 0.0, 0.0, 0.0, 0.0, 0.0, 0.0, 0.0, 0.0, 0.0, 0.0, 0.0, 0.0, 0.0, 0.0, 0.0, 0.0, 0.0, 0.0, 0.0, 0.0, 0.0, 0.0, 0.0, 0.0, 0.0, 0.0, 0.0)"
1729403414.9017203,2303,1729403414,899734528,map,base_link,0.8437346303063358,-4.348295164018774,0.151,-0.00641316397120211,-0.0026359103111652277,-0.2381455717725917,-0.9712047209264457,"(1.776889, 0.0, 0.0, 0.0, 0.0, 0.0, 0.0, 1.776889, 0.0, 0.0, 0.0, 0.0, 0.0, 0.0, 3.9601, 0.0, 0.0, 0.0, 0.0, 0.0, 0.0, 99999.0, 0.0, 0.0, 0.0, 0.0, 0.0, 0.0, 99999.0, 0.0, 0.0, 0.0, 0.0, 0.0, 0.0, 99999.0)",0.0,0.0,0.0,0.0,0.0,0.0,"(-1.0, 0.0, 0.0, 0.0, 0.0, 0.0, 0.0, 0.0, 0.0, 0.0, 0.0, 0.0, 0.0, 0.0, 0.0, 0.0, 0.0, 0.0, 0.0, 0.0, 0.0, 0.0, 0.0, 0.0, 0.0, 0.0, 0.0, 0.0, 0.0, 0.0, 0.0, 0.0, 0.0, 0.0, 0.0, 0.0)"
1729403415.0021918,2304,1729403414,999732224,map,base_link,0.8437346313144586,-4.348295170707066,0.16,-0.0064029660536934286,-0.002617001954830566,-0.23806843431724634,-0.971223750691991,"(1.776889, 0.0, 0.0, 0.0, 0.0, 0.0, 0.0, 1.776889, 0.0, 0.0, 0.0, 0.0, 0.0, 0.0, 3.9601, 0.0, 0.0, 0.0, 0.0, 0.0, 0.0, 99999.0, 0.0, 0.0, 0.0, 0.0, 0.0, 0.0, 99999.0, 0.0, 0.0, 0.0, 0.0, 0.0, 0.0, 99999.0)",0.0,0.0,0.0,0.0,0.0,0.0,"(-1.0, 0.0, 0.0, 0.0, 0.0, 0.0, 0.0, 0.0, 0.0, 0.0, 0.0, 0.0, 0.0, 0.0, 0.0, 0.0, 0.0, 0.0, 0.0, 0.0, 0.0, 0.0, 0.0, 0.0, 0.0, 0.0, 0.0, 0.0, 0.0, 0.0, 0.0, 0.0, 0.0, 0.0, 0.0, 0.0)"
1729403415.1019824,2305,1729403415,99729920,map,base_link,0.8437346313144586,-4.348295170707066,0.164,-0.006394119520434668,-0.002604012329445329,-0.2379856926858781,-0.9712441219550156,"(1.7848960000000003, 0.0, 0.0, 0.0, 0.0, 0.0, 0.0, 1.7848960000000003, 0.0, 0.0, 0.0, 0.0, 0.0, 0.0, 3.976036, 0.0, 0.0, 0.0, 0.0, 0.0, 0.0, 99999.0, 0.0, 0.0, 0.0, 0.0, 0.0, 0.0, 99999.0, 0.0, 0.0, 0.0, 0.0, 0.0, 0.0, 99999.0)",0.0,0.0,0.0,0.0,0.0,0.0,"(-1.0, 0.0, 0.0, 0.0, 0.0, 0.0, 0.0, 0.0, 0.0, 0.0, 0.0, 0.0, 0.0, 0.0, 0.0, 0.0, 0.0, 0.0, 0.0, 0.0, 0.0, 0.0, 0.0, 0.0, 0.0, 0.0, 0.0, 0.0, 0.0, 0.0, 0.0, 0.0, 0.0, 0.0, 0.0, 0.0)"
1729403415.2022889,2306,1729403415,199727616,map,base_link,0.8530064412359525,-4.348295169793527,0.164,-0.006375954668926476,-0.0026168251237063548,-0.23794885319578346,-0.9712532330402526,"(1.7848960000000003, 0.0, 0.0, 0.0, 0.0, 0.0, 0.0, 1.7848960000000003, 0.0, 0.0, 0.0, 0.0, 0.0, 0.0, 3.976036, 0.0, 0.0, 0.0, 0.0, 0.0, 0.0, 99999.0, 0.0, 0.0, 0.0, 0.0, 0.0, 0.0, 99999.0, 0.0, 0.0, 0.0, 0.0, 0.0, 0.0, 99999.0)",0.0,0.0,0.0,0.0,0.0,0.0,"(-1.0, 0.0, 0.0, 0.0, 0.0, 0.0, 0.0, 0.0, 0.0, 0.0, 0.0, 0.0, 0.0, 0.0, 0.0, 0.0, 0.0, 0.0, 0.0, 0.0, 0.0, 0.0, 0.0, 0.0, 0.0, 0.0, 0.0, 0.0, 0.0, 0.0, 0.0, 0.0, 0.0, 0.0, 0.0, 0.0)"
1729403415.3017037,2307,1729403415,299725568,map,base_link,0.8530064412359525,-4.348295169793527,0.163,-0.006355232675743201,-0.0026207217601370188,-0.2379424754014713,-0.9712549208291885,"(1.792921, 0.0, 0.0, 0.0, 0.0, 0.0, 0.0, 1.792921, 0.0, 0.0, 0.0, 0.0, 0.0, 0.0, 3.992004, 0.0, 0.0, 0.0, 0.0, 0.0, 0.0, 99999.0, 0.0, 0.0, 0.0, 0.0, 0.0, 0.0, 99999.0, 0.0, 0.0, 0.0, 0.0, 0.0, 0.0, 99999.0)",0.0,0.0,0.0,0.0,0.0,0.0,"(-1.0, 0.0, 0.0, 0.0, 0.0, 0.0, 0.0, 0.0, 0.0, 0.0, 0.0, 0.0, 0.0, 0.0, 0.0, 0.0, 0.0, 0.0, 0.0, 0.0, 0.0, 0.0, 0.0, 0.0, 0.0, 0.0, 0.0, 0.0, 0.0, 0.0, 0.0, 0.0, 0.0, 0.0, 0.0, 0.0)"
1729403415.403053,2308,1729403415,399723776,map,base_link,0.8530064412359525,-4.348295169793527,0.162,-0.0063532764455629795,-0.00263151176783101,-0.2379481880724605,-0.9712535049189038,"(1.792921, 0.0, 0.0, 0.0, 0.0, 0.0, 0.0, 1.792921, 0.0, 0.0, 0.0, 0.0, 0.0, 0.0, 3.992004, 0.0, 0.0, 0.0, 0.0, 0.0, 0.0, 99999.0, 0.0, 0.0, 0.0, 0.0, 0.0, 0.0, 99999.0, 0.0, 0.0, 0.0, 0.0, 0.0, 0.0, 99999.0)",0.0,0.0,0.0,0.0,0.0,0.0,"(-1.0, 0.0, 0.0, 0.0, 0.0, 0.0, 0.0, 0.0, 0.0, 0.0, 0.0, 0.0, 0.0, 0.0, 0.0, 0.0, 0.0, 0.0, 0.0, 0.0, 0.0, 0.0, 0.0, 0.0, 0.0, 0.0, 0.0, 0.0, 0.0, 0.0, 0.0, 0.0, 0.0, 0.0, 0.0, 0.0)"
1729403415.5044978,2309,1729403415,499721216,map,base_link,0.8530064412359525,-4.348295169793527,0.162,-0.0063471443811490506,-0.0026407913333595058,-0.23794308945382275,-0.9712547689254908,"(1.8009640000000002, 0.0, 0.0, 0.0, 0.0, 0.0, 0.0, 1.8009640000000002, 0.0, 0.0, 0.0, 0.0, 0.0, 0.0, 4.012009000000001, 0.0, 0.0, 0.0, 0.0, 0.0, 0.0, 99999.0, 0.0, 0.0, 0.0, 0.0, 0.0, 0.0, 99999.0, 0.0, 0.0, 0.0, 0.0, 0.0, 0.0, 99999.0)",0.01,0.0,0.0,0.0,0.0,0.0,"(-1.0, 0.0, 0.0, 0.0, 0.0, 0.0, 0.0, 0.0, 0.0, 0.0, 0.0, 0.0, 0.0, 0.0, 0.0, 0.0, 0.0, 0.0, 0.0, 0.0, 0.0, 0.0, 0.0, 0.0, 0.0, 0.0, 0.0, 0.0, 0.0, 0.0, 0.0, 0.0, 0.0, 0.0, 0.0, 0.0)"
1729403415.6037674,2310,1729403415,599719168,map,base_link,0.8530064412359525,-4.348295169793527,0.161,-0.006323834562686198,-0.0026456098628823486,-0.23796866533501576,-0.9712486417923828,"(1.8009640000000002, 0.0, 0.0, 0.0, 0.0, 0.0, 0.0, 1.8009640000000002, 0.0, 0.0, 0.0, 0.0, 0.0, 0.0, 4.012009000000001, 0.0, 0.0, 0.0, 0.0, 0.0, 0.0, 99999.0, 0.0, 0.0, 0.0, 0.0, 0.0, 0.0, 99999.0, 0.0, 0.0, 0.0, 0.0, 0.0, 0.0, 99999.0)",0.01,0.0,0.0,0.0,0.0,0.0,"(-1.0, 0.0, 0.0, 0.0, 0.0, 0.0, 0.0, 0.0, 0.0, 0.0, 0.0, 0.0, 0.0, 0.0, 0.0, 0.0, 0.0, 0.0, 0.0, 0.0, 0.0, 0.0, 0.0, 0.0, 0.0, 0.0, 0.0, 0.0, 0.0, 0.0, 0.0, 0.0, 0.0, 0.0, 0.0, 0.0)"
1729403415.7022154,2311,1729403415,699717376,map,base_link,0.8622782500440632,-4.348295169068651,0.16,-0.00632104157469705,-0.002646025970485792,-0.23795552310059742,-0.9712518787656967,"(1.8090249999999999, 0.0, 0.0, 0.0, 0.0, 0.0, 0.0, 1.8090249999999999, 0.0, 0.0, 0.0, 0.0, 0.0, 0.0, 4.028049, 0.0, 0.0, 0.0, 0.0, 0.0, 0.0, 99999.0, 0.0, 0.0, 0.0, 0.0, 0.0, 0.0, 99999.0, 0.0, 0.0, 0.0, 0.0, 0.0, 0.0, 99999.0)",0.01,0.0,0.0,0.0,0.0,0.0,"(-1.0, 0.0, 0.0, 0.0, 0.0, 0.0, 0.0, 0.0, 0.0, 0.0, 0.0, 0.0, 0.0, 0.0, 0.0, 0.0, 0.0, 0.0, 0.0, 0.0, 0.0, 0.0, 0.0, 0.0, 0.0, 0.0, 0.0, 0.0, 0.0, 0.0, 0.0, 0.0, 0.0, 0.0, 0.0, 0.0)"
1729403415.8031278,2312,1729403415,799715584,map,base_link,0.8622782500440632,-4.348295169068651,0.161,-0.006317499299595685,-0.002653408357159142,-0.23792421011676324,-0.9712595527803081,"(1.8090249999999999, 0.0, 0.0, 0.0, 0.0, 0.0, 0.0, 1.8090249999999999, 0.0, 0.0, 0.0, 0.0, 0.0, 0.0, 4.028049, 0.0, 0.0, 0.0, 0.0, 0.0, 0.0, 99999.0, 0.0, 0.0, 0.0, 0.0, 0.0, 0.0, 99999.0, 0.0, 0.0, 0.0, 0.0, 0.0, 0.0, 99999.0)",0.01,0.0,0.0,0.0,0.0,0.0,"(-1.0, 0.0, 0.0, 0.0, 0.0, 0.0, 0.0, 0.0, 0.0, 0.0, 0.0, 0.0, 0.0, 0.0, 0.0, 0.0, 0.0, 0.0, 0.0, 0.0, 0.0, 0.0, 0.0, 0.0, 0.0, 0.0, 0.0, 0.0, 0.0, 0.0, 0.0, 0.0, 0.0, 0.0, 0.0, 0.0)"
1729403415.9030187,2313,1729403415,899713792,map,base_link,0.8622782500440632,-4.348295169068651,0.161,-0.006291608635307539,-0.002629687421039256,-0.23788306979404955,-0.9712698623504217,"(1.814409, 0.0, 0.0, 0.0, 0.0, 0.0, 0.0, 1.814409, 0.0, 0.0, 0.0, 0.0, 0.0, 0.0, 4.0441210000000005, 0.0, 0.0, 0.0, 0.0, 0.0, 0.0, 99999.0, 0.0, 0.0, 0.0, 0.0, 0.0, 0.0, 99999.0, 0.0, 0.0, 0.0, 0.0, 0.0, 0.0, 99999.0)",0.01,0.0,0.0,0.0,0.0,0.0,"(-1.0, 0.0, 0.0, 0.0, 0.0, 0.0, 0.0, 0.0, 0.0, 0.0, 0.0, 0.0, 0.0, 0.0, 0.0, 0.0, 0.0, 0.0, 0.0, 0.0, 0.0, 0.0, 0.0, 0.0, 0.0, 0.0, 0.0, 0.0, 0.0, 0.0, 0.0, 0.0, 0.0, 0.0, 0.0, 0.0)"
1729403416.0023766,2314,1729403415,999712000,map,base_link,0.8622782500440632,-4.348295169068651,0.16,-0.006272898407795456,-0.002625785064301534,-0.23788137866306053,-0.9712704081169792,"(1.814409, 0.0, 0.0, 0.0, 0.0, 0.0, 0.0, 1.814409, 0.0, 0.0, 0.0, 0.0, 0.0, 0.0, 4.0441210000000005, 0.0, 0.0, 0.0, 0.0, 0.0, 0.0, 99999.0, 0.0, 0.0, 0.0, 0.0, 0.0, 0.0, 99999.0, 0.0, 0.0, 0.0, 0.0, 0.0, 0.0, 99999.0)",0.01,0.01,0.0,0.0,0.0,0.0,"(-1.0, 0.0, 0.0, 0.0, 0.0, 0.0, 0.0, 0.0, 0.0, 0.0, 0.0, 0.0, 0.0, 0.0, 0.0, 0.0, 0.0, 0.0, 0.0, 0.0, 0.0, 0.0, 0.0, 0.0, 0.0, 0.0, 0.0, 0.0, 0.0, 0.0, 0.0, 0.0, 0.0, 0.0, 0.0, 0.0)"
1729403416.1029847,2315,1729403416,99710208,map,base_link,0.8622782489018689,-4.337202578522373,0.161,-0.006227710237054474,-0.002624611318662685,-0.23788252969664692,-0.9712704201743987,"(1.8225000000000002, 0.0, 0.0, 0.0, 0.0, 0.0, 0.0, 1.8225000000000002, 0.0, 0.0, 0.0, 0.0, 0.0, 0.0, 4.060225000000001, 0.0, 0.0, 0.0, 0.0, 0.0, 0.0, 99999.0, 0.0, 0.0, 0.0, 0.0, 0.0, 0.0, 99999.0, 0.0, 0.0, 0.0, 0.0, 0.0, 0.0, 99999.0)",0.01,0.01,0.0,0.0,0.0,0.0,"(-1.0, 0.0, 0.0, 0.0, 0.0, 0.0, 0.0, 0.0, 0.0, 0.0, 0.0, 0.0, 0.0, 0.0, 0.0, 0.0, 0.0, 0.0, 0.0, 0.0, 0.0, 0.0, 0.0, 0.0, 0.0, 0.0, 0.0, 0.0, 0.0, 0.0, 0.0, 0.0, 0.0, 0.0, 0.0, 0.0)"
1729403416.2029903,2316,1729403416,199708160,map,base_link,0.8622782489018689,-4.337202578522373,0.165,-0.006230414828484789,-0.0026249121316854964,-0.23790620385839661,-0.9712646034593522,"(1.8225000000000002, 0.0, 0.0, 0.0, 0.0, 0.0, 0.0, 1.8225000000000002, 0.0, 0.0, 0.0, 0.0, 0.0, 0.0, 4.060225000000001, 0.0, 0.0, 0.0, 0.0, 0.0, 0.0, 99999.0, 0.0, 0.0, 0.0, 0.0, 0.0, 0.0, 99999.0, 0.0, 0.0, 0.0, 0.0, 0.0, 0.0, 99999.0)",0.01,0.01,0.0,0.0,0.0,0.0,"(-1.0, 0.0, 0.0, 0.0, 0.0, 0.0, 0.0, 0.0, 0.0, 0.0, 0.0, 0.0, 0.0, 0.0, 0.0, 0.0, 0.0, 0.0, 0.0, 0.0, 0.0, 0.0, 0.0, 0.0, 0.0, 0.0, 0.0, 0.0, 0.0, 0.0, 0.0, 0.0, 0.0, 0.0, 0.0, 0.0)"
1729403416.302536,2317,1729403416,299706368,map,base_link,0.862278250404704,-4.337202585667108,0.17,-0.006253441327360454,-0.002614904070480601,-0.23791163821334316,-0.9712631513400016,"(1.8279040000000002, 0.0, 0.0, 0.0, 0.0, 0.0, 0.0, 1.8279040000000002, 0.0, 0.0, 0.0, 0.0, 0.0, 0.0, 4.076361, 0.0, 0.0, 0.0, 0.0, 0.0, 0.0, 99999.0, 0.0, 0.0, 0.0, 0.0, 0.0, 0.0, 99999.0, 0.0, 0.0, 0.0, 0.0, 0.0, 0.0, 99999.0)",0.01,0.01,0.0,0.0,0.0,0.0,"(-1.0, 0.0, 0.0, 0.0, 0.0, 0.0, 0.0, 0.0, 0.0, 0.0, 0.0, 0.0, 0.0, 0.0, 0.0, 0.0, 0.0, 0.0, 0.0, 0.0, 0.0, 0.0, 0.0, 0.0, 0.0, 0.0, 0.0, 0.0, 0.0, 0.0, 0.0, 0.0, 0.0, 0.0, 0.0, 0.0)"
1729403416.402544,2318,1729403416,399704576,map,base_link,0.862278250404704,-4.337202585667108,0.175,-0.006254860722891282,-0.002608854272084296,-0.23787949095967525,-0.9712710323990364,"(1.8279040000000002, 0.0, 0.0, 0.0, 0.0, 0.0, 0.0, 1.8279040000000002, 0.0, 0.0, 0.0, 0.0, 0.0, 0.0, 4.076361, 0.0, 0.0, 0.0, 0.0, 0.0, 0.0, 99999.0, 0.0, 0.0, 0.0, 0.0, 0.0, 0.0, 99999.0, 0.0, 0.0, 0.0, 0.0, 0.0, 0.0, 99999.0)",0.01,0.01,0.0,0.0,0.0,0.0,"(-1.0, 0.0, 0.0, 0.0, 0.0, 0.0, 0.0, 0.0, 0.0, 0.0, 0.0, 0.0, 0.0, 0.0, 0.0, 0.0, 0.0, 0.0, 0.0, 0.0, 0.0, 0.0, 0.0, 0.0, 0.0, 0.0, 0.0, 0.0, 0.0, 0.0, 0.0, 0.0, 0.0, 0.0, 0.0, 0.0)"
1729403416.5027413,2319,1729403416,499703040,map,base_link,0.8715500587181022,-4.337202584485788,0.177,-0.006251584870657567,-0.0026230357172311405,-0.23783324973428782,-0.9712823393283022,"(1.836025, 0.0, 0.0, 0.0, 0.0, 0.0, 0.0, 1.836025, 0.0, 0.0, 0.0, 0.0, 0.0, 0.0, 4.088483999999999, 0.0, 0.0, 0.0, 0.0, 0.0, 0.0, 99999.0, 0.0, 0.0, 0.0, 0.0, 0.0, 0.0, 99999.0, 0.0, 0.0, 0.0, 0.0, 0.0, 0.0, 99999.0)",0.01,0.01,0.0,0.0,0.0,0.0,"(-1.0, 0.0, 0.0, 0.0, 0.0, 0.0, 0.0, 0.0, 0.0, 0.0, 0.0, 0.0, 0.0, 0.0, 0.0, 0.0, 0.0, 0.0, 0.0, 0.0, 0.0, 0.0, 0.0, 0.0, 0.0, 0.0, 0.0, 0.0, 0.0, 0.0, 0.0, 0.0, 0.0, 0.0, 0.0, 0.0)"
1729403416.6027868,2320,1729403416,599701248,map,base_link,0.8715500587181022,-4.337202584485788,0.176,-0.006247652905286429,-0.002632682537547076,-0.23778130943171344,-0.9712950554289725,"(1.836025, 0.0, 0.0, 0.0, 0.0, 0.0, 0.0, 1.836025, 0.0, 0.0, 0.0, 0.0, 0.0, 0.0, 4.088483999999999, 0.0, 0.0, 0.0, 0.0, 0.0, 0.0, 99999.0, 0.0, 0.0, 0.0, 0.0, 0.0, 0.0, 99999.0, 0.0, 0.0, 0.0, 0.0, 0.0, 0.0, 99999.0)",0.01,0.01,0.0,0.0,0.0,0.0,"(-1.0, 0.0, 0.0, 0.0, 0.0, 0.0, 0.0, 0.0, 0.0, 0.0, 0.0, 0.0, 0.0, 0.0, 0.0, 0.0, 0.0, 0.0, 0.0, 0.0, 0.0, 0.0, 0.0, 0.0, 0.0, 0.0, 0.0, 0.0, 0.0, 0.0, 0.0, 0.0, 0.0, 0.0, 0.0, 0.0)"
1729403416.703525,2321,1729403416,699698176,map,base_link,0.8715500587181022,-4.337202584485788,0.174,-0.006252916239959781,-0.0026204268953701378,-0.23775696026719229,-0.9713010152604014,"(1.841449, 0.0, 0.0, 0.0, 0.0, 0.0, 0.0, 1.841449, 0.0, 0.0, 0.0, 0.0, 0.0, 0.0, 4.1046759999999995, 0.0, 0.0, 0.0, 0.0, 0.0, 0.0, 99999.0, 0.0, 0.0, 0.0, 0.0, 0.0, 0.0, 99999.0, 0.0, 0.0, 0.0, 0.0, 0.0, 0.0, 99999.0)",0.01,0.01,0.0,0.0,0.0,0.0,"(-1.0, 0.0, 0.0, 0.0, 0.0, 0.0, 0.0, 0.0, 0.0, 0.0, 0.0, 0.0, 0.0, 0.0, 0.0, 0.0, 0.0, 0.0, 0.0, 0.0, 0.0, 0.0, 0.0, 0.0, 0.0, 0.0, 0.0, 0.0, 0.0, 0.0, 0.0, 0.0, 0.0, 0.0, 0.0, 0.0)"
1729403416.8027399,2322,1729403416,799695360,map,base_link,0.8715500572646261,-4.3372025778729615,0.168,-0.0062792330838114105,-0.002617760513261489,-0.23775701274588096,-0.9713008398286956,"(1.841449, 0.0, 0.0, 0.0, 0.0, 0.0, 0.0, 1.841449, 0.0, 0.0, 0.0, 0.0, 0.0, 0.0, 4.1046759999999995, 0.0, 0.0, 0.0, 0.0, 0.0, 0.0, 99999.0, 0.0, 0.0, 0.0, 0.0, 0.0, 0.0, 99999.0, 0.0, 0.0, 0.0, 0.0, 0.0, 0.0, 99999.0)",0.01,0.01,0.0,0.0,0.0,0.0,"(-1.0, 0.0, 0.0, 0.0, 0.0, 0.0, 0.0, 0.0, 0.0, 0.0, 0.0, 0.0, 0.0, 0.0, 0.0, 0.0, 0.0, 0.0, 0.0, 0.0, 0.0, 0.0, 0.0, 0.0, 0.0, 0.0, 0.0, 0.0, 0.0, 0.0, 0.0, 0.0, 0.0, 0.0, 0.0, 0.0)"
1729403416.9023778,2323,1729403416,899692544,map,base_link,0.8808218674581558,-4.33720257706618,0.164,-0.006305636001160444,-0.0026307138318809745,-0.23777773725777585,-0.971295560560187,"(1.846881, 0.0, 0.0, 0.0, 0.0, 0.0, 0.0, 1.846881, 0.0, 0.0, 0.0, 0.0, 0.0, 0.0, 4.116841, 0.0, 0.0, 0.0, 0.0, 0.0, 0.0, 99999.0, 0.0, 0.0, 0.0, 0.0, 0.0, 0.0, 99999.0, 0.0, 0.0, 0.0, 0.0, 0.0, 0.0, 99999.0)",0.01,0.01,0.0,0.0,0.0,0.0,"(-1.0, 0.0, 0.0, 0.0, 0.0, 0.0, 0.0, 0.0, 0.0, 0.0, 0.0, 0.0, 0.0, 0.0, 0.0, 0.0, 0.0, 0.0, 0.0, 0.0, 0.0, 0.0, 0.0, 0.0, 0.0, 0.0, 0.0, 0.0, 0.0, 0.0, 0.0, 0.0, 0.0, 0.0, 0.0, 0.0)"
1729403417.0026085,2324,1729403416,999689472,map,base_link,0.8808218674581558,-4.33720257706618,0.161,-0.006319398449661793,-0.002625297478896999,-0.237812096009339,-0.9712870739426251,"(1.846881, 0.0, 0.0, 0.0, 0.0, 0.0, 0.0, 1.846881, 0.0, 0.0, 0.0, 0.0, 0.0, 0.0, 4.116841, 0.0, 0.0, 0.0, 0.0, 0.0, 0.0, 99999.0, 0.0, 0.0, 0.0, 0.0, 0.0, 0.0, 99999.0, 0.0, 0.0, 0.0, 0.0, 0.0, 0.0, 99999.0)",0.01,0.01,0.0,0.0,0.0,0.0,"(-1.0, 0.0, 0.0, 0.0, 0.0, 0.0, 0.0, 0.0, 0.0, 0.0, 0.0, 0.0, 0.0, 0.0, 0.0, 0.0, 0.0, 0.0, 0.0, 0.0, 0.0, 0.0, 0.0, 0.0, 0.0, 0.0, 0.0, 0.0, 0.0, 0.0, 0.0, 0.0, 0.0, 0.0, 0.0, 0.0)"
1729403417.1031647,2325,1729403417,99688448,map,base_link,0.8808218659553206,-4.337202569921446,0.157,-0.006336495499523474,-0.00258441890494135,-0.23785782436456587,-0.9712758748122304,"(1.8523209999999999, 0.0, 0.0, 0.0, 0.0, 0.0, 0.0, 1.8523209999999999, 0.0, 0.0, 0.0, 0.0, 0.0, 0.0, 4.124961000000001, 0.0, 0.0, 0.0, 0.0, 0.0, 0.0, 99999.0, 0.0, 0.0, 0.0, 0.0, 0.0, 0.0, 99999.0, 0.0, 0.0, 0.0, 0.0, 0.0, 0.0, 99999.0)",0.01,0.01,0.0,0.0,0.0,0.0,"(-1.0, 0.0, 0.0, 0.0, 0.0, 0.0, 0.0, 0.0, 0.0, 0.0, 0.0, 0.0, 0.0, 0.0, 0.0, 0.0, 0.0, 0.0, 0.0, 0.0, 0.0, 0.0, 0.0, 0.0, 0.0, 0.0, 0.0, 0.0, 0.0, 0.0, 0.0, 0.0, 0.0, 0.0, 0.0, 0.0)"
1729403417.202798,2326,1729403417,199687168,map,base_link,0.8808218674581558,-4.33720257706618,0.16,-0.0063700637338131765,-0.002571199984392544,-0.23783496400802423,-0.9712812883577904,"(1.8523209999999999, 0.0, 0.0, 0.0, 0.0, 0.0, 0.0, 1.8523209999999999, 0.0, 0.0, 0.0, 0.0, 0.0, 0.0, 4.124961000000001, 0.0, 0.0, 0.0, 0.0, 0.0, 0.0, 99999.0, 0.0, 0.0, 0.0, 0.0, 0.0, 0.0, 99999.0, 0.0, 0.0, 0.0, 0.0, 0.0, 0.0, 99999.0)",0.01,0.01,0.0,0.0,0.0,0.0,"(-1.0, 0.0, 0.0, 0.0, 0.0, 0.0, 0.0, 0.0, 0.0, 0.0, 0.0, 0.0, 0.0, 0.0, 0.0, 0.0, 0.0, 0.0, 0.0, 0.0, 0.0, 0.0, 0.0, 0.0, 0.0, 0.0, 0.0, 0.0, 0.0, 0.0, 0.0, 0.0, 0.0, 0.0, 0.0, 0.0)"
1729403417.3027534,2327,1729403417,299684096,map,base_link,0.8808218682789554,-4.348295166973792,0.166,-0.006392060048855378,-0.0025459457667203005,-0.23775853182825668,-0.9712999229235821,"(1.857769, 0.0, 0.0, 0.0, 0.0, 0.0, 0.0, 1.857769, 0.0, 0.0, 0.0, 0.0, 0.0, 0.0, 4.141225, 0.0, 0.0, 0.0, 0.0, 0.0, 0.0, 99999.0, 0.0, 0.0, 0.0, 0.0, 0.0, 0.0, 99999.0, 0.0, 0.0, 0.0, 0.0, 0.0, 0.0, 99999.0)",0.01,0.01,0.0,0.0,0.0,0.0,"(-1.0, 0.0, 0.0, 0.0, 0.0, 0.0, 0.0, 0.0, 0.0, 0.0, 0.0, 0.0, 0.0, 0.0, 0.0, 0.0, 0.0, 0.0, 0.0, 0.0, 0.0, 0.0, 0.0, 0.0, 0.0, 0.0, 0.0, 0.0, 0.0, 0.0, 0.0, 0.0, 0.0, 0.0, 0.0, 0.0)"
1729403417.4025507,2328,1729403417,399682816,map,base_link,0.8808218698311494,-4.348295174263018,0.17,-0.006388958642508498,-0.002547547443097703,-0.23766125531950028,-0.9713237456839242,"(1.857769, 0.0, 0.0, 0.0, 0.0, 0.0, 0.0, 1.857769, 0.0, 0.0, 0.0, 0.0, 0.0, 0.0, 4.141225, 0.0, 0.0, 0.0, 0.0, 0.0, 0.0, 99999.0, 0.0, 0.0, 0.0, 0.0, 0.0, 0.0, 99999.0, 0.0, 0.0, 0.0, 0.0, 0.0, 0.0, 99999.0)",0.01,0.01,0.0,0.0,0.0,0.0,"(-1.0, 0.0, 0.0, 0.0, 0.0, 0.0, 0.0, 0.0, 0.0, 0.0, 0.0, 0.0, 0.0, 0.0, 0.0, 0.0, 0.0, 0.0, 0.0, 0.0, 0.0, 0.0, 0.0, 0.0, 0.0, 0.0, 0.0, 0.0, 0.0, 0.0, 0.0, 0.0, 0.0, 0.0, 0.0, 0.0)"
1729403417.5023808,2329,1729403417,499681536,map,base_link,0.8808218698311494,-4.348295174263018,0.174,-0.006359693229029321,-0.0025614405799713304,-0.23756118859324876,-0.9713483798299922,"(1.8659560000000004, 0.0, 0.0, 0.0, 0.0, 0.0, 0.0, 1.8659560000000004, 0.0, 0.0, 0.0, 0.0, 0.0, 0.0, 4.1616, 0.0, 0.0, 0.0, 0.0, 0.0, 0.0, 99999.0, 0.0, 0.0, 0.0, 0.0, 0.0, 0.0, 99999.0, 0.0, 0.0, 0.0, 0.0, 0.0, 0.0, 99999.0)",0.01,0.01,0.0,0.0,0.0,0.0,"(-1.0, 0.0, 0.0, 0.0, 0.0, 0.0, 0.0, 0.0, 0.0, 0.0, 0.0, 0.0, 0.0, 0.0, 0.0, 0.0, 0.0, 0.0, 0.0, 0.0, 0.0, 0.0, 0.0, 0.0, 0.0, 0.0, 0.0, 0.0, 0.0, 0.0, 0.0, 0.0, 0.0, 0.0, 0.0, 0.0)"
1729403417.6021483,2330,1729403417,599678464,map,base_link,0.8900936781939068,-4.3482951736136055,0.179,-0.006338592374625579,-0.002553148063665564,-0.23753121683303569,-0.9713558692423134,"(1.8659560000000004, 0.0, 0.0, 0.0, 0.0, 0.0, 0.0, 1.8659560000000004, 0.0, 0.0, 0.0, 0.0, 0.0, 0.0, 4.1616, 0.0, 0.0, 0.0, 0.0, 0.0, 0.0, 99999.0, 0.0, 0.0, 0.0, 0.0, 0.0, 0.0, 99999.0, 0.0, 0.0, 0.0, 0.0, 0.0, 0.0, 99999.0)",0.01,0.01,0.0,0.0,0.0,0.0,"(-1.0, 0.0, 0.0, 0.0, 0.0, 0.0, 0.0, 0.0, 0.0, 0.0, 0.0, 0.0, 0.0, 0.0, 0.0, 0.0, 0.0, 0.0, 0.0, 0.0, 0.0, 0.0, 0.0, 0.0, 0.0, 0.0, 0.0, 0.0, 0.0, 0.0, 0.0, 0.0, 0.0, 0.0, 0.0, 0.0)"
1729403417.7023757,2331,1729403417,699675392,map,base_link,0.890093679647383,-4.348295180226432,0.187,-0.006333480921462385,-0.002563234094674367,-0.23752906411099556,-0.971356402435763,"(1.8769000000000002, 0.0, 0.0, 0.0, 0.0, 0.0, 0.0, 1.8769000000000002, 0.0, 0.0, 0.0, 0.0, 0.0, 0.0, 4.190209, 0.0, 0.0, 0.0, 0.0, 0.0, 0.0, 99999.0, 0.0, 0.0, 0.0, 0.0, 0.0, 0.0, 99999.0, 0.0, 0.0, 0.0, 0.0, 0.0, 0.0, 99999.0)",0.01,0.01,0.0,0.0,0.0,0.0,"(-1.0, 0.0, 0.0, 0.0, 0.0, 0.0, 0.0, 0.0, 0.0, 0.0, 0.0, 0.0, 0.0, 0.0, 0.0, 0.0, 0.0, 0.0, 0.0, 0.0, 0.0, 0.0, 0.0, 0.0, 0.0, 0.0, 0.0, 0.0, 0.0, 0.0, 0.0, 0.0, 0.0, 0.0, 0.0, 0.0)"
1729403417.8022835,2332,1729403417,799672576,map,base_link,0.890093681150218,-4.348295187371168,0.198,-0.006325593351944482,-0.0025574187869881627,-0.23752616002753518,-0.971357179301449,"(1.8769000000000002, 0.0, 0.0, 0.0, 0.0, 0.0, 0.0, 1.8769000000000002, 0.0, 0.0, 0.0, 0.0, 0.0, 0.0, 4.190209, 0.0, 0.0, 0.0, 0.0, 0.0, 0.0, 99999.0, 0.0, 0.0, 0.0, 0.0, 0.0, 0.0, 99999.0, 0.0, 0.0, 0.0, 0.0, 0.0, 0.0, 99999.0)",0.01,0.01,0.0,0.0,0.0,0.0,"(-1.0, 0.0, 0.0, 0.0, 0.0, 0.0, 0.0, 0.0, 0.0, 0.0, 0.0, 0.0, 0.0, 0.0, 0.0, 0.0, 0.0, 0.0, 0.0, 0.0, 0.0, 0.0, 0.0, 0.0, 0.0, 0.0, 0.0, 0.0, 0.0, 0.0, 0.0, 0.0, 0.0, 0.0, 0.0, 0.0)"
1729403417.9026456,2333,1729403417,899669760,map,base_link,0.8900936826922993,-4.337202609700859,0.211,-0.006329090502502557,-0.002578455220717186,-0.23753833787319062,-0.9713541229760276,"(1.885129, 0.0, 0.0, 0.0, 0.0, 0.0, 0.0, 1.885129, 0.0, 0.0, 0.0, 0.0, 0.0, 0.0, 4.2025, 0.0, 0.0, 0.0, 0.0, 0.0, 0.0, 99999.0, 0.0, 0.0, 0.0, 0.0, 0.0, 0.0, 99999.0, 0.0, 0.0, 0.0, 0.0, 0.0, 0.0, 99999.0)",0.01,0.01,0.0,0.0,0.0,0.0,"(-1.0, 0.0, 0.0, 0.0, 0.0, 0.0, 0.0, 0.0, 0.0, 0.0, 0.0, 0.0, 0.0, 0.0, 0.0, 0.0, 0.0, 0.0, 0.0, 0.0, 0.0, 0.0, 0.0, 0.0, 0.0, 0.0, 0.0, 0.0, 0.0, 0.0, 0.0, 0.0, 0.0, 0.0, 0.0, 0.0)"
1729403418.0028563,2334,1729403417,999666944,map,base_link,0.8993654943886639,-4.337202616426231,0.22,-0.006322972147836373,-0.002558791641912336,-0.2375282947206392,-0.9713566707526418,"(1.885129, 0.0, 0.0, 0.0, 0.0, 0.0, 0.0, 1.885129, 0.0, 0.0, 0.0, 0.0, 0.0, 0.0, 4.2025, 0.0, 0.0, 0.0, 0.0, 0.0, 0.0, 99999.0, 0.0, 0.0, 0.0, 0.0, 0.0, 0.0, 99999.0, 0.0, 0.0, 0.0, 0.0, 0.0, 0.0, 99999.0)",0.01,0.01,-0.01,0.0,0.0,0.0,"(-1.0, 0.0, 0.0, 0.0, 0.0, 0.0, 0.0, 0.0, 0.0, 0.0, 0.0, 0.0, 0.0, 0.0, 0.0, 0.0, 0.0, 0.0, 0.0, 0.0, 0.0, 0.0, 0.0, 0.0, 0.0, 0.0, 0.0, 0.0, 0.0, 0.0, 0.0, 0.0, 0.0, 0.0, 0.0, 0.0)"
1729403418.102915,2335,1729403418,99665920,map,base_link,0.8993654943886639,-4.337202616426231,0.225,-0.006333587596851246,-0.0025468487750735657,-0.2375101909370978,-0.9713610597663944,"(1.8933759999999997, 0.0, 0.0, 0.0, 0.0, 0.0, 0.0, 1.8933759999999997, 0.0, 0.0, 0.0, 0.0, 0.0, 0.0, 4.218915999999999, 0.0, 0.0, 0.0, 0.0, 0.0, 0.0, 99999.0, 0.0, 0.0, 0.0, 0.0, 0.0, 0.0, 99999.0, 0.0, 0.0, 0.0, 0.0, 0.0, 0.0, 99999.0)",0.01,0.01,-0.01,0.0,0.0,0.0,"(-1.0, 0.0, 0.0, 0.0, 0.0, 0.0, 0.0, 0.0, 0.0, 0.0, 0.0, 0.0, 0.0, 0.0, 0.0, 0.0, 0.0, 0.0, 0.0, 0.0, 0.0, 0.0, 0.0, 0.0, 0.0, 0.0, 0.0, 0.0, 0.0, 0.0, 0.0, 0.0, 0.0, 0.0, 0.0, 0.0)"
1729403418.2036903,2336,1729403418,199663104,map,base_link,0.8993654943886639,-4.337202616426231,0.228,-0.006342515057954629,-0.002538014978129219,-0.23749316635058548,-0.9713651872079232,"(1.8933759999999997, 0.0, 0.0, 0.0, 0.0, 0.0, 0.0, 1.8933759999999997, 0.0, 0.0, 0.0, 0.0, 0.0, 0.0, 4.218915999999999, 0.0, 0.0, 0.0, 0.0, 0.0, 0.0, 99999.0, 0.0, 0.0, 0.0, 0.0, 0.0, 0.0, 99999.0, 0.0, 0.0, 0.0, 0.0, 0.0, 0.0, 99999.0)",0.01,0.01,-0.01,0.0,0.0,0.0,"(-1.0, 0.0, 0.0, 0.0, 0.0, 0.0, 0.0, 0.0, 0.0, 0.0, 0.0, 0.0, 0.0, 0.0, 0.0, 0.0, 0.0, 0.0, 0.0, 0.0, 0.0, 0.0, 0.0, 0.0, 0.0, 0.0, 0.0, 0.0, 0.0, 0.0, 0.0, 0.0, 0.0, 0.0, 0.0, 0.0)"
1729403418.303114,2337,1729403418,299660544,map,base_link,0.899365495891499,-4.337202623570966,0.231,-0.006347219554101823,-0.0025192360216094774,-0.23745647276411103,-0.9713741759982227,"(1.8988839999999998, 0.0, 0.0, 0.0, 0.0, 0.0, 0.0, 1.8988839999999998, 0.0, 0.0, 0.0, 0.0, 0.0, 0.0, 4.231249, 0.0, 0.0, 0.0, 0.0, 0.0, 0.0, 99999.0, 0.0, 0.0, 0.0, 0.0, 0.0, 0.0, 99999.0, 0.0, 0.0, 0.0, 0.0, 0.0, 0.0, 99999.0)",0.01,0.01,-0.01,0.0,0.0,0.0,"(-1.0, 0.0, 0.0, 0.0, 0.0, 0.0, 0.0, 0.0, 0.0, 0.0, 0.0, 0.0, 0.0, 0.0, 0.0, 0.0, 0.0, 0.0, 0.0, 0.0, 0.0, 0.0, 0.0, 0.0, 0.0, 0.0, 0.0, 0.0, 0.0, 0.0, 0.0, 0.0, 0.0, 0.0, 0.0, 0.0)"
1729403418.4031215,2338,1729403418,399657984,map,base_link,0.8993654932464696,-4.326110025492535,0.228,-0.006317602416213988,-0.002526978212687726,-0.23739055012441945,-0.9713904616540399,"(1.8988839999999998, 0.0, 0.0, 0.0, 0.0, 0.0, 0.0, 1.8988839999999998, 0.0, 0.0, 0.0, 0.0, 0.0, 0.0, 4.231249, 0.0, 0.0, 0.0, 0.0, 0.0, 0.0, 99999.0, 0.0, 0.0, 0.0, 0.0, 0.0, 0.0, 99999.0, 0.0, 0.0, 0.0, 0.0, 0.0, 0.0, 99999.0)",0.01,0.01,-0.01,0.0,0.0,0.0,"(-1.0, 0.0, 0.0, 0.0, 0.0, 0.0, 0.0, 0.0, 0.0, 0.0, 0.0, 0.0, 0.0, 0.0, 0.0, 0.0, 0.0, 0.0, 0.0, 0.0, 0.0, 0.0, 0.0, 0.0, 0.0, 0.0, 0.0, 0.0, 0.0, 0.0, 0.0, 0.0, 0.0, 0.0, 0.0, 0.0)"
1729403418.5037732,2339,1729403418,499655424,map,base_link,0.9086373018319036,-4.326110024417973,0.224,-0.006266498395836049,-0.002547578043338543,-0.2373722074556991,-0.971395221303655,"(1.901641, 0.0, 0.0, 0.0, 0.0, 0.0, 0.0, 1.901641, 0.0, 0.0, 0.0, 0.0, 0.0, 0.0, 4.2394810000000005, 0.0, 0.0, 0.0, 0.0, 0.0, 0.0, 99999.0, 0.0, 0.0, 0.0, 0.0, 0.0, 0.0, 99999.0, 0.0, 0.0, 0.0, 0.0, 0.0, 0.0, 99999.0)",0.01,0.02,-0.01,0.0,0.0,0.0,"(-1.0, 0.0, 0.0, 0.0, 0.0, 0.0, 0.0, 0.0, 0.0, 0.0, 0.0, 0.0, 0.0, 0.0, 0.0, 0.0, 0.0, 0.0, 0.0, 0.0, 0.0, 0.0, 0.0, 0.0, 0.0, 0.0, 0.0, 0.0, 0.0, 0.0, 0.0, 0.0, 0.0, 0.0, 0.0, 0.0)"
1729403418.6028135,2340,1729403418,599652864,map,base_link,0.9086373018319036,-4.326110024417973,0.224,-0.006236752338682233,-0.0025442930680245135,-0.23736050283569765,-0.9713982814410549,"(1.901641, 0.0, 0.0, 0.0, 0.0, 0.0, 0.0, 1.901641, 0.0, 0.0, 0.0, 0.0, 0.0, 0.0, 4.2394810000000005, 0.0, 0.0, 0.0, 0.0, 0.0, 0.0, 99999.0, 0.0, 0.0, 0.0, 0.0, 0.0, 0.0, 99999.0, 0.0, 0.0, 0.0, 0.0, 0.0, 0.0, 99999.0)",0.01,0.02,-0.01,0.0,0.0,0.0,"(-1.0, 0.0, 0.0, 0.0, 0.0, 0.0, 0.0, 0.0, 0.0, 0.0, 0.0, 0.0, 0.0, 0.0, 0.0, 0.0, 0.0, 0.0, 0.0, 0.0, 0.0, 0.0, 0.0, 0.0, 0.0, 0.0, 0.0, 0.0, 0.0, 0.0, 0.0, 0.0, 0.0, 0.0, 0.0, 0.0)"
1729403418.7031379,2341,1729403418,699650304,map,base_link,0.9086373005163917,-4.315017434828754,0.223,-0.006235443992373896,-0.0025354581663197193,-0.23737863234783568,-0.9713938828275457,"(1.907161, 0.0, 0.0, 0.0, 0.0, 0.0, 0.0, 1.907161, 0.0, 0.0, 0.0, 0.0, 0.0, 0.0, 4.247720999999999, 0.0, 0.0, 0.0, 0.0, 0.0, 0.0, 99999.0, 0.0, 0.0, 0.0, 0.0, 0.0, 0.0, 99999.0, 0.0, 0.0, 0.0, 0.0, 0.0, 0.0, 99999.0)",0.01,0.02,-0.01,0.0,0.0,0.0,"(-1.0, 0.0, 0.0, 0.0, 0.0, 0.0, 0.0, 0.0, 0.0, 0.0, 0.0, 0.0, 0.0, 0.0, 0.0, 0.0, 0.0, 0.0, 0.0, 0.0, 0.0, 0.0, 0.0, 0.0, 0.0, 0.0, 0.0, 0.0, 0.0, 0.0, 0.0, 0.0, 0.0, 0.0, 0.0, 0.0)"
1729403418.8030534,2342,1729403418,799647744,map,base_link,0.9086373005163917,-4.315017434828754,0.22,-0.0062451857275884854,-0.002538199250187098,-0.23735602245669574,-0.9713993379673111,"(1.907161, 0.0, 0.0, 0.0, 0.0, 0.0, 0.0, 1.907161, 0.0, 0.0, 0.0, 0.0, 0.0, 0.0, 4.247720999999999, 0.0, 0.0, 0.0, 0.0, 0.0, 0.0, 99999.0, 0.0, 0.0, 0.0, 0.0, 0.0, 0.0, 99999.0, 0.0, 0.0, 0.0, 0.0, 0.0, 0.0, 99999.0)",0.01,0.02,0.0,0.0,0.0,0.0,"(-1.0, 0.0, 0.0, 0.0, 0.0, 0.0, 0.0, 0.0, 0.0, 0.0, 0.0, 0.0, 0.0, 0.0, 0.0, 0.0, 0.0, 0.0, 0.0, 0.0, 0.0, 0.0, 0.0, 0.0, 0.0, 0.0, 0.0, 0.0, 0.0, 0.0, 0.0, 0.0, 0.0, 0.0, 0.0, 0.0)"
1729403418.9029255,2343,1729403418,899645696,map,base_link,0.9086372990629156,-4.315017428215927,0.217,-0.006254671461481458,-0.002534735459525341,-0.237325060962169,-0.9714068507275218,"(1.9099239999999997, 0.0, 0.0, 0.0, 0.0, 0.0, 0.0, 1.9099239999999997, 0.0, 0.0, 0.0, 0.0, 0.0, 0.0, 4.255969, 0.0, 0.0, 0.0, 0.0, 0.0, 0.0, 99999.0, 0.0, 0.0, 0.0, 0.0, 0.0, 0.0, 99999.0, 0.0, 0.0, 0.0, 0.0, 0.0, 0.0, 99999.0)",0.01,0.02,0.0,0.0,0.0,0.0,"(-1.0, 0.0, 0.0, 0.0, 0.0, 0.0, 0.0, 0.0, 0.0, 0.0, 0.0, 0.0, 0.0, 0.0, 0.0, 0.0, 0.0, 0.0, 0.0, 0.0, 0.0, 0.0, 0.0, 0.0, 0.0, 0.0, 0.0, 0.0, 0.0, 0.0, 0.0, 0.0, 0.0, 0.0, 0.0, 0.0)"
1729403419.0028543,2344,1729403418,999643136,map,base_link,0.9179091083369275,-4.303924837212556,0.217,-0.0062473542326929605,-0.0025226649464462226,-0.23728091518838546,-0.9714177134549387,"(1.9099239999999997, 0.0, 0.0, 0.0, 0.0, 0.0, 0.0, 1.9099239999999997, 0.0, 0.0, 0.0, 0.0, 0.0, 0.0, 4.255969, 0.0, 0.0, 0.0, 0.0, 0.0, 0.0, 99999.0, 0.0, 0.0, 0.0, 0.0, 0.0, 0.0, 99999.0, 0.0, 0.0, 0.0, 0.0, 0.0, 0.0, 99999.0)",0.02,0.02,0.0,0.0,0.0,0.0,"(-1.0, 0.0, 0.0, 0.0, 0.0, 0.0, 0.0, 0.0, 0.0, 0.0, 0.0, 0.0, 0.0, 0.0, 0.0, 0.0, 0.0, 0.0, 0.0, 0.0, 0.0, 0.0, 0.0, 0.0, 0.0, 0.0, 0.0, 0.0, 0.0, 0.0, 0.0, 0.0, 0.0, 0.0, 0.0, 0.0)"
1729403419.1029356,2345,1729403419,99642112,map,base_link,0.9179091083369275,-4.303924837212556,0.214,-0.006247132482486668,-0.0025251373903770855,-0.23725090364777784,-0.9714250386598127,"(1.9154559999999998, 0.0, 0.0, 0.0, 0.0, 0.0, 0.0, 1.9154559999999998, 0.0, 0.0, 0.0, 0.0, 0.0, 0.0, 4.264225, 0.0, 0.0, 0.0, 0.0, 0.0, 0.0, 99999.0, 0.0, 0.0, 0.0, 0.0, 0.0, 0.0, 99999.0, 0.0, 0.0, 0.0, 0.0, 0.0, 0.0, 99999.0)",0.02,0.02,0.0,0.0,0.0,0.0,"(-1.0, 0.0, 0.0, 0.0, 0.0, 0.0, 0.0, 0.0, 0.0, 0.0, 0.0, 0.0, 0.0, 0.0, 0.0, 0.0, 0.0, 0.0, 0.0, 0.0, 0.0, 0.0, 0.0, 0.0, 0.0, 0.0, 0.0, 0.0, 0.0, 0.0, 0.0, 0.0, 0.0, 0.0, 0.0, 0.0)"
1729403419.2027535,2346,1729403419,199639808,map,base_link,0.9179091068340924,-4.30392483006782,0.207,-0.00624621553605639,-0.0025274060628345677,-0.23725691030267881,-0.9714235716327337,"(1.9154559999999998, 0.0, 0.0, 0.0, 0.0, 0.0, 0.0, 1.9154559999999998, 0.0, 0.0, 0.0, 0.0, 0.0, 0.0, 4.264225, 0.0, 0.0, 0.0, 0.0, 0.0, 0.0, 99999.0, 0.0, 0.0, 0.0, 0.0, 0.0, 0.0, 99999.0, 0.0, 0.0, 0.0, 0.0, 0.0, 0.0, 99999.0)",0.02,0.02,0.0,0.0,0.0,0.0,"(-1.0, 0.0, 0.0, 0.0, 0.0, 0.0, 0.0, 0.0, 0.0, 0.0, 0.0, 0.0, 0.0, 0.0, 0.0, 0.0, 0.0, 0.0, 0.0, 0.0, 0.0, 0.0, 0.0, 0.0, 0.0, 0.0, 0.0, 0.0, 0.0, 0.0, 0.0, 0.0, 0.0, 0.0, 0.0, 0.0)"
1729403419.3029406,2347,1729403419,299637504,map,base_link,0.9179091045104576,-4.292832234177728,0.198,-0.0062466351887043355,-0.002519665794220138,-0.23727271482809736,-0.9714197288665745,"(1.918225, 0.0, 0.0, 0.0, 0.0, 0.0, 0.0, 1.918225, 0.0, 0.0, 0.0, 0.0, 0.0, 0.0, 4.272489000000001, 0.0, 0.0, 0.0, 0.0, 0.0, 0.0, 99999.0, 0.0, 0.0, 0.0, 0.0, 0.0, 0.0, 99999.0, 0.0, 0.0, 0.0, 0.0, 0.0, 0.0, 99999.0)",0.02,0.02,0.0,0.0,0.0,0.0,"(-1.0, 0.0, 0.0, 0.0, 0.0, 0.0, 0.0, 0.0, 0.0, 0.0, 0.0, 0.0, 0.0, 0.0, 0.0, 0.0, 0.0, 0.0, 0.0, 0.0, 0.0, 0.0, 0.0, 0.0, 0.0, 0.0, 0.0, 0.0, 0.0, 0.0, 0.0, 0.0, 0.0, 0.0, 0.0, 0.0)"
1729403419.4042737,2348,1729403419,399635200,map,base_link,0.9179091045104576,-4.292832234177728,0.191,-0.006264029395730541,-0.0025202014374535193,-0.2372822502305003,-0.9714172863635866,"(1.918225, 0.0, 0.0, 0.0, 0.0, 0.0, 0.0, 1.918225, 0.0, 0.0, 0.0, 0.0, 0.0, 0.0, 4.272489000000001, 0.0, 0.0, 0.0, 0.0, 0.0, 0.0, 99999.0, 0.0, 0.0, 0.0, 0.0, 0.0, 0.0, 99999.0, 0.0, 0.0, 0.0, 0.0, 0.0, 0.0, 99999.0)",0.02,0.02,0.0,0.0,0.0,0.0,"(-1.0, 0.0, 0.0, 0.0, 0.0, 0.0, 0.0, 0.0, 0.0, 0.0, 0.0, 0.0, 0.0, 0.0, 0.0, 0.0, 0.0, 0.0, 0.0, 0.0, 0.0, 0.0, 0.0, 0.0, 0.0, 0.0, 0.0, 0.0, 0.0, 0.0, 0.0, 0.0, 0.0, 0.0, 0.0, 0.0)"
1729403419.5033603,2349,1729403419,499632896,map,base_link,0.9271809113703798,-4.292832225996162,0.189,-0.00628364637517641,-0.0024931874540427314,-0.23731392564722753,-0.9714094916658229,"(1.9209959999999997, 0.0, 0.0, 0.0, 0.0, 0.0, 0.0, 1.9209959999999997, 0.0, 0.0, 0.0, 0.0, 0.0, 0.0, 4.280761, 0.0, 0.0, 0.0, 0.0, 0.0, 0.0, 99999.0, 0.0, 0.0, 0.0, 0.0, 0.0, 0.0, 99999.0, 0.0, 0.0, 0.0, 0.0, 0.0, 0.0, 99999.0)",0.02,0.02,0.0,0.0,0.0,0.0,"(-1.0, 0.0, 0.0, 0.0, 0.0, 0.0, 0.0, 0.0, 0.0, 0.0, 0.0, 0.0, 0.0, 0.0, 0.0, 0.0, 0.0, 0.0, 0.0, 0.0, 0.0, 0.0, 0.0, 0.0, 0.0, 0.0, 0.0, 0.0, 0.0, 0.0, 0.0, 0.0, 0.0, 0.0, 0.0, 0.0)"
1729403419.6019642,2350,1729403419,599630592,map,base_link,0.9271809130958915,-4.292832233103165,0.191,-0.006283212598311867,-0.0024629147505925396,-0.23731726814155107,-0.9714087551243333,"(1.9209959999999997, 0.0, 0.0, 0.0, 0.0, 0.0, 0.0, 1.9209959999999997, 0.0, 0.0, 0.0, 0.0, 0.0, 0.0, 4.280761, 0.0, 0.0, 0.0, 0.0, 0.0, 0.0, 99999.0, 0.0, 0.0, 0.0, 0.0, 0.0, 0.0, 99999.0, 0.0, 0.0, 0.0, 0.0, 0.0, 0.0, 99999.0)",0.02,0.02,0.0,0.0,0.0,0.0,"(-1.0, 0.0, 0.0, 0.0, 0.0, 0.0, 0.0, 0.0, 0.0, 0.0, 0.0, 0.0, 0.0, 0.0, 0.0, 0.0, 0.0, 0.0, 0.0, 0.0, 0.0, 0.0, 0.0, 0.0, 0.0, 0.0, 0.0, 0.0, 0.0, 0.0, 0.0, 0.0, 0.0, 0.0, 0.0, 0.0)"
1729403419.7022645,2351,1729403419,699628288,map,base_link,0.9271809130958915,-4.292832233103165,0.199,-0.0062816828217426585,-0.00246123603121078,-0.23729215129947545,-0.971414905027606,"(1.9265439999999998, 0.0, 0.0, 0.0, 0.0, 0.0, 0.0, 1.9265439999999998, 0.0, 0.0, 0.0, 0.0, 0.0, 0.0, 4.289041000000001, 0.0, 0.0, 0.0, 0.0, 0.0, 0.0, 99999.0, 0.0, 0.0, 0.0, 0.0, 0.0, 0.0, 99999.0, 0.0, 0.0, 0.0, 0.0, 0.0, 0.0, 99999.0)",0.02,0.02,0.0,0.0,0.0,0.0,"(-1.0, 0.0, 0.0, 0.0, 0.0, 0.0, 0.0, 0.0, 0.0, 0.0, 0.0, 0.0, 0.0, 0.0, 0.0, 0.0, 0.0, 0.0, 0.0, 0.0, 0.0, 0.0, 0.0, 0.0, 0.0, 0.0, 0.0, 0.0, 0.0, 0.0, 0.0, 0.0, 0.0, 0.0, 0.0, 0.0)"
1729403419.8046749,2352,1729403419,799625984,map,base_link,0.9271809145493677,-4.292832239715993,0.207,-0.006250723353255953,-0.0024383360520041342,-0.2372502999016447,-0.9714253847678873,"(1.9265439999999998, 0.0, 0.0, 0.0, 0.0, 0.0, 0.0, 1.9265439999999998, 0.0, 0.0, 0.0, 0.0, 0.0, 0.0, 4.289041000000001, 0.0, 0.0, 0.0, 0.0, 0.0, 0.0, 99999.0, 0.0, 0.0, 0.0, 0.0, 0.0, 0.0, 99999.0, 0.0, 0.0, 0.0, 0.0, 0.0, 0.0, 99999.0)",0.02,0.02,0.0,0.0,0.0,0.0,"(-1.0, 0.0, 0.0, 0.0, 0.0, 0.0, 0.0, 0.0, 0.0, 0.0, 0.0, 0.0, 0.0, 0.0, 0.0, 0.0, 0.0, 0.0, 0.0, 0.0, 0.0, 0.0, 0.0, 0.0, 0.0, 0.0, 0.0, 0.0, 0.0, 0.0, 0.0, 0.0, 0.0, 0.0, 0.0, 0.0)"
1729403419.9021263,2353,1729403419,899623936,map,base_link,0.9271809161015616,-4.292832247005217,0.214,-0.00626438104976047,-0.002426388087149342,-0.2372213636186552,-0.9714323933315276,"(1.929321, 0.0, 0.0, 0.0, 0.0, 0.0, 0.0, 1.929321, 0.0, 0.0, 0.0, 0.0, 0.0, 0.0, 4.293184, 0.0, 0.0, 0.0, 0.0, 0.0, 0.0, 99999.0, 0.0, 0.0, 0.0, 0.0, 0.0, 0.0, 99999.0, 0.0, 0.0, 0.0, 0.0, 0.0, 0.0, 99999.0)",0.01,0.02,0.0,0.0,0.0,0.0,"(-1.0, 0.0, 0.0, 0.0, 0.0, 0.0, 0.0, 0.0, 0.0, 0.0, 0.0, 0.0, 0.0, 0.0, 0.0, 0.0, 0.0, 0.0, 0.0, 0.0, 0.0, 0.0, 0.0, 0.0, 0.0, 0.0, 0.0, 0.0, 0.0, 0.0, 0.0, 0.0, 0.0, 0.0, 0.0, 0.0)"
1729403420.002968,2354,1729403419,999621632,map,base_link,0.9271809147860497,-4.281739657803417,0.219,-0.006279779530370156,-0.0024056825804133803,-0.23721524442594638,-0.9714338396783957,"(1.929321, 0.0, 0.0, 0.0, 0.0, 0.0, 0.0, 1.929321, 0.0, 0.0, 0.0, 0.0, 0.0, 0.0, 4.293184, 0.0, 0.0, 0.0, 0.0, 0.0, 0.0, 99999.0, 0.0, 0.0, 0.0, 0.0, 0.0, 0.0, 99999.0, 0.0, 0.0, 0.0, 0.0, 0.0, 0.0, 99999.0)",0.01,0.02,0.0,0.0,0.0,0.0,"(-1.0, 0.0, 0.0, 0.0, 0.0, 0.0, 0.0, 0.0, 0.0, 0.0, 0.0, 0.0, 0.0, 0.0, 0.0, 0.0, 0.0, 0.0, 0.0, 0.0, 0.0, 0.0, 0.0, 0.0, 0.0, 0.0, 0.0, 0.0, 0.0, 0.0, 0.0, 0.0, 0.0, 0.0, 0.0, 0.0)"
1729403420.103724,2355,1729403420,99619328,map,base_link,0.9271809147860497,-4.281739657803417,0.218,-0.006289807553566181,-0.0023787489303096323,-0.237195507882904,-0.9714386603973699,"(1.9320999999999997, 0.0, 0.0, 0.0, 0.0, 0.0, 0.0, 1.9320999999999997, 0.0, 0.0, 0.0, 0.0, 0.0, 0.0, 4.301475999999999, 0.0, 0.0, 0.0, 0.0, 0.0, 0.0, 99999.0, 0.0, 0.0, 0.0, 0.0, 0.0, 0.0, 99999.0, 0.0, 0.0, 0.0, 0.0, 0.0, 0.0, 99999.0)",0.01,0.02,0.0,0.0,0.0,0.0,"(-1.0, 0.0, 0.0, 0.0, 0.0, 0.0, 0.0, 0.0, 0.0, 0.0, 0.0, 0.0, 0.0, 0.0, 0.0, 0.0, 0.0, 0.0, 0.0, 0.0, 0.0, 0.0, 0.0, 0.0, 0.0, 0.0, 0.0, 0.0, 0.0, 0.0, 0.0, 0.0, 0.0, 0.0, 0.0, 0.0)"
1729403420.20282,2356,1729403420,199617280,map,base_link,0.9271809147860497,-4.281739657803417,0.211,-0.006279374906235158,-0.0023634367232921233,-0.23715653731540148,-0.9714482798513828,"(1.9320999999999997, 0.0, 0.0, 0.0, 0.0, 0.0, 0.0, 1.9320999999999997, 0.0, 0.0, 0.0, 0.0, 0.0, 0.0, 4.301475999999999, 0.0, 0.0, 0.0, 0.0, 0.0, 0.0, 99999.0, 0.0, 0.0, 0.0, 0.0, 0.0, 0.0, 99999.0, 0.0, 0.0, 0.0, 0.0, 0.0, 0.0, 99999.0)",0.01,0.02,0.0,0.0,0.0,0.0,"(-1.0, 0.0, 0.0, 0.0, 0.0, 0.0, 0.0, 0.0, 0.0, 0.0, 0.0, 0.0, 0.0, 0.0, 0.0, 0.0, 0.0, 0.0, 0.0, 0.0, 0.0, 0.0, 0.0, 0.0, 0.0, 0.0, 0.0, 0.0, 0.0, 0.0, 0.0, 0.0, 0.0, 0.0, 0.0, 0.0)"
1729403420.3030436,2357,1729403420,299615232,map,base_link,0.9271809132832146,-4.281739650658682,0.202,-0.006250339226674696,-0.0023390843507373298,-0.23711173593435347,-0.9714594621630638,"(1.940449, 0.0, 0.0, 0.0, 0.0, 0.0, 0.0, 1.940449, 0.0, 0.0, 0.0, 0.0, 0.0, 0.0, 4.322241000000001, 0.0, 0.0, 0.0, 0.0, 0.0, 0.0, 99999.0, 0.0, 0.0, 0.0, 0.0, 0.0, 0.0, 99999.0, 0.0, 0.0, 0.0, 0.0, 0.0, 0.0, 99999.0)",0.01,0.02,0.0,0.0,0.0,0.0,"(-1.0, 0.0, 0.0, 0.0, 0.0, 0.0, 0.0, 0.0, 0.0, 0.0, 0.0, 0.0, 0.0, 0.0, 0.0, 0.0, 0.0, 0.0, 0.0, 0.0, 0.0, 0.0, 0.0, 0.0, 0.0, 0.0, 0.0, 0.0, 0.0, 0.0, 0.0, 0.0, 0.0, 0.0, 0.0, 0.0)"
1729403420.4015274,2358,1729403420,399613184,map,base_link,0.9271809118297385,-4.281739644045855,0.195,-0.006252919398274985,-0.0023361778104463,-0.2370612600928842,-0.9714717711984278,"(1.940449, 0.0, 0.0, 0.0, 0.0, 0.0, 0.0, 1.940449, 0.0, 0.0, 0.0, 0.0, 0.0, 0.0, 4.322241000000001, 0.0, 0.0, 0.0, 0.0, 0.0, 0.0, 99999.0, 0.0, 0.0, 0.0, 0.0, 0.0, 0.0, 99999.0, 0.0, 0.0, 0.0, 0.0, 0.0, 0.0, 99999.0)",0.01,0.02,0.0,0.0,0.0,0.0,"(-1.0, 0.0, 0.0, 0.0, 0.0, 0.0, 0.0, 0.0, 0.0, 0.0, 0.0, 0.0, 0.0, 0.0, 0.0, 0.0, 0.0, 0.0, 0.0, 0.0, 0.0, 0.0, 0.0, 0.0, 0.0, 0.0, 0.0, 0.0, 0.0, 0.0, 0.0, 0.0, 0.0, 0.0, 0.0, 0.0)"
1729403420.502574,2359,1729403420,499611136,map,base_link,0.9271809105495801,-4.281739637638225,0.188,-0.006264391205519976,-0.002345895906144711,-0.23695040687978924,-0.9714987178862995,"(1.9488159999999997, 0.0, 0.0, 0.0, 0.0, 0.0, 0.0, 1.9488159999999997, 0.0, 0.0, 0.0, 0.0, 0.0, 0.0, 4.343056000000001, 0.0, 0.0, 0.0, 0.0, 0.0, 0.0, 99999.0, 0.0, 0.0, 0.0, 0.0, 0.0, 0.0, 99999.0, 0.0, 0.0, 0.0, 0.0, 0.0, 0.0, 99999.0)",0.01,0.01,0.0,0.0,0.0,0.0,"(-1.0, 0.0, 0.0, 0.0, 0.0, 0.0, 0.0, 0.0, 0.0, 0.0, 0.0, 0.0, 0.0, 0.0, 0.0, 0.0, 0.0, 0.0, 0.0, 0.0, 0.0, 0.0, 0.0, 0.0, 0.0, 0.0, 0.0, 0.0, 0.0, 0.0, 0.0, 0.0, 0.0, 0.0, 0.0, 0.0)"
1729403420.6018925,2360,1729403420,599609344,map,base_link,0.9271809094567447,-4.270647047236436,0.184,-0.006268109237805519,-0.0023391837367910755,-0.23684337731533434,-0.9715248085601802,"(1.9488159999999997, 0.0, 0.0, 0.0, 0.0, 0.0, 0.0, 1.9488159999999997, 0.0, 0.0, 0.0, 0.0, 0.0, 0.0, 4.343056000000001, 0.0, 0.0, 0.0, 0.0, 0.0, 0.0, 99999.0, 0.0, 0.0, 0.0, 0.0, 0.0, 0.0, 99999.0, 0.0, 0.0, 0.0, 0.0, 0.0, 0.0, 99999.0)",0.01,0.01,0.0,0.0,0.0,0.0,"(-1.0, 0.0, 0.0, 0.0, 0.0, 0.0, 0.0, 0.0, 0.0, 0.0, 0.0, 0.0, 0.0, 0.0, 0.0, 0.0, 0.0, 0.0, 0.0, 0.0, 0.0, 0.0, 0.0, 0.0, 0.0, 0.0, 0.0, 0.0, 0.0, 0.0, 0.0, 0.0, 0.0, 0.0, 0.0, 0.0)"
1729403420.7024312,2361,1729403420,699607296,map,base_link,0.9179091010939875,-4.2706470478858485,0.183,-0.006286629710750669,-0.0023395307402127976,-0.23682257224197362,-0.9715297597909652,"(1.957201, 0.0, 0.0, 0.0, 0.0, 0.0, 0.0, 1.957201, 0.0, 0.0, 0.0, 0.0, 0.0, 0.0, 4.3639209999999995, 0.0, 0.0, 0.0, 0.0, 0.0, 0.0, 99999.0, 0.0, 0.0, 0.0, 0.0, 0.0, 0.0, 99999.0, 0.0, 0.0, 0.0, 0.0, 0.0, 0.0, 99999.0)",0.0,0.01,0.0,0.0,0.0,0.0,"(-1.0, 0.0, 0.0, 0.0, 0.0, 0.0, 0.0, 0.0, 0.0, 0.0, 0.0, 0.0, 0.0, 0.0, 0.0, 0.0, 0.0, 0.0, 0.0, 0.0, 0.0, 0.0, 0.0, 0.0, 0.0, 0.0, 0.0, 0.0, 0.0, 0.0, 0.0, 0.0, 0.0, 0.0, 0.0, 0.0)"
1729403420.8025115,2362,1729403420,799605504,map,base_link,0.9179091010939875,-4.2706470478858485,0.181,-0.006310217494224537,-0.00235975177578833,-0.23684389795612304,-0.9715243593074143,"(1.957201, 0.0, 0.0, 0.0, 0.0, 0.0, 0.0, 1.957201, 0.0, 0.0, 0.0, 0.0, 0.0, 0.0, 4.3639209999999995, 0.0, 0.0, 0.0, 0.0, 0.0, 0.0, 99999.0, 0.0, 0.0, 0.0, 0.0, 0.0, 0.0, 99999.0, 0.0, 0.0, 0.0, 0.0, 0.0, 0.0, 99999.0)",0.0,0.01,0.0,0.0,0.0,0.0,"(-1.0, 0.0, 0.0, 0.0, 0.0, 0.0, 0.0, 0.0, 0.0, 0.0, 0.0, 0.0, 0.0, 0.0, 0.0, 0.0, 0.0, 0.0, 0.0, 0.0, 0.0, 0.0, 0.0, 0.0, 0.0, 0.0, 0.0, 0.0, 0.0, 0.0, 0.0, 0.0, 0.0, 0.0, 0.0, 0.0)"
1729403420.9023514,2363,1729403420,899603456,map,base_link,0.9179090995911524,-4.270647040741113,0.178,-0.006331761993014092,-0.002356428730716549,-0.23686533286465422,-0.971519001420259,"(1.9656039999999997, 0.0, 0.0, 0.0, 0.0, 0.0, 0.0, 1.9656039999999997, 0.0, 0.0, 0.0, 0.0, 0.0, 0.0, 4.376464, 0.0, 0.0, 0.0, 0.0, 0.0, 0.0, 99999.0, 0.0, 0.0, 0.0, 0.0, 0.0, 0.0, 99999.0, 0.0, 0.0, 0.0, 0.0, 0.0, 0.0, 99999.0)",0.0,0.01,0.0,0.0,0.0,0.0,"(-1.0, 0.0, 0.0, 0.0, 0.0, 0.0, 0.0, 0.0, 0.0, 0.0, 0.0, 0.0, 0.0, 0.0, 0.0, 0.0, 0.0, 0.0, 0.0, 0.0, 0.0, 0.0, 0.0, 0.0, 0.0, 0.0, 0.0, 0.0, 0.0, 0.0, 0.0, 0.0, 0.0, 0.0, 0.0, 0.0)"
1729403421.002519,2364,1729403420,999601408,map,base_link,0.9179091007333466,-4.281739631674809,0.176,-0.0063339260546245455,-0.002358405165632185,-0.23685813656425758,-0.9715207370144587,"(1.9656039999999997, 0.0, 0.0, 0.0, 0.0, 0.0, 0.0, 1.9656039999999997, 0.0, 0.0, 0.0, 0.0, 0.0, 0.0, 4.376464, 0.0, 0.0, 0.0, 0.0, 0.0, 0.0, 99999.0, 0.0, 0.0, 0.0, 0.0, 0.0, 0.0, 99999.0, 0.0, 0.0, 0.0, 0.0, 0.0, 0.0, 99999.0)",0.0,0.01,0.0,0.0,0.0,0.0,"(-1.0, 0.0, 0.0, 0.0, 0.0, 0.0, 0.0, 0.0, 0.0, 0.0, 0.0, 0.0, 0.0, 0.0, 0.0, 0.0, 0.0, 0.0, 0.0, 0.0, 0.0, 0.0, 0.0, 0.0, 0.0, 0.0, 0.0, 0.0, 0.0, 0.0, 0.0, 0.0, 0.0, 0.0, 0.0, 0.0)"
1729403421.1032755,2365,1729403421,99599616,map,base_link,0.9179091007333466,-4.281739631674809,0.177,-0.006348981977456362,-0.0023465364003781254,-0.23685218749441656,-0.9715221178510973,"(1.9712159999999999, 0.0, 0.0, 0.0, 0.0, 0.0, 0.0, 1.9712159999999999, 0.0, 0.0, 0.0, 0.0, 0.0, 0.0, 4.389025000000001, 0.0, 0.0, 0.0, 0.0, 0.0, 0.0, 99999.0, 0.0, 0.0, 0.0, 0.0, 0.0, 0.0, 99999.0, 0.0, 0.0, 0.0, 0.0, 0.0, 0.0, 99999.0)",0.0,0.01,0.0,0.0,0.0,0.0,"(-1.0, 0.0, 0.0, 0.0, 0.0, 0.0, 0.0, 0.0, 0.0, 0.0, 0.0, 0.0, 0.0, 0.0, 0.0, 0.0, 0.0, 0.0, 0.0, 0.0, 0.0, 0.0, 0.0, 0.0, 0.0, 0.0, 0.0, 0.0, 0.0, 0.0, 0.0, 0.0, 0.0, 0.0, 0.0, 0.0)"
1729403421.2041054,2366,1729403421,199597568,map,base_link,0.9179090983249993,-4.259554450908967,0.178,-0.006346029029905934,-0.0023570523794672013,-0.23680486036257886,-0.9715336485826374,"(1.9712159999999999, 0.0, 0.0, 0.0, 0.0, 0.0, 0.0, 1.9712159999999999, 0.0, 0.0, 0.0, 0.0, 0.0, 0.0, 4.389025000000001, 0.0, 0.0, 0.0, 0.0, 0.0, 0.0, 99999.0, 0.0, 0.0, 0.0, 0.0, 0.0, 0.0, 99999.0, 0.0, 0.0, 0.0, 0.0, 0.0, 0.0, 99999.0)",0.0,0.01,0.0,0.0,0.0,0.0,"(-1.0, 0.0, 0.0, 0.0, 0.0, 0.0, 0.0, 0.0, 0.0, 0.0, 0.0, 0.0, 0.0, 0.0, 0.0, 0.0, 0.0, 0.0, 0.0, 0.0, 0.0, 0.0, 0.0, 0.0, 0.0, 0.0, 0.0, 0.0, 0.0, 0.0, 0.0, 0.0, 0.0, 0.0, 0.0, 0.0)"
1729403421.3026168,2367,1729403421,299596032,map,base_link,0.9179090983249993,-4.259554450908967,0.177,-0.006299391304373499,-0.002364064397576103,-0.2367738036256946,-0.9715415044069602,"(1.9740250000000001, 0.0, 0.0, 0.0, 0.0, 0.0, 0.0, 1.9740250000000001, 0.0, 0.0, 0.0, 0.0, 0.0, 0.0, 4.397409, 0.0, 0.0, 0.0, 0.0, 0.0, 0.0, 99999.0, 0.0, 0.0, 0.0, 0.0, 0.0, 0.0, 99999.0, 0.0, 0.0, 0.0, 0.0, 0.0, 0.0, 99999.0)",0.0,0.01,0.0,0.0,0.0,0.0,"(-1.0, 0.0, 0.0, 0.0, 0.0, 0.0, 0.0, 0.0, 0.0, 0.0, 0.0, 0.0, 0.0, 0.0, 0.0, 0.0, 0.0, 0.0, 0.0, 0.0, 0.0, 0.0, 0.0, 0.0, 0.0, 0.0, 0.0, 0.0, 0.0, 0.0, 0.0, 0.0, 0.0, 0.0, 0.0, 0.0)"
1729403421.4028933,2368,1729403421,399594240,map,base_link,0.9179090983249993,-4.259554450908967,0.174,-0.00626635324951822,-0.002380964447260618,-0.2367047939983114,-0.971558492486927,"(1.9740250000000001, 0.0, 0.0, 0.0, 0.0, 0.0, 0.0, 1.9740250000000001, 0.0, 0.0, 0.0, 0.0, 0.0, 0.0, 4.397409, 0.0, 0.0, 0.0, 0.0, 0.0, 0.0, 99999.0, 0.0, 0.0, 0.0, 0.0, 0.0, 0.0, 99999.0, 0.0, 0.0, 0.0, 0.0, 0.0, 0.0, 99999.0)",0.0,0.01,0.0,0.0,0.0,0.0,"(-1.0, 0.0, 0.0, 0.0, 0.0, 0.0, 0.0, 0.0, 0.0, 0.0, 0.0, 0.0, 0.0, 0.0, 0.0, 0.0, 0.0, 0.0, 0.0, 0.0, 0.0, 0.0, 0.0, 0.0, 0.0, 0.0, 0.0, 0.0, 0.0, 0.0, 0.0, 0.0, 0.0, 0.0, 0.0, 0.0)"
1729403421.5033038,2369,1729403421,499592448,map,base_link,0.9271809068610743,-4.259554449689913,0.172,-0.0062776887895208125,-0.0023981503401762526,-0.23669487737874956,-0.9715607930135234,"(1.979649, 0.0, 0.0, 0.0, 0.0, 0.0, 0.0, 1.979649, 0.0, 0.0, 0.0, 0.0, 0.0, 0.0, 4.405801000000001, 0.0, 0.0, 0.0, 0.0, 0.0, 0.0, 99999.0, 0.0, 0.0, 0.0, 0.0, 0.0, 0.0, 99999.0, 0.0, 0.0, 0.0, 0.0, 0.0, 0.0, 99999.0)",0.01,0.01,0.0,0.0,0.0,0.0,"(-1.0, 0.0, 0.0, 0.0, 0.0, 0.0, 0.0, 0.0, 0.0, 0.0, 0.0, 0.0, 0.0, 0.0, 0.0, 0.0, 0.0, 0.0, 0.0, 0.0, 0.0, 0.0, 0.0, 0.0, 0.0, 0.0, 0.0, 0.0, 0.0, 0.0, 0.0, 0.0, 0.0, 0.0, 0.0, 0.0)"
1729403421.6035564,2370,1729403421,599590656,map,base_link,0.9271809054569572,-4.2595544436089945,0.168,-0.006301129227763288,-0.0023890775403086393,-0.23669254963899783,-0.9715612307128934,"(1.979649, 0.0, 0.0, 0.0, 0.0, 0.0, 0.0, 1.979649, 0.0, 0.0, 0.0, 0.0, 0.0, 0.0, 4.405801000000001, 0.0, 0.0, 0.0, 0.0, 0.0, 0.0, 99999.0, 0.0, 0.0, 0.0, 0.0, 0.0, 0.0, 99999.0, 0.0, 0.0, 0.0, 0.0, 0.0, 0.0, 99999.0)",0.01,0.01,0.0,0.0,0.0,0.0,"(-1.0, 0.0, 0.0, 0.0, 0.0, 0.0, 0.0, 0.0, 0.0, 0.0, 0.0, 0.0, 0.0, 0.0, 0.0, 0.0, 0.0, 0.0, 0.0, 0.0, 0.0, 0.0, 0.0, 0.0, 0.0, 0.0, 0.0, 0.0, 0.0, 0.0, 0.0, 0.0, 0.0, 0.0, 0.0, 0.0)"
1729403421.702618,2371,1729403421,699589120,map,base_link,0.9271809054569572,-4.2595544436089945,0.164,-0.006337167696795011,-0.0024005540460198807,-0.23673089515722134,-0.9715516254548264,"(1.9824639999999998, 0.0, 0.0, 0.0, 0.0, 0.0, 0.0, 1.9824639999999998, 0.0, 0.0, 0.0, 0.0, 0.0, 0.0, 4.414201, 0.0, 0.0, 0.0, 0.0, 0.0, 0.0, 99999.0, 0.0, 0.0, 0.0, 0.0, 0.0, 0.0, 99999.0, 0.0, 0.0, 0.0, 0.0, 0.0, 0.0, 99999.0)",0.01,0.01,0.0,0.0,0.0,0.0,"(-1.0, 0.0, 0.0, 0.0, 0.0, 0.0, 0.0, 0.0, 0.0, 0.0, 0.0, 0.0, 0.0, 0.0, 0.0, 0.0, 0.0, 0.0, 0.0, 0.0, 0.0, 0.0, 0.0, 0.0, 0.0, 0.0, 0.0, 0.0, 0.0, 0.0, 0.0, 0.0, 0.0, 0.0, 0.0, 0.0)"
