Time,header.seq,header.stamp.secs,header.stamp.nsecs,header.frame_id,magnetic_field.x,magnetic_field.y,magnetic_field.z,magnetic_field_covariance_0,magnetic_field_covariance_1,magnetic_field_covariance_2,magnetic_field_covariance_3,magnetic_field_covariance_4,magnetic_field_covariance_5,magnetic_field_covariance_6,magnetic_field_covariance_7,magnetic_field_covariance_8
1729403414.56125,2284,1729403412,905447632,base_link,62000.0,103999.99999999997,-215000.0,-1.0,0.0,0.0,0.0,0.0,0.0,0.0,0.0,0.0
1729403414.5613973,2285,1729403413,3211072,base_link,68000.0,102999.99999999997,-209000.0,-1.0,0.0,0.0,0.0,0.0,0.0,0.0,0.0,0.0
1729403414.561502,2286,1729403413,105474768,base_link,63000.0,104999.99999999997,-213000.0,-1.0,0.0,0.0,0.0,0.0,0.0,0.0,0.0,0.0
1729403414.5616279,2287,1729403413,205597464,base_link,61000.0,103999.99999999997,-209000.0,-1.0,0.0,0.0,0.0,0.0,0.0,0.0,0.0,0.0
1729403414.5617588,2288,1729403413,305548416,base_link,57000.0,107999.99999999997,-218000.0,-1.0,0.0,0.0,0.0,0.0,0.0,0.0,0.0,0.0
1729403414.561959,2289,1729403413,405592880,base_link,64000.0,102999.99999999997,-211000.0,-1.0,0.0,0.0,0.0,0.0,0.0,0.0,0.0,0.0
1729403414.5622354,2290,1729403413,505690320,base_link,60000.0,104999.99999999997,-215000.0,-1.0,0.0,0.0,0.0,0.0,0.0,0.0,0.0,0.0
1729403414.562411,2291,1729403413,605280016,base_link,69000.0,103999.99999999997,-212000.0,-1.0,0.0,0.0,0.0,0.0,0.0,0.0,0.0,0.0
1729403414.56264,2292,1729403413,705574456,base_link,63000.0,103999.99999999997,-212000.0,-1.0,0.0,0.0,0.0,0.0,0.0,0.0,0.0,0.0
1729403414.562746,2293,1729403413,805486152,base_link,61000.0,103999.99999999997,-211000.0,-1.0,0.0,0.0,0.0,0.0,0.0,0.0,0.0,0.0
1729403414.562863,2294,1729403413,905454848,base_link,66000.0,105999.99999999997,-213000.0,-1.0,0.0,0.0,0.0,0.0,0.0,0.0,0.0,0.0
1729403414.5634463,2295,1729403414,3206288,base_link,62000.0,110999.99999999997,-210000.0,-1.0,0.0,0.0,0.0,0.0,0.0,0.0,0.0,0.0
1729403414.5635817,2296,1729403414,105559728,base_link,56000.0,115999.99999999997,-216000.0,-1.0,0.0,0.0,0.0,0.0,0.0,0.0,0.0,0.0
1729403414.5637546,2297,1729403414,205599424,base_link,65000.0,111999.99999999997,-213000.0,-1.0,0.0,0.0,0.0,0.0,0.0,0.0,0.0,0.0
1729403414.564016,2298,1729403414,305275120,base_link,64000.0,107999.99999999997,-213000.0,-1.0,0.0,0.0,0.0,0.0,0.0,0.0,0.0,0.0
1729403414.564196,2299,1729403414,405569048,base_link,61000.0,107999.99999999997,-210000.0,-1.0,0.0,0.0,0.0,0.0,0.0,0.0,0.0,0.0
1729403414.564855,2300,1729403414,505588744,base_link,67000.0,104999.99999999997,-213000.0,-1.0,0.0,0.0,0.0,0.0,0.0,0.0,0.0,0.0
1729403414.6066709,2301,1729403414,605444440,base_link,62000.0,106999.99999999997,-209000.0,-1.0,0.0,0.0,0.0,0.0,0.0,0.0,0.0,0.0
1729403414.7062845,2302,1729403414,705492392,base_link,67000.0,105999.99999999997,-213000.0,-1.0,0.0,0.0,0.0,0.0,0.0,0.0,0.0,0.0
1729403414.8065042,2303,1729403414,805493088,base_link,63000.0,106999.99999999997,-212000.0,-1.0,0.0,0.0,0.0,0.0,0.0,0.0,0.0,0.0
1729403414.9063363,2304,1729403414,905443528,base_link,57000.0,105999.99999999997,-215000.0,-1.0,0.0,0.0,0.0,0.0,0.0,0.0,0.0,0.0
1729403415.0062337,2305,1729403415,5381224,base_link,57000.0,104999.99999999997,-214000.0,-1.0,0.0,0.0,0.0,0.0,0.0,0.0,0.0,0.0
1729403415.1085482,2306,1729403415,105527920,base_link,66000.0,102999.99999999997,-214000.0,-1.0,0.0,0.0,0.0,0.0,0.0,0.0,0.0,0.0
1729403415.2051792,2307,1729403415,203125616,base_link,61000.0,103999.99999999997,-211000.0,-1.0,0.0,0.0,0.0,0.0,0.0,0.0,0.0,0.0
1729403415.3075376,2308,1729403415,305542568,base_link,67000.0,103999.99999999997,-213000.0,-1.0,0.0,0.0,0.0,0.0,0.0,0.0,0.0,0.0
1729403415.4052725,2309,1729403415,403064776,base_link,63000.0,105999.99999999997,-213000.0,-1.0,0.0,0.0,0.0,0.0,0.0,0.0,0.0,0.0
1729403415.508399,2310,1729403415,505500216,base_link,66000.0,100999.99999999997,-210000.0,-1.0,0.0,0.0,0.0,0.0,0.0,0.0,0.0,0.0
1729403415.6080213,2311,1729403415,605518168,base_link,60000.0,103999.99999999997,-213000.0,-1.0,0.0,0.0,0.0,0.0,0.0,0.0,0.0,0.0
1729403415.7073045,2312,1729403415,705431376,base_link,62000.0,102999.99999999997,-212000.0,-1.0,0.0,0.0,0.0,0.0,0.0,0.0,0.0,0.0
1729403415.8074682,2313,1729403415,805495584,base_link,57000.0,103999.99999999997,-212000.0,-1.0,0.0,0.0,0.0,0.0,0.0,0.0,0.0,0.0
1729403415.907276,2314,1729403415,905415792,base_link,67000.0,101999.99999999997,-213000.0,-1.0,0.0,0.0,0.0,0.0,0.0,0.0,0.0,0.0
1729403416.007073,2315,1729403416,5525000,base_link,62000.0,101999.99999999997,-209000.0,-1.0,0.0,0.0,0.0,0.0,0.0,0.0,0.0,0.0
1729403416.1067727,2316,1729403416,105423208,base_link,67000.0,101999.99999999997,-211000.0,-1.0,0.0,0.0,0.0,0.0,0.0,0.0,0.0,0.0
1729403416.207343,2317,1729403416,205556160,base_link,65000.0,101999.99999999997,-212000.0,-1.0,0.0,0.0,0.0,0.0,0.0,0.0,0.0,0.0
1729403416.3099675,2318,1729403416,308190368,base_link,60000.0,102999.99999999997,-213000.0,-1.0,0.0,0.0,0.0,0.0,0.0,0.0,0.0,0.0
1729403416.4071956,2319,1729403416,405393576,base_link,61000.0,104999.99999999997,-213000.0,-1.0,0.0,0.0,0.0,0.0,0.0,0.0,0.0,0.0
1729403416.5069458,2320,1729403416,505400040,base_link,60000.0,105999.99999999997,-216000.0,-1.0,0.0,0.0,0.0,0.0,0.0,0.0,0.0,0.0
1729403416.6072526,2321,1729403416,605469248,base_link,61000.0,101999.99999999997,-211000.0,-1.0,0.0,0.0,0.0,0.0,0.0,0.0,0.0,0.0
1729403416.7088444,2322,1729403416,705447176,base_link,68000.0,103999.99999999997,-214000.0,-1.0,0.0,0.0,0.0,0.0,0.0,0.0,0.0,0.0
1729403416.8074863,2323,1729403416,805460360,base_link,62000.0,105999.99999999997,-212000.0,-1.0,0.0,0.0,0.0,0.0,0.0,0.0,0.0,0.0
1729403416.9074454,2324,1729403416,905721544,base_link,68000.0,101999.99999999997,-213000.0,-1.0,0.0,0.0,0.0,0.0,0.0,0.0,0.0,0.0
1729403417.0078366,2325,1729403417,5523472,base_link,67000.0,102999.99999999997,-212000.0,-1.0,0.0,0.0,0.0,0.0,0.0,0.0,0.0,0.0
1729403417.1075015,2326,1729403417,105419448,base_link,61000.0,104999.99999999997,-213000.0,-1.0,0.0,0.0,0.0,0.0,0.0,0.0,0.0,0.0
1729403417.205726,2327,1729403417,203209168,base_link,61000.0,108999.99999999997,-211000.0,-1.0,0.0,0.0,0.0,0.0,0.0,0.0,0.0,0.0
1729403417.307278,2328,1729403417,305406096,base_link,61000.0,113999.99999999997,-213000.0,-1.0,0.0,0.0,0.0,0.0,0.0,0.0,0.0,0.0
1729403417.4071198,2329,1729403417,405414816,base_link,61000.0,110999.99999999997,-211000.0,-1.0,0.0,0.0,0.0,0.0,0.0,0.0,0.0,0.0
1729403417.506646,2330,1729403417,505341536,base_link,67000.0,107999.99999999997,-214000.0,-1.0,0.0,0.0,0.0,0.0,0.0,0.0,0.0,0.0
1729403417.6099763,2331,1729403417,608340464,base_link,68000.0,105999.99999999997,-209000.0,-1.0,0.0,0.0,0.0,0.0,0.0,0.0,0.0,0.0
1729403417.7069423,2332,1729403417,705462392,base_link,60000.0,105999.99999999997,-211000.0,-1.0,0.0,0.0,0.0,0.0,0.0,0.0,0.0,0.0
1729403417.8067641,2333,1729403417,805507576,base_link,68000.0,105999.99999999997,-211000.0,-1.0,0.0,0.0,0.0,0.0,0.0,0.0,0.0,0.0
1729403417.9071472,2334,1729403417,905446760,base_link,62000.0,103999.99999999997,-215000.0,-1.0,0.0,0.0,0.0,0.0,0.0,0.0,0.0,0.0
1729403418.0079412,2335,1729403418,5577944,base_link,61000.0,103999.99999999997,-212000.0,-1.0,0.0,0.0,0.0,0.0,0.0,0.0,0.0,0.0
1729403418.1072576,2336,1729403418,105361920,base_link,63000.0,103999.99999999997,-215000.0,-1.0,0.0,0.0,0.0,0.0,0.0,0.0,0.0,0.0
1729403418.2048652,2337,1729403418,203070104,base_link,63000.0,103999.99999999997,-211000.0,-1.0,0.0,0.0,0.0,0.0,0.0,0.0,0.0,0.0
1729403418.3072805,2338,1729403418,305418544,base_link,58000.0,106999.99999999997,-215000.0,-1.0,0.0,0.0,0.0,0.0,0.0,0.0,0.0,0.0
1729403418.4102666,2339,1729403418,408179984,base_link,67000.0,105999.99999999997,-209000.0,-1.0,0.0,0.0,0.0,0.0,0.0,0.0,0.0,0.0
1729403418.507479,2340,1729403418,505351424,base_link,61000.0,105999.99999999997,-210000.0,-1.0,0.0,0.0,0.0,0.0,0.0,0.0,0.0,0.0
1729403418.6076562,2341,1729403418,605410864,base_link,68000.0,101999.99999999997,-208000.0,-1.0,0.0,0.0,0.0,0.0,0.0,0.0,0.0,0.0
1729403418.7079659,2342,1729403418,705457304,base_link,61000.0,100999.99999999997,-218000.0,-1.0,0.0,0.0,0.0,0.0,0.0,0.0,0.0,0.0
1729403418.8091009,2343,1729403418,805342744,base_link,59000.0,101999.99999999997,-213000.0,-1.0,0.0,0.0,0.0,0.0,0.0,0.0,0.0,0.0
1729403418.9073575,2344,1729403418,905572696,base_link,63000.0,103999.99999999997,-217000.0,-1.0,0.0,0.0,0.0,0.0,0.0,0.0,0.0,0.0
1729403419.0073774,2345,1729403419,5393136,base_link,64000.0,104999.99999999997,-207000.0,-1.0,0.0,0.0,0.0,0.0,0.0,0.0,0.0,0.0
1729403419.11061,2346,1729403419,108296112,base_link,60000.0,100999.99999999997,-214000.0,-1.0,0.0,0.0,0.0,0.0,0.0,0.0,0.0,0.0
1729403419.205063,2347,1729403419,203091808,base_link,68000.0,102999.99999999997,-209000.0,-1.0,0.0,0.0,0.0,0.0,0.0,0.0,0.0,0.0
1729403419.3081965,2348,1729403419,305371504,base_link,61000.0,104999.99999999997,-214000.0,-1.0,0.0,0.0,0.0,0.0,0.0,0.0,0.0,0.0
1729403419.408187,2349,1729403419,405325200,base_link,68000.0,100999.99999999997,-208000.0,-1.0,0.0,0.0,0.0,0.0,0.0,0.0,0.0,0.0
1729403419.5095778,2350,1729403419,505427896,base_link,62000.0,101999.99999999997,-217000.0,-1.0,0.0,0.0,0.0,0.0,0.0,0.0,0.0,0.0
1729403419.6079617,2351,1729403419,605440592,base_link,58000.0,101999.99999999997,-212000.0,-1.0,0.0,0.0,0.0,0.0,0.0,0.0,0.0,0.0
1729403419.7078106,2352,1729403419,705380288,base_link,62000.0,105999.99999999997,-210000.0,-1.0,0.0,0.0,0.0,0.0,0.0,0.0,0.0,0.0
1729403419.809099,2353,1729403419,805462984,base_link,66000.0,104999.99999999997,-209000.0,-1.0,0.0,0.0,0.0,0.0,0.0,0.0,0.0,0.0
1729403419.9075577,2354,1729403419,905296936,base_link,61000.0,102999.99999999997,-211000.0,-1.0,0.0,0.0,0.0,0.0,0.0,0.0,0.0,0.0
1729403420.0079648,2355,1729403420,5448632,base_link,67000.0,106999.99999999997,-209000.0,-1.0,0.0,0.0,0.0,0.0,0.0,0.0,0.0,0.0
1729403420.1050372,2356,1729403420,102972328,base_link,60000.0,111999.99999999997,-214000.0,-1.0,0.0,0.0,0.0,0.0,0.0,0.0,0.0,0.0
1729403420.2075171,2357,1729403420,205409280,base_link,69000.0,111999.99999999997,-206000.0,-1.0,0.0,0.0,0.0,0.0,0.0,0.0,0.0,0.0
1729403420.3071244,2358,1729403420,305323232,base_link,63000.0,107999.99999999997,-217000.0,-1.0,0.0,0.0,0.0,0.0,0.0,0.0,0.0,0.0
1729403420.4074974,2359,1729403420,405457184,base_link,57000.0,107999.99999999997,-209000.0,-1.0,0.0,0.0,0.0,0.0,0.0,0.0,0.0,0.0
1729403420.5071754,2360,1729403420,505380136,base_link,56000.0,106999.99999999997,-214000.0,-1.0,0.0,0.0,0.0,0.0,0.0,0.0,0.0,0.0
1729403420.6066961,2361,1729403420,605309344,base_link,68000.0,101999.99999999997,-212000.0,-1.0,0.0,0.0,0.0,0.0,0.0,0.0,0.0,0.0
1729403420.7078123,2362,1729403420,705429296,base_link,61000.0,104999.99999999997,-214000.0,-1.0,0.0,0.0,0.0,0.0,0.0,0.0,0.0,0.0
1729403420.8069243,2363,1729403420,805380504,base_link,68000.0,105999.99999999997,-207000.0,-1.0,0.0,0.0,0.0,0.0,0.0,0.0,0.0,0.0
1729403420.9081435,2364,1729403420,905312456,base_link,62000.0,105999.99999999997,-213000.0,-1.0,0.0,0.0,0.0,0.0,0.0,0.0,0.0,0.0
1729403421.0054338,2365,1729403421,2990408,base_link,66000.0,103999.99999999997,-209000.0,-1.0,0.0,0.0,0.0,0.0,0.0,0.0,0.0,0.0
1729403421.107812,2366,1729403421,105445616,base_link,60000.0,106999.99999999997,-218000.0,-1.0,0.0,0.0,0.0,0.0,0.0,0.0,0.0,0.0
1729403421.2075665,2367,1729403421,205301568,base_link,63000.0,104999.99999999997,-211000.0,-1.0,0.0,0.0,0.0,0.0,0.0,0.0,0.0,0.0
1729403421.306944,2368,1729403421,305391032,base_link,57000.0,107999.99999999997,-213000.0,-1.0,0.0,0.0,0.0,0.0,0.0,0.0,0.0,0.0
1729403421.4081178,2369,1729403421,405486240,base_link,69000.0,103999.99999999997,-208000.0,-1.0,0.0,0.0,0.0,0.0,0.0,0.0,0.0,0.0
1729403421.5070186,2370,1729403421,505357448,base_link,63000.0,105999.99999999997,-214000.0,-1.0,0.0,0.0,0.0,0.0,0.0,0.0,0.0,0.0
1729403421.6056633,2371,1729403421,603016656,base_link,69000.0,101999.99999999997,-210000.0,-1.0,0.0,0.0,0.0,0.0,0.0,0.0,0.0,0.0
1729403421.7092993,2372,1729403421,705365120,base_link,66000.0,104999.99999999997,-216000.0,-1.0,0.0,0.0,0.0,0.0,0.0,0.0,0.0,0.0
1729403421.8075106,2373,1729403421,805357328,base_link,62000.0,105999.99999999997,-212000.0,-1.0,0.0,0.0,0.0,0.0,0.0,0.0,0.0,0.0
1729403421.906727,2374,1729403421,905296792,base_link,58000.0,107999.99999999997,-217000.0,-1.0,0.0,0.0,0.0,0.0,0.0,0.0,0.0,0.0
1729403422.0066178,2375,1729403422,5304256,base_link,61000.0,104999.99999999997,-213000.0,-1.0,0.0,0.0,0.0,0.0,0.0,0.0,0.0,0.0
1729403422.107243,2376,1729403422,105276464,base_link,62000.0,103999.99999999997,-214000.0,-1.0,0.0,0.0,0.0,0.0,0.0,0.0,0.0,0.0
1729403422.2069945,2377,1729403422,205420928,base_link,62000.0,104999.99999999997,-212000.0,-1.0,0.0,0.0,0.0,0.0,0.0,0.0,0.0,0.0
1729403422.3075457,2378,1729403422,305397392,base_link,64000.0,105999.99999999997,-214000.0,-1.0,0.0,0.0,0.0,0.0,0.0,0.0,0.0,0.0
1729403422.407013,2379,1729403422,405381600,base_link,63000.0,104999.99999999997,-212000.0,-1.0,0.0,0.0,0.0,0.0,0.0,0.0,0.0,0.0
1729403422.5068805,2380,1729403422,505408064,base_link,69000.0,103999.99999999997,-214000.0,-1.0,0.0,0.0,0.0,0.0,0.0,0.0,0.0,0.0
1729403422.6069689,2381,1729403422,605346528,base_link,67000.0,104999.99999999997,-211000.0,-1.0,0.0,0.0,0.0,0.0,0.0,0.0,0.0,0.0
1729403422.7068152,2382,1729403422,705266248,base_link,61000.0,104999.99999999997,-218000.0,-1.0,0.0,0.0,0.0,0.0,0.0,0.0,0.0,0.0
1729403422.8067586,2383,1729403422,805303968,base_link,65000.0,104999.99999999997,-215000.0,-1.0,0.0,0.0,0.0,0.0,0.0,0.0,0.0,0.0
1729403422.9073324,2384,1729403422,905348688,base_link,63000.0,104999.99999999997,-214000.0,-1.0,0.0,0.0,0.0,0.0,0.0,0.0,0.0,0.0
1729403423.0067434,2385,1729403423,5223408,base_link,62000.0,104999.99999999997,-213000.0,-1.0,0.0,0.0,0.0,0.0,0.0,0.0,0.0,0.0
1729403423.1070065,2386,1729403423,105335128,base_link,68000.0,103999.99999999997,-216000.0,-1.0,0.0,0.0,0.0,0.0,0.0,0.0,0.0,0.0
1729403423.2069283,2387,1729403423,205322592,base_link,65000.0,104999.99999999997,-211000.0,-1.0,0.0,0.0,0.0,0.0,0.0,0.0,0.0,0.0
1729403423.3096666,2388,1729403423,302953776,base_link,65000.0,104999.99999999997,-207000.0,-1.0,0.0,0.0,0.0,0.0,0.0,0.0,0.0,0.0
1729403423.4096277,2389,1729403423,405361960,base_link,67000.0,101999.99999999997,-215000.0,-1.0,0.0,0.0,0.0,0.0,0.0,0.0,0.0,0.0
1729403423.5080657,2390,1729403423,505442680,base_link,61000.0,102999.99999999997,-215000.0,-1.0,0.0,0.0,0.0,0.0,0.0,0.0,0.0,0.0
1729403423.607703,2391,1729403423,605218864,base_link,58000.0,105999.99999999997,-212000.0,-1.0,0.0,0.0,0.0,0.0,0.0,0.0,0.0,0.0
1729403423.7082384,2392,1729403423,705293048,base_link,64000.0,104999.99999999997,-213000.0,-1.0,0.0,0.0,0.0,0.0,0.0,0.0,0.0,0.0
1729403423.8068717,2393,1729403423,805280768,base_link,64000.0,106999.99999999997,-208000.0,-1.0,0.0,0.0,0.0,0.0,0.0,0.0,0.0,0.0
1729403423.9068887,2394,1729403423,905288208,base_link,67000.0,105999.99999999997,-207000.0,-1.0,0.0,0.0,0.0,0.0,0.0,0.0,0.0,0.0
1729403424.0072415,2395,1729403424,5256184,base_link,66000.0,106999.99999999997,-213000.0,-1.0,0.0,0.0,0.0,0.0,0.0,0.0,0.0,0.0
1729403424.1070013,2396,1729403424,105309416,base_link,62000.0,104999.99999999997,-214000.0,-1.0,0.0,0.0,0.0,0.0,0.0,0.0,0.0,0.0
1729403424.2072368,2397,1729403424,205325856,base_link,68000.0,100999.99999999997,-212000.0,-1.0,0.0,0.0,0.0,0.0,0.0,0.0,0.0,0.0
1729403424.3073313,2398,1729403424,305406040,base_link,58000.0,107999.99999999997,-218000.0,-1.0,0.0,0.0,0.0,0.0,0.0,0.0,0.0,0.0
1729403424.4087515,2399,1729403424,405342016,base_link,59000.0,104999.99999999997,-210000.0,-1.0,0.0,0.0,0.0,0.0,0.0,0.0,0.0,0.0
1729403424.5069044,2400,1729403424,505247200,base_link,61000.0,102999.99999999997,-218000.0,-1.0,0.0,0.0,0.0,0.0,0.0,0.0,0.0,0.0
1729403424.6079397,2401,1729403424,605372896,base_link,67000.0,106999.99999999997,-212000.0,-1.0,0.0,0.0,0.0,0.0,0.0,0.0,0.0,0.0
1729403424.7074285,2402,1729403424,705313592,base_link,62000.0,103999.99999999997,-215000.0,-1.0,0.0,0.0,0.0,0.0,0.0,0.0,0.0,0.0
1729403424.8069942,2403,1729403424,805221288,base_link,68000.0,104999.99999999997,-211000.0,-1.0,0.0,0.0,0.0,0.0,0.0,0.0,0.0,0.0
1729403424.907511,2404,1729403424,905284984,base_link,64000.0,100999.99999999997,-218000.0,-1.0,0.0,0.0,0.0,0.0,0.0,0.0,0.0,0.0
1729403425.0072894,2405,1729403425,5304680,base_link,61000.0,101999.99999999997,-208000.0,-1.0,0.0,0.0,0.0,0.0,0.0,0.0,0.0,0.0
1729403425.1077569,2406,1729403425,105277168,base_link,59000.0,107999.99999999997,-213000.0,-1.0,0.0,0.0,0.0,0.0,0.0,0.0,0.0,0.0
1729403425.2083406,2407,1729403425,205379864,base_link,60000.0,107999.99999999997,-212000.0,-1.0,0.0,0.0,0.0,0.0,0.0,0.0,0.0,0.0
1729403425.3073049,2408,1729403425,305324816,base_link,59000.0,105999.99999999997,-211000.0,-1.0,0.0,0.0,0.0,0.0,0.0,0.0,0.0,0.0
1729403425.4076052,2409,1729403425,405219744,base_link,70000.0,102999.99999999997,-211000.0,-1.0,0.0,0.0,0.0,0.0,0.0,0.0,0.0,0.0
1729403425.5049462,2410,1729403425,502907952,base_link,64000.0,106999.99999999997,-214000.0,-1.0,0.0,0.0,0.0,0.0,0.0,0.0,0.0,0.0
1729403425.6077552,2411,1729403425,605274904,base_link,60000.0,106999.99999999997,-209000.0,-1.0,0.0,0.0,0.0,0.0,0.0,0.0,0.0,0.0
1729403425.7074542,2412,1729403425,705670856,base_link,67000.0,102999.99999999997,-217000.0,-1.0,0.0,0.0,0.0,0.0,0.0,0.0,0.0,0.0
1729403425.8081026,2413,1729403425,805376344,base_link,63000.0,103999.99999999997,-210000.0,-1.0,0.0,0.0,0.0,0.0,0.0,0.0,0.0,0.0
1729403425.9075508,2414,1729403425,905659528,base_link,59000.0,104999.99999999997,-213000.0,-1.0,0.0,0.0,0.0,0.0,0.0,0.0,0.0,0.0
1729403426.0076218,2415,1729403426,5605456,base_link,64000.0,105999.99999999997,-214000.0,-1.0,0.0,0.0,0.0,0.0,0.0,0.0,0.0,0.0
1729403426.1092331,2416,1729403426,107777736,base_link,62000.0,102999.99999999997,-214000.0,-1.0,0.0,0.0,0.0,0.0,0.0,0.0,0.0,0.0
1729403426.2076092,2417,1729403426,203571456,base_link,68000.0,104999.99999999997,-209000.0,-1.0,0.0,0.0,0.0,0.0,0.0,0.0,0.0,0.0
1729403426.3077583,2418,1729403426,305647456,base_link,65000.0,104999.99999999997,-216000.0,-1.0,0.0,0.0,0.0,0.0,0.0,0.0,0.0,0.0
1729403426.407484,2419,1729403426,405644456,base_link,62000.0,102999.99999999997,-211000.0,-1.0,0.0,0.0,0.0,0.0,0.0,0.0,0.0,0.0
1729403426.508416,2420,1729403426,505603992,base_link,67000.0,104999.99999999997,-216000.0,-1.0,0.0,0.0,0.0,0.0,0.0,0.0,0.0,0.0
1729403426.6095927,2421,1729403426,605326736,base_link,64000.0,104999.99999999997,-212000.0,-1.0,0.0,0.0,0.0,0.0,0.0,0.0,0.0,0.0
1729403426.7075567,2422,1729403426,705660920,base_link,59000.0,108999.99999999997,-214000.0,-1.0,0.0,0.0,0.0,0.0,0.0,0.0,0.0,0.0
1729403426.808533,2423,1729403426,805679176,base_link,66000.0,108999.99999999997,-212000.0,-1.0,0.0,0.0,0.0,0.0,0.0,0.0,0.0,0.0
1729403426.9079304,2424,1729403426,905682616,base_link,64000.0,104999.99999999997,-216000.0,-1.0,0.0,0.0,0.0,0.0,0.0,0.0,0.0,0.0
1729403427.0082989,2425,1729403427,5805872,base_link,62000.0,105999.99999999997,-212000.0,-1.0,0.0,0.0,0.0,0.0,0.0,0.0,0.0,0.0
1729403427.1079602,2426,1729403427,105655848,base_link,69000.0,101999.99999999997,-214000.0,-1.0,0.0,0.0,0.0,0.0,0.0,0.0,0.0,0.0
1729403427.208208,2427,1729403427,205618032,base_link,65000.0,102999.99999999997,-214000.0,-1.0,0.0,0.0,0.0,0.0,0.0,0.0,0.0,0.0
1729403427.3075535,2428,1729403427,305234472,base_link,61000.0,104999.99999999997,-213000.0,-1.0,0.0,0.0,0.0,0.0,0.0,0.0,0.0,0.0
1729403427.407595,2429,1729403427,405530728,base_link,67000.0,103999.99999999997,-214000.0,-1.0,0.0,0.0,0.0,0.0,0.0,0.0,0.0,0.0
1729403427.5081666,2430,1729403427,505561240,base_link,59000.0,106999.99999999997,-220000.0,-1.0,0.0,0.0,0.0,0.0,0.0,0.0,0.0,0.0
1729403427.6061332,2431,1729403427,603601496,base_link,58000.0,104999.99999999997,-212000.0,-1.0,0.0,0.0,0.0,0.0,0.0,0.0,0.0,0.0
1729403427.70763,2432,1729403427,705650680,base_link,66000.0,103999.99999999997,-217000.0,-1.0,0.0,0.0,0.0,0.0,0.0,0.0,0.0,0.0
1729403427.8077803,2433,1729403427,805606120,base_link,66000.0,104999.99999999997,-213000.0,-1.0,0.0,0.0,0.0,0.0,0.0,0.0,0.0,0.0
1729403427.907836,2434,1729403427,905771560,base_link,61000.0,104999.99999999997,-213000.0,-1.0,0.0,0.0,0.0,0.0,0.0,0.0,0.0,0.0
1729403428.005312,2435,1729403428,3312744,base_link,68000.0,104999.99999999997,-213000.0,-1.0,0.0,0.0,0.0,0.0,0.0,0.0,0.0,0.0
1729403428.1107757,2436,1729403428,107765000,base_link,62000.0,105999.99999999997,-215000.0,-1.0,0.0,0.0,0.0,0.0,0.0,0.0,0.0,0.0
1729403428.2089696,2437,1729403428,205546440,base_link,68000.0,104999.99999999997,-210000.0,-1.0,0.0,0.0,0.0,0.0,0.0,0.0,0.0,0.0
1729403428.307859,2438,1729403428,305272136,base_link,60000.0,106999.99999999997,-221000.0,-1.0,0.0,0.0,0.0,0.0,0.0,0.0,0.0,0.0
1729403428.4076712,2439,1729403428,405514832,base_link,62000.0,104999.99999999997,-213000.0,-1.0,0.0,0.0,0.0,0.0,0.0,0.0,0.0,0.0
1729403428.507463,2440,1729403428,505541272,base_link,61000.0,102999.99999999997,-216000.0,-1.0,0.0,0.0,0.0,0.0,0.0,0.0,0.0,0.0
1729403428.607726,2441,1729403428,605563712,base_link,71000.0,103999.99999999997,-214000.0,-1.0,0.0,0.0,0.0,0.0,0.0,0.0,0.0,0.0
1729403428.7090907,2442,1729403428,705613456,base_link,63000.0,105999.99999999997,-214000.0,-1.0,0.0,0.0,0.0,0.0,0.0,0.0,0.0,0.0
1729403428.808914,2443,1729403428,805814224,base_link,62000.0,103999.99999999997,-215000.0,-1.0,0.0,0.0,0.0,0.0,0.0,0.0,0.0,0.0
1729403428.9076169,2444,1729403428,905415992,base_link,67000.0,104999.99999999997,-216000.0,-1.0,0.0,0.0,0.0,0.0,0.0,0.0,0.0,0.0
1729403429.0069315,2445,1729403429,3651688,base_link,63000.0,103999.99999999997,-212000.0,-1.0,0.0,0.0,0.0,0.0,0.0,0.0,0.0,0.0
1729403429.10795,2446,1729403429,105537640,base_link,59000.0,109999.99999999997,-216000.0,-1.0,0.0,0.0,0.0,0.0,0.0,0.0,0.0,0.0
1729403429.2078965,2447,1729403429,205507336,base_link,65000.0,104999.99999999997,-215000.0,-1.0,0.0,0.0,0.0,0.0,0.0,0.0,0.0,0.0
1729403429.3079007,2448,1729403429,305505288,base_link,61000.0,105999.99999999997,-215000.0,-1.0,0.0,0.0,0.0,0.0,0.0,0.0,0.0,0.0
1729403429.4073782,2449,1729403429,405627984,base_link,62000.0,105999.99999999997,-212000.0,-1.0,0.0,0.0,0.0,0.0,0.0,0.0,0.0,0.0
1729403429.508371,2450,1729403429,505586936,base_link,66000.0,103999.99999999997,-217000.0,-1.0,0.0,0.0,0.0,0.0,0.0,0.0,0.0,0.0
1729403429.6067996,2451,1729403429,605399448,base_link,63000.0,104999.99999999997,-211000.0,-1.0,0.0,0.0,0.0,0.0,0.0,0.0,0.0,0.0
1729403429.705328,2452,1729403429,703551216,base_link,68000.0,104999.99999999997,-213000.0,-1.0,0.0,0.0,0.0,0.0,0.0,0.0,0.0,0.0
1729403429.8068166,2453,1729403429,805507728,base_link,64000.0,104999.99999999997,-213000.0,-1.0,0.0,0.0,0.0,0.0,0.0,0.0,0.0,0.0
1729403429.90741,2454,1729403429,905616240,base_link,60000.0,104999.99999999997,-214000.0,-1.0,0.0,0.0,0.0,0.0,0.0,0.0,0.0,0.0
1729403430.0067132,2455,1729403430,5533936,base_link,66000.0,103999.99999999997,-216000.0,-1.0,0.0,0.0,0.0,0.0,0.0,0.0,0.0,0.0
1729403430.10991,2456,1729403430,107628888,base_link,63000.0,104999.99999999997,-213000.0,-1.0,0.0,0.0,0.0,0.0,0.0,0.0,0.0,0.0
1729403430.207215,2457,1729403430,205575840,base_link,63000.0,100999.99999999997,-212000.0,-1.0,0.0,0.0,0.0,0.0,0.0,0.0,0.0,0.0
1729403430.3074145,2458,1729403430,305571792,base_link,69000.0,103999.99999999997,-217000.0,-1.0,0.0,0.0,0.0,0.0,0.0,0.0,0.0,0.0
1729403430.4085312,2459,1729403430,405579000,base_link,68000.0,101999.99999999997,-214000.0,-1.0,0.0,0.0,0.0,0.0,0.0,0.0,0.0,0.0
1729403430.507119,2460,1729403430,505555208,base_link,61000.0,106999.99999999997,-212000.0,-1.0,0.0,0.0,0.0,0.0,0.0,0.0,0.0,0.0
1729403430.6077619,2461,1729403430,605600976,base_link,68000.0,103999.99999999997,-213000.0,-1.0,0.0,0.0,0.0,0.0,0.0,0.0,0.0,0.0
1729403430.7074058,2462,1729403430,705610184,base_link,59000.0,106999.99999999997,-219000.0,-1.0,0.0,0.0,0.0,0.0,0.0,0.0,0.0,0.0
1729403430.8071022,2463,1729403430,805529696,base_link,59000.0,104999.99999999997,-210000.0,-1.0,0.0,0.0,0.0,0.0,0.0,0.0,0.0,0.0
1729403430.9071198,2464,1729403430,905611464,base_link,61000.0,105999.99999999997,-217000.0,-1.0,0.0,0.0,0.0,0.0,0.0,0.0,0.0,0.0
1729403431.0097885,2465,1729403431,5592672,base_link,65000.0,106999.99999999997,-211000.0,-1.0,0.0,0.0,0.0,0.0,0.0,0.0,0.0,0.0
1729403431.1057463,2466,1729403431,103623696,base_link,62000.0,104999.99999999997,-214000.0,-1.0,0.0,0.0,0.0,0.0,0.0,0.0,0.0,0.0
1729403431.2076237,2467,1729403431,205480904,base_link,68000.0,102999.99999999997,-212000.0,-1.0,0.0,0.0,0.0,0.0,0.0,0.0,0.0,0.0
1729403431.3058565,2468,1729403431,303369112,base_link,66000.0,102999.99999999997,-215000.0,-1.0,0.0,0.0,0.0,0.0,0.0,0.0,0.0,0.0
1729403431.4077215,2469,1729403431,405625320,base_link,62000.0,105999.99999999997,-209000.0,-1.0,0.0,0.0,0.0,0.0,0.0,0.0,0.0,0.0
1729403431.5075011,2470,1729403431,505605600,base_link,60000.0,103999.99999999997,-216000.0,-1.0,0.0,0.0,0.0,0.0,0.0,0.0,0.0,0.0
1729403431.60774,2471,1729403431,605629808,base_link,64000.0,102999.99999999997,-212000.0,-1.0,0.0,0.0,0.0,0.0,0.0,0.0,0.0,0.0
1729403431.707695,2472,1729403431,705513832,base_link,62000.0,101999.99999999997,-211000.0,-1.0,0.0,0.0,0.0,0.0,0.0,0.0,0.0,0.0
1729403431.807345,2473,1729403431,805225112,base_link,61000.0,105999.99999999997,-210000.0,-1.0,0.0,0.0,0.0,0.0,0.0,0.0,0.0,0.0
1729403431.9078465,2474,1729403431,905630320,base_link,67000.0,103999.99999999997,-214000.0,-1.0,0.0,0.0,0.0,0.0,0.0,0.0,0.0,0.0
1729403432.0078073,2475,1729403432,5529600,base_link,63000.0,104999.99999999997,-211000.0,-1.0,0.0,0.0,0.0,0.0,0.0,0.0,0.0,0.0
1729403432.1072347,2476,1729403432,105338064,base_link,66000.0,103999.99999999997,-211000.0,-1.0,0.0,0.0,0.0,0.0,0.0,0.0,0.0,0.0
1729403432.2070677,2477,1729403432,205583344,base_link,65000.0,104999.99999999997,-211000.0,-1.0,0.0,0.0,0.0,0.0,0.0,0.0,0.0,0.0
1729403432.3070786,2478,1729403432,305570272,base_link,59000.0,103999.99999999997,-213000.0,-1.0,0.0,0.0,0.0,0.0,0.0,0.0,0.0,0.0
1729403432.4071362,2479,1729403432,405506552,base_link,58000.0,104999.99999999997,-214000.0,-1.0,0.0,0.0,0.0,0.0,0.0,0.0,0.0,0.0
1729403432.5061758,2480,1729403432,503582480,base_link,63000.0,102999.99999999997,-214000.0,-1.0,0.0,0.0,0.0,0.0,0.0,0.0,0.0,0.0
1729403432.6080086,2481,1729403432,605541224,base_link,63000.0,102999.99999999997,-210000.0,-1.0,0.0,0.0,0.0,0.0,0.0,0.0,0.0,0.0
1729403432.707456,2482,1729403432,705557152,base_link,68000.0,101999.99999999997,-214000.0,-1.0,0.0,0.0,0.0,0.0,0.0,0.0,0.0,0.0
1729403432.808248,2483,1729403432,805620128,base_link,66000.0,102999.99999999997,-213000.0,-1.0,0.0,0.0,0.0,0.0,0.0,0.0,0.0,0.0
1729403432.9075348,2484,1729403432,905548056,base_link,61000.0,101999.99999999997,-211000.0,-1.0,0.0,0.0,0.0,0.0,0.0,0.0,0.0,0.0
1729403433.0073566,2485,1729403433,5533240,base_link,66000.0,102999.99999999997,-211000.0,-1.0,0.0,0.0,0.0,0.0,0.0,0.0,0.0,0.0
1729403433.1078806,2486,1729403433,105542776,base_link,58000.0,103999.99999999997,-215000.0,-1.0,0.0,0.0,0.0,0.0,0.0,0.0,0.0,0.0
1729403433.2121866,2487,1729403433,203539032,base_link,60000.0,103999.99999999997,-211000.0,-1.0,0.0,0.0,0.0,0.0,0.0,0.0,0.0,0.0
1729403433.3087254,2488,1729403433,305735752,base_link,64000.0,104999.99999999997,-213000.0,-1.0,0.0,0.0,0.0,0.0,0.0,0.0,0.0,0.0
1729403433.4076245,2489,1729403433,405530936,base_link,64000.0,103999.99999999997,-210000.0,-1.0,0.0,0.0,0.0,0.0,0.0,0.0,0.0,0.0
1729403433.5076191,2490,1729403433,505470376,base_link,67000.0,104999.99999999997,-213000.0,-1.0,0.0,0.0,0.0,0.0,0.0,0.0,0.0,0.0
1729403433.6075046,2491,1729403433,605498816,base_link,66000.0,102999.99999999997,-213000.0,-1.0,0.0,0.0,0.0,0.0,0.0,0.0,0.0,0.0
1729403433.708054,2492,1729403433,705564256,base_link,60000.0,105999.99999999997,-212000.0,-1.0,0.0,0.0,0.0,0.0,0.0,0.0,0.0,0.0
1729403433.807747,2493,1729403433,805501256,base_link,67000.0,102999.99999999997,-211000.0,-1.0,0.0,0.0,0.0,0.0,0.0,0.0,0.0,0.0
1729403433.9096048,2494,1729403433,907613768,base_link,58000.0,104999.99999999997,-218000.0,-1.0,0.0,0.0,0.0,0.0,0.0,0.0,0.0,0.0
1729403434.0075023,2495,1729403434,5483256,base_link,59000.0,104999.99999999997,-209000.0,-1.0,0.0,0.0,0.0,0.0,0.0,0.0,0.0,0.0
1729403434.107831,2496,1729403434,105520488,base_link,67000.0,102999.99999999997,-212000.0,-1.0,0.0,0.0,0.0,0.0,0.0,0.0,0.0,0.0
1729403434.2083008,2497,1729403434,205781744,base_link,69000.0,102999.99999999997,-210000.0,-1.0,0.0,0.0,0.0,0.0,0.0,0.0,0.0,0.0
1729403434.3076599,2498,1729403434,305537184,base_link,62000.0,105999.99999999997,-215000.0,-1.0,0.0,0.0,0.0,0.0,0.0,0.0,0.0,0.0
1729403434.4077392,2499,1729403434,405459184,base_link,68000.0,102999.99999999997,-211000.0,-1.0,0.0,0.0,0.0,0.0,0.0,0.0,0.0,0.0
1729403434.508182,2500,1729403434,505503880,base_link,62000.0,102999.99999999997,-213000.0,-1.0,0.0,0.0,0.0,0.0,0.0,0.0,0.0,0.0
1729403434.608128,2501,1729403434,605368576,base_link,67000.0,102999.99999999997,-208000.0,-1.0,0.0,0.0,0.0,0.0,0.0,0.0,0.0,0.0
1729403434.708449,2502,1729403434,705578272,base_link,60000.0,106999.99999999997,-219000.0,-1.0,0.0,0.0,0.0,0.0,0.0,0.0,0.0,0.0
1729403434.8079257,2503,1729403434,805453968,base_link,60000.0,106999.99999999997,-210000.0,-1.0,0.0,0.0,0.0,0.0,0.0,0.0,0.0,0.0
1729403434.9074955,2504,1729403434,905514664,base_link,60000.0,103999.99999999997,-215000.0,-1.0,0.0,0.0,0.0,0.0,0.0,0.0,0.0,0.0
1729403435.008337,2505,1729403435,5471920,base_link,67000.0,104999.99999999997,-211000.0,-1.0,0.0,0.0,0.0,0.0,0.0,0.0,0.0,0.0
1729403435.108358,2506,1729403435,105813360,base_link,60000.0,102999.99999999997,-212000.0,-1.0,0.0,0.0,0.0,0.0,0.0,0.0,0.0,0.0
1729403435.2079008,2507,1729403435,205320056,base_link,68000.0,102999.99999999997,-211000.0,-1.0,0.0,0.0,0.0,0.0,0.0,0.0,0.0,0.0
1729403435.308442,2508,1729403435,305604312,base_link,64000.0,103999.99999999997,-214000.0,-1.0,0.0,0.0,0.0,0.0,0.0,0.0,0.0,0.0
1729403435.408884,2509,1729403435,405655544,base_link,60000.0,103999.99999999997,-209000.0,-1.0,0.0,0.0,0.0,0.0,0.0,0.0,0.0,0.0
1729403435.5075583,2510,1729403435,505572312,base_link,59000.0,105999.99999999997,-216000.0,-1.0,0.0,0.0,0.0,0.0,0.0,0.0,0.0,0.0
1729403435.608,2511,1729403435,605143520,base_link,62000.0,103999.99999999997,-212000.0,-1.0,0.0,0.0,0.0,0.0,0.0,0.0,0.0,0.0
1729403435.7053957,2512,1729403435,703217728,base_link,60000.0,104999.99999999997,-212000.0,-1.0,0.0,0.0,0.0,0.0,0.0,0.0,0.0,0.0
1729403435.8083112,2513,1729403435,805678936,base_link,68000.0,103999.99999999997,-211000.0,-1.0,0.0,0.0,0.0,0.0,0.0,0.0,0.0,0.0
1729403435.907385,2514,1729403435,905446216,base_link,63000.0,102999.99999999997,-213000.0,-1.0,0.0,0.0,0.0,0.0,0.0,0.0,0.0,0.0
1729403436.0057027,2515,1729403436,3489240,base_link,68000.0,101999.99999999997,-208000.0,-1.0,0.0,0.0,0.0,0.0,0.0,0.0,0.0,0.0
1729403436.1097562,2516,1729403436,107530448,base_link,66000.0,103999.99999999997,-217000.0,-1.0,0.0,0.0,0.0,0.0,0.0,0.0,0.0,0.0
1729403436.2079048,2517,1729403436,205447216,base_link,62000.0,104999.99999999997,-211000.0,-1.0,0.0,0.0,0.0,0.0,0.0,0.0,0.0,0.0
1729403436.3059888,2518,1729403436,303488680,base_link,56000.0,106999.99999999997,-217000.0,-1.0,0.0,0.0,0.0,0.0,0.0,0.0,0.0,0.0
1729403436.407001,2519,1729403436,405470448,base_link,65000.0,103999.99999999997,-211000.0,-1.0,0.0,0.0,0.0,0.0,0.0,0.0,0.0,0.0
1729403436.5073338,2520,1729403436,505585472,base_link,63000.0,103999.99999999997,-213000.0,-1.0,0.0,0.0,0.0,0.0,0.0,0.0,0.0,0.0
1729403436.6073067,2521,1729403436,605310496,base_link,61000.0,103999.99999999997,-212000.0,-1.0,0.0,0.0,0.0,0.0,0.0,0.0,0.0,0.0
1729403436.706842,2522,1729403436,705541704,base_link,66000.0,104999.99999999997,-214000.0,-1.0,0.0,0.0,0.0,0.0,0.0,0.0,0.0,0.0
1729403436.8067524,2523,1729403436,805349728,base_link,62000.0,103999.99999999997,-210000.0,-1.0,0.0,0.0,0.0,0.0,0.0,0.0,0.0,0.0
1729403436.906987,2524,1729403436,905532752,base_link,68000.0,101999.99999999997,-214000.0,-1.0,0.0,0.0,0.0,0.0,0.0,0.0,0.0,0.0
1729403437.0071805,2525,1729403437,5467960,base_link,64000.0,103999.99999999997,-212000.0,-1.0,0.0,0.0,0.0,0.0,0.0,0.0,0.0,0.0
1729403437.1072924,2526,1729403437,105496472,base_link,56000.0,106999.99999999997,-215000.0,-1.0,0.0,0.0,0.0,0.0,0.0,0.0,0.0,0.0
1729403437.2081547,2527,1729403437,205575496,base_link,65000.0,101999.99999999997,-212000.0,-1.0,0.0,0.0,0.0,0.0,0.0,0.0,0.0,0.0
1729403437.305833,2528,1729403437,303268960,base_link,65000.0,103999.99999999997,-213000.0,-1.0,0.0,0.0,0.0,0.0,0.0,0.0,0.0,0.0
1729403437.4068491,2529,1729403437,405122240,base_link,62000.0,103999.99999999997,-212000.0,-1.0,0.0,0.0,0.0,0.0,0.0,0.0,0.0,0.0
1729403437.5068803,2530,1729403437,505442264,base_link,67000.0,103999.99999999997,-213000.0,-1.0,0.0,0.0,0.0,0.0,0.0,0.0,0.0,0.0
1729403437.6071157,2531,1729403437,605510544,base_link,63000.0,103999.99999999997,-213000.0,-1.0,0.0,0.0,0.0,0.0,0.0,0.0,0.0,0.0
1729403437.7056549,2532,1729403437,703466008,base_link,67000.0,103999.99999999997,-211000.0,-1.0,0.0,0.0,0.0,0.0,0.0,0.0,0.0,0.0
1729403437.8096046,2533,1729403437,805766776,base_link,64000.0,103999.99999999997,-212000.0,-1.0,0.0,0.0,0.0,0.0,0.0,0.0,0.0,0.0
1729403437.9071765,2534,1729403437,905499056,base_link,57000.0,104999.99999999997,-215000.0,-1.0,0.0,0.0,0.0,0.0,0.0,0.0,0.0,0.0
1729403438.0085406,2535,1729403438,5440080,base_link,58000.0,103999.99999999997,-214000.0,-1.0,0.0,0.0,0.0,0.0,0.0,0.0,0.0,0.0
1729403438.1072352,2536,1729403438,105466752,base_link,68000.0,104999.99999999997,-217000.0,-1.0,0.0,0.0,0.0,0.0,0.0,0.0,0.0,0.0
1729403438.2075028,2537,1729403438,205541032,base_link,64000.0,104999.99999999997,-211000.0,-1.0,0.0,0.0,0.0,0.0,0.0,0.0,0.0,0.0
1729403438.308374,2538,1729403438,305525568,base_link,67000.0,104999.99999999997,-215000.0,-1.0,0.0,0.0,0.0,0.0,0.0,0.0,0.0,0.0
1729403438.4059036,2539,1729403438,403523288,base_link,66000.0,102999.99999999997,-213000.0,-1.0,0.0,0.0,0.0,0.0,0.0,0.0,0.0,0.0
1729403438.5079234,2540,1729403438,505675568,base_link,66000.0,104999.99999999997,-214000.0,-1.0,0.0,0.0,0.0,0.0,0.0,0.0,0.0,0.0
1729403438.6072493,2541,1729403438,605474592,base_link,61000.0,104999.99999999997,-215000.0,-1.0,0.0,0.0,0.0,0.0,0.0,0.0,0.0,0.0
1729403438.707601,2542,1729403438,705542056,base_link,61000.0,103999.99999999997,-213000.0,-1.0,0.0,0.0,0.0,0.0,0.0,0.0,0.0,0.0
1729403438.806956,2543,1729403438,805354800,base_link,58000.0,104999.99999999997,-213000.0,-1.0,0.0,0.0,0.0,0.0,0.0,0.0,0.0,0.0
1729403438.9069781,2544,1729403438,905499800,base_link,67000.0,104999.99999999997,-216000.0,-1.0,0.0,0.0,0.0,0.0,0.0,0.0,0.0,0.0
1729403439.0074875,2545,1729403439,5441800,base_link,66000.0,103999.99999999997,-210000.0,-1.0,0.0,0.0,0.0,0.0,0.0,0.0,0.0,0.0
1729403439.1061013,2546,1729403439,103498520,base_link,67000.0,102999.99999999997,-212000.0,-1.0,0.0,0.0,0.0,0.0,0.0,0.0,0.0,0.0
1729403439.2077353,2547,1729403439,205474264,base_link,65000.0,101999.99999999997,-211000.0,-1.0,0.0,0.0,0.0,0.0,0.0,0.0,0.0,0.0
1729403439.3074036,2548,1729403439,305509520,base_link,60000.0,105999.99999999997,-212000.0,-1.0,0.0,0.0,0.0,0.0,0.0,0.0,0.0,0.0
1729403439.4060907,2549,1729403439,403341056,base_link,61000.0,104999.99999999997,-214000.0,-1.0,0.0,0.0,0.0,0.0,0.0,0.0,0.0,0.0
1729403439.5077422,2550,1729403439,505574240,base_link,60000.0,104999.99999999997,-216000.0,-1.0,0.0,0.0,0.0,0.0,0.0,0.0,0.0,0.0
1729403439.6088712,2551,1729403439,605482240,base_link,61000.0,103999.99999999997,-210000.0,-1.0,0.0,0.0,0.0,0.0,0.0,0.0,0.0,0.0
1729403439.707568,2552,1729403439,705333240,base_link,67000.0,103999.99999999997,-216000.0,-1.0,0.0,0.0,0.0,0.0,0.0,0.0,0.0,0.0
1729403439.8074698,2553,1729403439,805238984,base_link,65000.0,103999.99999999997,-210000.0,-1.0,0.0,0.0,0.0,0.0,0.0,0.0,0.0,0.0
1729403439.9071472,2554,1729403439,905457240,base_link,66000.0,102999.99999999997,-210000.0,-1.0,0.0,0.0,0.0,0.0,0.0,0.0,0.0,0.0
1729403440.0079634,2555,1729403440,5565496,base_link,66000.0,102999.99999999997,-211000.0,-1.0,0.0,0.0,0.0,0.0,0.0,0.0,0.0,0.0
1729403440.106018,2556,1729403440,103331288,base_link,61000.0,103999.99999999997,-214000.0,-1.0,0.0,0.0,0.0,0.0,0.0,0.0,0.0,0.0
1729403440.2062874,2557,1729403440,203483544,base_link,61000.0,104999.99999999997,-212000.0,-1.0,0.0,0.0,0.0,0.0,0.0,0.0,0.0,0.0
1729403440.3076568,2558,1729403440,305533056,base_link,62000.0,106999.99999999997,-217000.0,-1.0,0.0,0.0,0.0,0.0,0.0,0.0,0.0,0.0
1729403440.4081502,2559,1729403440,405230520,base_link,62000.0,103999.99999999997,-210000.0,-1.0,0.0,0.0,0.0,0.0,0.0,0.0,0.0,0.0
1729403440.5075636,2560,1729403440,505259984,base_link,67000.0,103999.99999999997,-212000.0,-1.0,0.0,0.0,0.0,0.0,0.0,0.0,0.0,0.0
1729403440.60664,2561,1729403440,605163704,base_link,67000.0,104999.99999999997,-213000.0,-1.0,0.0,0.0,0.0,0.0,0.0,0.0,0.0,0.0
1729403440.7069666,2562,1729403440,705162168,base_link,60000.0,103999.99999999997,-211000.0,-1.0,0.0,0.0,0.0,0.0,0.0,0.0,0.0,0.0
1729403440.8056808,2563,1729403440,802780888,base_link,68000.0,103999.99999999997,-213000.0,-1.0,0.0,0.0,0.0,0.0,0.0,0.0,0.0,0.0
1729403440.9055078,2564,1729403440,902768608,base_link,61000.0,103999.99999999997,-216000.0,-1.0,0.0,0.0,0.0,0.0,0.0,0.0,0.0,0.0
1729403441.0051706,2565,1729403441,2816328,base_link,61000.0,104999.99999999997,-213000.0,-1.0,0.0,0.0,0.0,0.0,0.0,0.0,0.0,0.0
1729403441.107332,2566,1729403441,105350584,base_link,63000.0,105999.99999999997,-216000.0,-1.0,0.0,0.0,0.0,0.0,0.0,0.0,0.0,0.0
1729403441.207492,2567,1729403441,205453560,base_link,64000.0,103999.99999999997,-211000.0,-1.0,0.0,0.0,0.0,0.0,0.0,0.0,0.0,0.0
1729403441.3075056,2568,1729403441,305746280,base_link,61000.0,105999.99999999997,-215000.0,-1.0,0.0,0.0,0.0,0.0,0.0,0.0,0.0,0.0
1729403441.4093246,2569,1729403441,405561000,base_link,67000.0,103999.99999999997,-212000.0,-1.0,0.0,0.0,0.0,0.0,0.0,0.0,0.0,0.0
1729403441.5075123,2570,1729403441,505374512,base_link,61000.0,104999.99999999997,-216000.0,-1.0,0.0,0.0,0.0,0.0,0.0,0.0,0.0,0.0
1729403441.6075213,2571,1729403441,605490976,base_link,69000.0,102999.99999999997,-210000.0,-1.0,0.0,0.0,0.0,0.0,0.0,0.0,0.0,0.0
1729403441.7075217,2572,1729403441,705418696,base_link,62000.0,103999.99999999997,-217000.0,-1.0,0.0,0.0,0.0,0.0,0.0,0.0,0.0,0.0
1729403441.807583,2573,1729403441,805429416,base_link,58000.0,106999.99999999997,-214000.0,-1.0,0.0,0.0,0.0,0.0,0.0,0.0,0.0,0.0
1729403441.9075956,2574,1729403441,905342136,base_link,64000.0,102999.99999999997,-214000.0,-1.0,0.0,0.0,0.0,0.0,0.0,0.0,0.0,0.0
1729403442.0051997,2575,1729403442,2733112,base_link,67000.0,101999.99999999997,-212000.0,-1.0,0.0,0.0,0.0,0.0,0.0,0.0,0.0,0.0
1729403442.1053789,2576,1729403442,102835088,base_link,59000.0,104999.99999999997,-215000.0,-1.0,0.0,0.0,0.0,0.0,0.0,0.0,0.0,0.0
1729403442.208171,2577,1729403442,202815064,base_link,69000.0,102999.99999999997,-214000.0,-1.0,0.0,0.0,0.0,0.0,0.0,0.0,0.0,0.0
1729403442.3075159,2578,1729403442,305460040,base_link,62000.0,102999.99999999997,-214000.0,-1.0,0.0,0.0,0.0,0.0,0.0,0.0,0.0,0.0
1729403442.4052665,2579,1729403442,402797272,base_link,69000.0,101999.99999999997,-211000.0,-1.0,0.0,0.0,0.0,0.0,0.0,0.0,0.0,0.0
1729403442.5054286,2580,1729403442,502828248,base_link,64000.0,103999.99999999997,-219000.0,-1.0,0.0,0.0,0.0,0.0,0.0,0.0,0.0,0.0
1729403442.607681,2581,1729403442,605477224,base_link,58000.0,105999.99999999997,-211000.0,-1.0,0.0,0.0,0.0,0.0,0.0,0.0,0.0,0.0
1729403442.707663,2582,1729403442,705702456,base_link,57000.0,104999.99999999997,-215000.0,-1.0,0.0,0.0,0.0,0.0,0.0,0.0,0.0,0.0
1729403442.8079295,2583,1729403442,805422688,base_link,68000.0,102999.99999999997,-211000.0,-1.0,0.0,0.0,0.0,0.0,0.0,0.0,0.0,0.0
1729403442.9056013,2584,1729403442,902717920,base_link,61000.0,103999.99999999997,-214000.0,-1.0,0.0,0.0,0.0,0.0,0.0,0.0,0.0,0.0
1729403443.0082214,2585,1729403443,5818896,base_link,69000.0,104999.99999999997,-212000.0,-1.0,0.0,0.0,0.0,0.0,0.0,0.0,0.0,0.0
1729403443.1061819,2586,1729403443,102714384,base_link,65000.0,102999.99999999997,-215000.0,-1.0,0.0,0.0,0.0,0.0,0.0,0.0,0.0,0.0
1729403443.2054207,2587,1729403443,202757872,base_link,67000.0,102999.99999999997,-210000.0,-1.0,0.0,0.0,0.0,0.0,0.0,0.0,0.0,0.0
1729403443.3073614,2588,1729403443,305664616,base_link,63000.0,106999.99999999997,-218000.0,-1.0,0.0,0.0,0.0,0.0,0.0,0.0,0.0,0.0
1729403443.4076724,2589,1729403443,405706592,base_link,58000.0,103999.99999999997,-212000.0,-1.0,0.0,0.0,0.0,0.0,0.0,0.0,0.0,0.0
1729403443.5067008,2590,1729403443,505439080,base_link,56000.0,104999.99999999997,-216000.0,-1.0,0.0,0.0,0.0,0.0,0.0,0.0,0.0,0.0
1729403443.609503,2591,1729403443,605397824,base_link,68000.0,103999.99999999997,-212000.0,-1.0,0.0,0.0,0.0,0.0,0.0,0.0,0.0,0.0
1729403443.708422,2592,1729403443,705718312,base_link,61000.0,105999.99999999997,-213000.0,-1.0,0.0,0.0,0.0,0.0,0.0,0.0,0.0,0.0
1729403443.807558,2593,1729403443,805416776,base_link,69000.0,103999.99999999997,-212000.0,-1.0,0.0,0.0,0.0,0.0,0.0,0.0,0.0,0.0
1729403443.9067812,2594,1729403443,905413520,base_link,65000.0,105999.99999999997,-218000.0,-1.0,0.0,0.0,0.0,0.0,0.0,0.0,0.0,0.0
1729403444.0068905,2595,1729403444,5395264,base_link,62000.0,103999.99999999997,-209000.0,-1.0,0.0,0.0,0.0,0.0,0.0,0.0,0.0,0.0
1729403444.1082234,2596,1729403444,105464496,base_link,59000.0,105999.99999999997,-219000.0,-1.0,0.0,0.0,0.0,0.0,0.0,0.0,0.0,0.0
1729403444.20574,2597,1729403444,202763984,base_link,61000.0,105999.99999999997,-213000.0,-1.0,0.0,0.0,0.0,0.0,0.0,0.0,0.0,0.0
1729403444.306987,2598,1729403444,305409472,base_link,59000.0,103999.99999999997,-214000.0,-1.0,0.0,0.0,0.0,0.0,0.0,0.0,0.0,0.0
1729403444.408627,2599,1729403444,405751960,base_link,70000.0,104999.99999999997,-213000.0,-1.0,0.0,0.0,0.0,0.0,0.0,0.0,0.0,0.0
1729403444.5056677,2600,1729403444,502863704,base_link,65000.0,103999.99999999997,-214000.0,-1.0,0.0,0.0,0.0,0.0,0.0,0.0,0.0,0.0
1729403444.6071022,2601,1729403444,605297704,base_link,69000.0,102999.99999999997,-212000.0,-1.0,0.0,0.0,0.0,0.0,0.0,0.0,0.0,0.0
1729403444.7071147,2602,1729403444,705508704,base_link,65000.0,102999.99999999997,-215000.0,-1.0,0.0,0.0,0.0,0.0,0.0,0.0,0.0,0.0
1729403444.8071513,2603,1729403444,805541448,base_link,62000.0,104999.99999999997,-211000.0,-1.0,0.0,0.0,0.0,0.0,0.0,0.0,0.0,0.0
1729403444.905334,2604,1729403444,902743192,base_link,59000.0,107999.99999999997,-219000.0,-1.0,0.0,0.0,0.0,0.0,0.0,0.0,0.0,0.0
1729403445.0043623,2605,1729403445,2757936,base_link,62000.0,107999.99999999997,-212000.0,-1.0,0.0,0.0,0.0,0.0,0.0,0.0,0.0,0.0
1729403445.1072998,2606,1729403445,105506680,base_link,61000.0,104999.99999999997,-215000.0,-1.0,0.0,0.0,0.0,0.0,0.0,0.0,0.0,0.0
1729403445.2051902,2607,1729403445,202702912,base_link,68000.0,103999.99999999997,-209000.0,-1.0,0.0,0.0,0.0,0.0,0.0,0.0,0.0,0.0
1729403445.3069336,2608,1729403445,305469168,base_link,65000.0,104999.99999999997,-215000.0,-1.0,0.0,0.0,0.0,0.0,0.0,0.0,0.0,0.0
1729403445.405018,2609,1729403445,402752912,base_link,60000.0,105999.99999999997,-209000.0,-1.0,0.0,0.0,0.0,0.0,0.0,0.0,0.0,0.0
1729403445.5077674,2610,1729403445,505823656,base_link,66000.0,102999.99999999997,-217000.0,-1.0,0.0,0.0,0.0,0.0,0.0,0.0,0.0,0.0
1729403445.60512,2611,1729403445,602848656,base_link,62000.0,102999.99999999997,-210000.0,-1.0,0.0,0.0,0.0,0.0,0.0,0.0,0.0,0.0
1729403445.7048366,2612,1729403445,702836912,base_link,60000.0,105999.99999999997,-218000.0,-1.0,0.0,0.0,0.0,0.0,0.0,0.0,0.0,0.0
1729403445.807025,2613,1729403445,805410376,base_link,65000.0,106999.99999999997,-212000.0,-1.0,0.0,0.0,0.0,0.0,0.0,0.0,0.0,0.0
1729403445.907044,2614,1729403445,905462840,base_link,61000.0,105999.99999999997,-213000.0,-1.0,0.0,0.0,0.0,0.0,0.0,0.0,0.0,0.0
1729403446.0052342,2615,1729403446,2753840,base_link,69000.0,104999.99999999997,-210000.0,-1.0,0.0,0.0,0.0,0.0,0.0,0.0,0.0,0.0
1729403446.1046612,2616,1729403446,102743840,base_link,65000.0,103999.99999999997,-215000.0,-1.0,0.0,0.0,0.0,0.0,0.0,0.0,0.0,0.0
1729403446.2074358,2617,1729403446,205704304,base_link,62000.0,103999.99999999997,-211000.0,-1.0,0.0,0.0,0.0,0.0,0.0,0.0,0.0,0.0
1729403446.3082967,2618,1729403446,305434304,base_link,67000.0,103999.99999999997,-216000.0,-1.0,0.0,0.0,0.0,0.0,0.0,0.0,0.0,0.0
1729403446.408145,2619,1729403446,405475024,base_link,61000.0,103999.99999999997,-213000.0,-1.0,0.0,0.0,0.0,0.0,0.0,0.0,0.0,0.0
1729403446.5071704,2620,1729403446,505668744,base_link,60000.0,106999.99999999997,-216000.0,-1.0,0.0,0.0,0.0,0.0,0.0,0.0,0.0,0.0
1729403446.607729,2621,1729403446,605534000,base_link,65000.0,105999.99999999997,-213000.0,-1.0,0.0,0.0,0.0,0.0,0.0,0.0,0.0,0.0
1729403446.70537,2622,1729403446,702847232,base_link,62000.0,104999.99999999997,-214000.0,-1.0,0.0,0.0,0.0,0.0,0.0,0.0,0.0,0.0
1729403446.807533,2623,1729403446,805647952,base_link,68000.0,101999.99999999997,-209000.0,-1.0,0.0,0.0,0.0,0.0,0.0,0.0,0.0,0.0
1729403446.9071784,2624,1729403446,905655928,base_link,65000.0,103999.99999999997,-215000.0,-1.0,0.0,0.0,0.0,0.0,0.0,0.0,0.0,0.0
1729403447.006342,2625,1729403447,2731648,base_link,61000.0,102999.99999999997,-211000.0,-1.0,0.0,0.0,0.0,0.0,0.0,0.0,0.0,0.0
1729403447.1087935,2626,1729403447,105454416,base_link,67000.0,103999.99999999997,-216000.0,-1.0,0.0,0.0,0.0,0.0,0.0,0.0,0.0,0.0
1729403447.2051535,2627,1729403447,202715928,base_link,63000.0,103999.99999999997,-213000.0,-1.0,0.0,0.0,0.0,0.0,0.0,0.0,0.0,0.0
1729403447.3088062,2628,1729403447,305300160,base_link,57000.0,106999.99999999997,-218000.0,-1.0,0.0,0.0,0.0,0.0,0.0,0.0,0.0,0.0
1729403447.4051375,2629,1729403447,402698136,base_link,66000.0,102999.99999999997,-211000.0,-1.0,0.0,0.0,0.0,0.0,0.0,0.0,0.0,0.0
1729403447.5107586,2630,1729403447,505545368,base_link,64000.0,103999.99999999997,-213000.0,-1.0,0.0,0.0,0.0,0.0,0.0,0.0,0.0,0.0
1729403447.6074185,2631,1729403447,605681856,base_link,61000.0,105999.99999999997,-210000.0,-1.0,0.0,0.0,0.0,0.0,0.0,0.0,0.0,0.0
1729403447.707144,2632,1729403447,705509832,base_link,66000.0,106999.99999999997,-214000.0,-1.0,0.0,0.0,0.0,0.0,0.0,0.0,0.0,0.0
1729403447.805043,2633,1729403447,802825064,base_link,62000.0,104999.99999999997,-211000.0,-1.0,0.0,0.0,0.0,0.0,0.0,0.0,0.0,0.0
1729403447.9049861,2634,1729403447,902730040,base_link,68000.0,104999.99999999997,-214000.0,-1.0,0.0,0.0,0.0,0.0,0.0,0.0,0.0,0.0
1729403448.0073066,2635,1729403448,5301272,base_link,63000.0,105999.99999999997,-213000.0,-1.0,0.0,0.0,0.0,0.0,0.0,0.0,0.0,0.0
1729403448.1062696,2636,1729403448,102700040,base_link,57000.0,106999.99999999997,-215000.0,-1.0,0.0,0.0,0.0,0.0,0.0,0.0,0.0,0.0
1729403448.2064857,2637,1729403448,202812272,base_link,66000.0,104999.99999999997,-212000.0,-1.0,0.0,0.0,0.0,0.0,0.0,0.0,0.0,0.0
1729403448.3055966,2638,1729403448,302717504,base_link,63000.0,104999.99999999997,-212000.0,-1.0,0.0,0.0,0.0,0.0,0.0,0.0,0.0,0.0
1729403448.4056506,2639,1729403448,402793736,base_link,61000.0,104999.99999999997,-215000.0,-1.0,0.0,0.0,0.0,0.0,0.0,0.0,0.0,0.0
1729403448.5052383,2640,1729403448,502687712,base_link,66000.0,104999.99999999997,-215000.0,-1.0,0.0,0.0,0.0,0.0,0.0,0.0,0.0,0.0
1729403448.605252,2641,1729403448,602741944,base_link,63000.0,104999.99999999997,-211000.0,-1.0,0.0,0.0,0.0,0.0,0.0,0.0,0.0,0.0
1729403448.7064617,2642,1729403448,705285176,base_link,65000.0,104999.99999999997,-215000.0,-1.0,0.0,0.0,0.0,0.0,0.0,0.0,0.0,0.0
1729403448.8067393,2643,1729403448,805374408,base_link,62000.0,104999.99999999997,-213000.0,-1.0,0.0,0.0,0.0,0.0,0.0,0.0,0.0,0.0
1729403448.905597,2644,1729403448,902852640,base_link,55000.0,107999.99999999997,-217000.0,-1.0,0.0,0.0,0.0,0.0,0.0,0.0,0.0,0.0
1729403449.0065782,2645,1729403449,5387128,base_link,58000.0,104999.99999999997,-212000.0,-1.0,0.0,0.0,0.0,0.0,0.0,0.0,0.0,0.0
1729403449.1068275,2646,1729403449,105268872,base_link,64000.0,105999.99999999997,-212000.0,-1.0,0.0,0.0,0.0,0.0,0.0,0.0,0.0,0.0
1729403449.205566,2647,1729403449,202731360,base_link,69000.0,101999.99999999997,-210000.0,-1.0,0.0,0.0,0.0,0.0,0.0,0.0,0.0,0.0
1729403449.3082259,2648,1729403449,305817848,base_link,65000.0,105999.99999999997,-213000.0,-1.0,0.0,0.0,0.0,0.0,0.0,0.0,0.0,0.0
1729403449.405276,2649,1729403449,402722336,base_link,62000.0,103999.99999999997,-210000.0,-1.0,0.0,0.0,0.0,0.0,0.0,0.0,0.0,0.0
1729403449.5066774,2650,1729403449,505450824,base_link,65000.0,104999.99999999997,-213000.0,-1.0,0.0,0.0,0.0,0.0,0.0,0.0,0.0,0.0
1729403449.6055973,2651,1729403449,602731312,base_link,60000.0,105999.99999999997,-214000.0,-1.0,0.0,0.0,0.0,0.0,0.0,0.0,0.0,0.0
1729403449.707536,2652,1729403449,705467544,base_link,58000.0,104999.99999999997,-214000.0,-1.0,0.0,0.0,0.0,0.0,0.0,0.0,0.0,0.0
1729403449.8070655,2653,1729403449,805384032,base_link,68000.0,102999.99999999997,-212000.0,-1.0,0.0,0.0,0.0,0.0,0.0,0.0,0.0,0.0
1729403449.9066405,2654,1729403449,905409544,base_link,65000.0,105999.99999999997,-212000.0,-1.0,0.0,0.0,0.0,0.0,0.0,0.0,0.0,0.0
1729403450.0077546,2655,1729403450,5671288,base_link,61000.0,104999.99999999997,-210000.0,-1.0,0.0,0.0,0.0,0.0,0.0,0.0,0.0,0.0
1729403450.1057432,2656,1729403450,102686032,base_link,67000.0,105999.99999999997,-217000.0,-1.0,0.0,0.0,0.0,0.0,0.0,0.0,0.0,0.0
1729403450.2057729,2657,1729403450,202832776,base_link,62000.0,103999.99999999997,-210000.0,-1.0,0.0,0.0,0.0,0.0,0.0,0.0,0.0,0.0
1729403450.3068168,2658,1729403450,305284520,base_link,65000.0,103999.99999999997,-215000.0,-1.0,0.0,0.0,0.0,0.0,0.0,0.0,0.0,0.0
1729403450.4066648,2659,1729403450,405447008,base_link,60000.0,104999.99999999997,-214000.0,-1.0,0.0,0.0,0.0,0.0,0.0,0.0,0.0,0.0
1729403450.505648,2660,1729403450,502711752,base_link,56000.0,104999.99999999997,-212000.0,-1.0,0.0,0.0,0.0,0.0,0.0,0.0,0.0,0.0
1729403450.6070123,2661,1729403450,605417240,base_link,68000.0,103999.99999999997,-208000.0,-1.0,0.0,0.0,0.0,0.0,0.0,0.0,0.0,0.0
1729403450.7082317,2662,1729403450,705666728,base_link,64000.0,104999.99999999997,-213000.0,-1.0,0.0,0.0,0.0,0.0,0.0,0.0,0.0,0.0
1729403450.8086386,2663,1729403450,805499728,base_link,68000.0,104999.99999999997,-209000.0,-1.0,0.0,0.0,0.0,0.0,0.0,0.0,0.0,0.0
1729403450.9069636,2664,1729403450,902802472,base_link,63000.0,104999.99999999997,-215000.0,-1.0,0.0,0.0,0.0,0.0,0.0,0.0,0.0,0.0
1729403451.008845,2665,1729403451,5469216,base_link,61000.0,103999.99999999997,-211000.0,-1.0,0.0,0.0,0.0,0.0,0.0,0.0,0.0,0.0
1729403451.1057143,2666,1729403451,102840216,base_link,65000.0,104999.99999999997,-214000.0,-1.0,0.0,0.0,0.0,0.0,0.0,0.0,0.0,0.0
1729403451.207718,2667,1729403451,202714216,base_link,60000.0,106999.99999999997,-214000.0,-1.0,0.0,0.0,0.0,0.0,0.0,0.0,0.0,0.0
1729403451.3072717,2668,1729403451,305429960,base_link,58000.0,104999.99999999997,-214000.0,-1.0,0.0,0.0,0.0,0.0,0.0,0.0,0.0,0.0
1729403451.4048505,2669,1729403451,402737960,base_link,70000.0,102999.99999999997,-210000.0,-1.0,0.0,0.0,0.0,0.0,0.0,0.0,0.0,0.0
1729403451.5072818,2670,1729403451,505417704,base_link,64000.0,103999.99999999997,-214000.0,-1.0,0.0,0.0,0.0,0.0,0.0,0.0,0.0,0.0
1729403451.6045432,2671,1729403451,602736704,base_link,61000.0,104999.99999999997,-211000.0,-1.0,0.0,0.0,0.0,0.0,0.0,0.0,0.0,0.0
1729403451.7071555,2672,1729403451,705289704,base_link,66000.0,103999.99999999997,-215000.0,-1.0,0.0,0.0,0.0,0.0,0.0,0.0,0.0,0.0
1729403451.806827,2673,1729403451,805363936,base_link,62000.0,100999.99999999997,-211000.0,-1.0,0.0,0.0,0.0,0.0,0.0,0.0,0.0,0.0
1729403451.9046695,2674,1729403451,902741936,base_link,59000.0,105999.99999999997,-217000.0,-1.0,0.0,0.0,0.0,0.0,0.0,0.0,0.0,0.0
1729403452.0055864,2675,1729403452,2830936,base_link,66000.0,103999.99999999997,-212000.0,-1.0,0.0,0.0,0.0,0.0,0.0,0.0,0.0,0.0
1729403452.1070476,2676,1729403452,105691936,base_link,57000.0,105999.99999999997,-215000.0,-1.0,0.0,0.0,0.0,0.0,0.0,0.0,0.0,0.0
1729403452.2069511,2677,1729403452,205419936,base_link,68000.0,102999.99999999997,-209000.0,-1.0,0.0,0.0,0.0,0.0,0.0,0.0,0.0,0.0
1729403452.3069334,2678,1729403452,305368448,base_link,65000.0,103999.99999999997,-214000.0,-1.0,0.0,0.0,0.0,0.0,0.0,0.0,0.0,0.0
1729403452.4069872,2679,1729403452,405691448,base_link,61000.0,106999.99999999997,-212000.0,-1.0,0.0,0.0,0.0,0.0,0.0,0.0,0.0,0.0
1729403452.5068882,2680,1729403452,502700216,base_link,68000.0,101999.99999999997,-216000.0,-1.0,0.0,0.0,0.0,0.0,0.0,0.0,0.0,0.0
1729403452.6069913,2681,1729403452,605376472,base_link,63000.0,104999.99999999997,-213000.0,-1.0,0.0,0.0,0.0,0.0,0.0,0.0,0.0,0.0
1729403452.7053585,2682,1729403452,702804216,base_link,59000.0,106999.99999999997,-214000.0,-1.0,0.0,0.0,0.0,0.0,0.0,0.0,0.0,0.0
1729403452.8084204,2683,1729403452,805732472,base_link,63000.0,108999.99999999997,-212000.0,-1.0,0.0,0.0,0.0,0.0,0.0,0.0,0.0,0.0
1729403452.9052536,2684,1729403452,902839728,base_link,62000.0,105999.99999999997,-213000.0,-1.0,0.0,0.0,0.0,0.0,0.0,0.0,0.0,0.0
1729403453.0073168,2685,1729403453,5485240,base_link,62000.0,104999.99999999997,-213000.0,-1.0,0.0,0.0,0.0,0.0,0.0,0.0,0.0,0.0
1729403453.1072016,2686,1729403453,105518752,base_link,63000.0,104999.99999999997,-214000.0,-1.0,0.0,0.0,0.0,0.0,0.0,0.0,0.0,0.0
1729403453.2049124,2687,1729403453,202658728,base_link,61000.0,105999.99999999997,-211000.0,-1.0,0.0,0.0,0.0,0.0,0.0,0.0,0.0,0.0
1729403453.3049097,2688,1729403453,302778960,base_link,67000.0,103999.99999999997,-217000.0,-1.0,0.0,0.0,0.0,0.0,0.0,0.0,0.0,0.0
1729403453.4073784,2689,1729403453,405272192,base_link,63000.0,102999.99999999997,-211000.0,-1.0,0.0,0.0,0.0,0.0,0.0,0.0,0.0,0.0
1729403453.5074158,2690,1729403453,505655424,base_link,59000.0,105999.99999999997,-215000.0,-1.0,0.0,0.0,0.0,0.0,0.0,0.0,0.0,0.0
1729403453.6076705,2691,1729403453,605256656,base_link,63000.0,104999.99999999997,-214000.0,-1.0,0.0,0.0,0.0,0.0,0.0,0.0,0.0,0.0
1729403453.7049766,2692,1729403453,702709144,base_link,61000.0,103999.99999999997,-212000.0,-1.0,0.0,0.0,0.0,0.0,0.0,0.0,0.0,0.0
1729403453.8078644,2693,1729403453,805763376,base_link,69000.0,103999.99999999997,-211000.0,-1.0,0.0,0.0,0.0,0.0,0.0,0.0,0.0,0.0
1729403453.9072616,2694,1729403453,905362352,base_link,65000.0,104999.99999999997,-213000.0,-1.0,0.0,0.0,0.0,0.0,0.0,0.0,0.0,0.0
1729403454.00499,2695,1729403454,2722072,base_link,62000.0,105999.99999999997,-210000.0,-1.0,0.0,0.0,0.0,0.0,0.0,0.0,0.0,0.0
1729403454.1073432,2696,1729403454,105471096,base_link,66000.0,104999.99999999997,-215000.0,-1.0,0.0,0.0,0.0,0.0,0.0,0.0,0.0,0.0
1729403454.2072399,2697,1729403454,205655816,base_link,62000.0,104999.99999999997,-211000.0,-1.0,0.0,0.0,0.0,0.0,0.0,0.0,0.0,0.0
1729403454.3092468,2698,1729403454,305278304,base_link,60000.0,104999.99999999997,-213000.0,-1.0,0.0,0.0,0.0,0.0,0.0,0.0,0.0,0.0
1729403454.4048371,2699,1729403454,402738792,base_link,63000.0,106999.99999999997,-215000.0,-1.0,0.0,0.0,0.0,0.0,0.0,0.0,0.0,0.0
1729403454.507253,2700,1729403454,505678280,base_link,61000.0,102999.99999999997,-210000.0,-1.0,0.0,0.0,0.0,0.0,0.0,0.0,0.0,0.0
1729403454.6074915,2701,1729403454,605252488,base_link,69000.0,103999.99999999997,-211000.0,-1.0,0.0,0.0,0.0,0.0,0.0,0.0,0.0,0.0
1729403454.7080505,2702,1729403454,705387976,base_link,66000.0,103999.99999999997,-214000.0,-1.0,0.0,0.0,0.0,0.0,0.0,0.0,0.0,0.0
1729403454.8059354,2703,1729403454,802730208,base_link,62000.0,103999.99999999997,-211000.0,-1.0,0.0,0.0,0.0,0.0,0.0,0.0,0.0,0.0
1729403454.9088495,2704,1729403454,905434440,base_link,66000.0,103999.99999999997,-216000.0,-1.0,0.0,0.0,0.0,0.0,0.0,0.0,0.0,0.0
1729403455.00667,2705,1729403455,5469928,base_link,62000.0,103999.99999999997,-212000.0,-1.0,0.0,0.0,0.0,0.0,0.0,0.0,0.0,0.0
1729403455.1050854,2706,1729403455,102738416,base_link,56000.0,107999.99999999997,-218000.0,-1.0,0.0,0.0,0.0,0.0,0.0,0.0,0.0,0.0
1729403455.2076383,2707,1729403455,205467904,base_link,66000.0,103999.99999999997,-213000.0,-1.0,0.0,0.0,0.0,0.0,0.0,0.0,0.0,0.0
1729403455.3066964,2708,1729403455,305022392,base_link,61000.0,104999.99999999997,-215000.0,-1.0,0.0,0.0,0.0,0.0,0.0,0.0,0.0,0.0
1729403455.4053662,2709,1729403455,403366856,base_link,70000.0,103999.99999999997,-211000.0,-1.0,0.0,0.0,0.0,0.0,0.0,0.0,0.0,0.0
1729403455.5069718,2710,1729403455,505494576,base_link,63000.0,105999.99999999997,-211000.0,-1.0,0.0,0.0,0.0,0.0,0.0,0.0,0.0,0.0
1729403455.606889,2711,1729403455,605397832,base_link,61000.0,104999.99999999997,-211000.0,-1.0,0.0,0.0,0.0,0.0,0.0,0.0,0.0,0.0
1729403455.7069051,2712,1729403455,705371552,base_link,68000.0,105999.99999999997,-217000.0,-1.0,0.0,0.0,0.0,0.0,0.0,0.0,0.0,0.0
1729403455.8072264,2713,1729403455,805609832,base_link,63000.0,104999.99999999997,-212000.0,-1.0,0.0,0.0,0.0,0.0,0.0,0.0,0.0,0.0
1729403455.9069114,2714,1729403455,905267552,base_link,57000.0,107999.99999999997,-216000.0,-1.0,0.0,0.0,0.0,0.0,0.0,0.0,0.0,0.0
1729403456.006998,2715,1729403456,5449576,base_link,66000.0,105999.99999999997,-212000.0,-1.0,0.0,0.0,0.0,0.0,0.0,0.0,0.0,0.0
1729403456.10684,2716,1729403456,105418296,base_link,65000.0,105999.99999999997,-216000.0,-1.0,0.0,0.0,0.0,0.0,0.0,0.0,0.0,0.0
1729403456.2064934,2717,1729403456,205356832,base_link,63000.0,104999.99999999997,-212000.0,-1.0,0.0,0.0,0.0,0.0,0.0,0.0,0.0,0.0
1729403456.3081753,2718,1729403456,305471064,base_link,65000.0,102999.99999999997,-214000.0,-1.0,0.0,0.0,0.0,0.0,0.0,0.0,0.0,0.0
1729403456.4074402,2719,1729403456,405510600,base_link,63000.0,103999.99999999997,-212000.0,-1.0,0.0,0.0,0.0,0.0,0.0,0.0,0.0,0.0
1729403456.5052009,2720,1729403456,503259576,base_link,67000.0,102999.99999999997,-213000.0,-1.0,0.0,0.0,0.0,0.0,0.0,0.0,0.0,0.0
1729403456.6072905,2721,1729403456,605497296,base_link,65000.0,102999.99999999997,-213000.0,-1.0,0.0,0.0,0.0,0.0,0.0,0.0,0.0,0.0
1729403456.7069705,2722,1729403456,705600016,base_link,57000.0,106999.99999999997,-215000.0,-1.0,0.0,0.0,0.0,0.0,0.0,0.0,0.0,0.0
1729403456.806784,2723,1729403456,805352992,base_link,59000.0,104999.99999999997,-212000.0,-1.0,0.0,0.0,0.0,0.0,0.0,0.0,0.0,0.0
1729403456.9081056,2724,1729403456,905045528,base_link,66000.0,104999.99999999997,-213000.0,-1.0,0.0,0.0,0.0,0.0,0.0,0.0,0.0,0.0
1729403457.0067792,2725,1729403457,5453504,base_link,63000.0,102999.99999999997,-212000.0,-1.0,0.0,0.0,0.0,0.0,0.0,0.0,0.0,0.0
1729403457.107328,2726,1729403457,105361224,base_link,67000.0,105999.99999999997,-213000.0,-1.0,0.0,0.0,0.0,0.0,0.0,0.0,0.0,0.0
1729403457.2068198,2727,1729403457,205055200,base_link,66000.0,104999.99999999997,-213000.0,-1.0,0.0,0.0,0.0,0.0,0.0,0.0,0.0,0.0
1729403457.307532,2728,1729403457,305571992,base_link,60000.0,103999.99999999997,-215000.0,-1.0,0.0,0.0,0.0,0.0,0.0,0.0,0.0,0.0
1729403457.407357,2729,1729403457,405685224,base_link,66000.0,106999.99999999997,-214000.0,-1.0,0.0,0.0,0.0,0.0,0.0,0.0,0.0,0.0
1729403457.506822,2730,1729403457,505259456,base_link,58000.0,108999.99999999997,-216000.0,-1.0,0.0,0.0,0.0,0.0,0.0,0.0,0.0,0.0
1729403457.607448,2731,1729403457,605610248,base_link,59000.0,106999.99999999997,-209000.0,-1.0,0.0,0.0,0.0,0.0,0.0,0.0,0.0,0.0
1729403457.7078397,2732,1729403457,705394480,base_link,67000.0,104999.99999999997,-214000.0,-1.0,0.0,0.0,0.0,0.0,0.0,0.0,0.0,0.0
1729403457.8073683,2733,1729403457,805377272,base_link,65000.0,105999.99999999997,-211000.0,-1.0,0.0,0.0,0.0,0.0,0.0,0.0,0.0,0.0
1729403457.9077504,2734,1729403457,905394504,base_link,60000.0,103999.99999999997,-214000.0,-1.0,0.0,0.0,0.0,0.0,0.0,0.0,0.0,0.0
1729403458.008403,2735,1729403458,5481480,base_link,68000.0,103999.99999999997,-212000.0,-1.0,0.0,0.0,0.0,0.0,0.0,0.0,0.0,0.0
1729403458.107908,2736,1729403458,105541896,base_link,62000.0,104999.99999999997,-216000.0,-1.0,0.0,0.0,0.0,0.0,0.0,0.0,0.0,0.0
1729403458.2077122,2737,1729403458,205571128,base_link,61000.0,105999.99999999997,-211000.0,-1.0,0.0,0.0,0.0,0.0,0.0,0.0,0.0,0.0
1729403458.3069315,2738,1729403458,305404360,base_link,63000.0,105999.99999999997,-216000.0,-1.0,0.0,0.0,0.0,0.0,0.0,0.0,0.0,0.0
1729403458.407227,2739,1729403458,405344616,base_link,64000.0,103999.99999999997,-210000.0,-1.0,0.0,0.0,0.0,0.0,0.0,0.0,0.0,0.0
1729403458.507011,2740,1729403458,505497056,base_link,60000.0,104999.99999999997,-215000.0,-1.0,0.0,0.0,0.0,0.0,0.0,0.0,0.0,0.0
1729403458.605851,2741,1729403458,603365544,base_link,67000.0,104999.99999999997,-215000.0,-1.0,0.0,0.0,0.0,0.0,0.0,0.0,0.0,0.0
1729403458.707863,2742,1729403458,705588056,base_link,62000.0,104999.99999999997,-213000.0,-1.0,0.0,0.0,0.0,0.0,0.0,0.0,0.0,0.0
1729403458.8072226,2743,1729403458,805415752,base_link,69000.0,103999.99999999997,-213000.0,-1.0,0.0,0.0,0.0,0.0,0.0,0.0,0.0,0.0
1729403458.906846,2744,1729403458,905228240,base_link,64000.0,104999.99999999997,-216000.0,-1.0,0.0,0.0,0.0,0.0,0.0,0.0,0.0,0.0
1729403459.007034,2745,1729403459,5372752,base_link,61000.0,104999.99999999997,-210000.0,-1.0,0.0,0.0,0.0,0.0,0.0,0.0,0.0,0.0
1729403459.1075284,2746,1729403459,105564776,base_link,57000.0,107999.99999999997,-219000.0,-1.0,0.0,0.0,0.0,0.0,0.0,0.0,0.0,0.0
1729403459.205723,2747,1729403459,203230824,base_link,64000.0,102999.99999999997,-210000.0,-1.0,0.0,0.0,0.0,0.0,0.0,0.0,0.0,0.0
