Time,header.seq,header.stamp.secs,header.stamp.nsecs,header.frame_id,twist.linear.x,twist.linear.y,twist.linear.z,twist.angular.x,twist.angular.y,twist.angular.z
1729403414.561832,2287,1729403413,312772416,base_link,-0.009318498894572258,-0.02150055207312107,-0.02069448120892048,0.0010036962207415846,0.0003128124726726371,-0.0005473169148517396
1729403414.5620997,2288,1729403413,412770880,base_link,-0.008894930593669415,-0.022147582843899727,-0.01892252266407013,-0.0009573996225120698,0.0001741268935073199,-0.00042077795001529625
1729403414.5623364,2289,1729403413,514768320,base_link,-0.008797669783234596,-0.02259446121752262,-0.01535920798778534,0.0001993526471996534,0.00047211955284459905,0.0008164362965357795
1729403414.5625696,2290,1729403413,614766016,base_link,-0.007823442108929157,-0.021288834512233734,-0.01236277911812067,-0.00019417725223894397,0.0002518117068736223,0.0001291192413061255
1729403414.5626965,2291,1729403413,712763456,base_link,-0.007400187198072672,-0.020101623609662056,-0.010073600336909294,0.0005814725812056814,-0.0005426389712397994,-0.0006899026889396459
1729403414.5627959,2292,1729403413,814761152,base_link,-0.007190882693976164,-0.018477216362953186,-0.008722029626369476,0.0005613684930448451,0.0012459263736756382,-0.00042760174457977647
1729403414.5630796,2293,1729403413,912758848,base_link,-0.005361710209399462,-0.017836233600974083,-0.008617708459496498,0.0005982106075162328,0.0010707529541452239,0.0005037109051122986
1729403414.563255,2294,1729403414,12756288,base_link,-0.004903722554445267,-0.01623547077178955,-0.007884185761213303,0.0004813914030759475,0.00021396110582514938,0.00033815845976363295
1729403414.5634866,2295,1729403414,112753728,base_link,-0.004947206471115351,-0.015352437272667885,-0.008123568259179592,-3.493438382627699e-05,-0.0017607544883238727,-0.00018066229109346612
1729403414.5636404,2296,1729403414,212751424,base_link,-0.003975588362663984,-0.013757986947894096,-0.007152406498789787,-0.00028848310749038933,-0.0004682976475204138,-0.0005322808976535991
1729403414.5638855,2297,1729403414,312749120,base_link,-0.003256417578086257,-0.01166375633329153,-0.006794400047510862,0.0006524306378065177,-9.622981278587047e-05,-0.00015557958893045582
1729403414.5642185,2298,1729403414,414746048,base_link,-0.0018469287315383554,-0.009770854376256466,-0.006958212237805128,-0.00023653375365782,-0.000744975896010902,-0.0014106647424884484
1729403414.5643778,2299,1729403414,512743744,base_link,-0.00026628165505826473,-0.009299032390117645,-0.006496933754533529,0.0008738148844893574,1.609968443159301e-05,-0.00011639570077772665
1729403414.6145372,2300,1729403414,612741440,base_link,0.0007802250329405069,-0.007778237108141184,-0.006268650759011507,0.00011988464580046641,0.0009058898119300813,-0.00020929662778293914
1729403414.7143657,2301,1729403414,712739392,base_link,0.002647541929036379,-0.006644660606980324,-0.005758127197623253,-6.969793756581803e-05,-0.0005775619299408766,0.0007652554015953665
1729403414.8163416,2302,1729403414,814737088,base_link,0.004271475598216057,-0.0058752140030264854,-0.0031626338604837656,0.0010835337641894765,-0.0009528971849364719,-0.0003419288749134181
1729403414.9146636,2303,1729403414,912734528,base_link,0.004268944729119539,-0.0052783191204071045,-0.0018477148842066526,0.0008722765807264019,-0.00039118985690135804,-0.00031002005778501277
1729403415.0144455,2304,1729403415,12732224,base_link,0.004310364834964275,-0.0031836391426622868,-0.0003328520688228309,0.00037611325419797785,0.00041772724920009053,-8.519116530877675e-05
1729403415.114751,2305,1729403415,112729920,base_link,0.004489613231271505,-0.001978605519980192,-0.0006506394711323082,4.0907711863171044e-05,-0.00011438156270370861,0.00017152877598129607
1729403415.2147765,2306,1729403415,212727616,base_link,0.0060764094814658165,-0.00035572945489548147,-0.000692515226546675,0.0001730092861350921,0.0005456095053575765,-0.001198014246536534
1729403415.3145838,2307,1729403415,312725568,base_link,0.007862101309001446,0.00039249472320079803,-0.0007070459541864693,-0.00023673751943339107,5.6658836317900104e-05,-0.0002974926132016525
1729403415.417208,2308,1729403415,414723776,base_link,0.00940820761024952,0.0015172347193583846,-0.00109432905446738,0.0001103523412899596,0.00011999912686356836,-0.0002946427080183649
1729403415.5192864,2309,1729403415,514721216,base_link,0.010972533375024796,0.003674095496535301,-0.0009090395178645849,-0.00033677002643799005,-0.0005374989882391037,-0.0008959118789039125
1729403415.615217,2310,1729403415,612719168,base_link,0.012102245353162289,0.0048467013984918594,-0.0017231125384569168,0.0005653792570451206,-0.0003688167645001369,-5.8088397161890855e-06
1729403415.717028,2311,1729403415,714717376,base_link,0.012800144031643867,0.006055082660168409,-0.004265537019819021,-0.0003024723050378804,-5.185060624443134e-05,0.00011496353555144961
1729403415.8170564,2312,1729403415,814715584,base_link,0.012976812198758125,0.00795165728777647,-0.00460521737113595,0.001455388322966493,5.4259861975741994e-05,-0.0006034097272768649
1729403415.9171805,2313,1729403415,914713792,base_link,0.012591591104865074,0.01027227845042944,-0.005561694502830505,0.000445607542712278,-0.0008381885955547186,0.00016858208031629674
1729403416.017023,2314,1729403416,14712000,base_link,0.012944962829351425,0.012437989003956318,-0.005511343013495207,0.00018502620559292195,-0.0004192671731458086,-0.0004299581530933745
1729403416.1153588,2315,1729403416,112710208,base_link,0.013821091502904892,0.01375066488981247,-0.006810157559812069,1.1160904966664131e-05,-0.000394519446719365,-0.00029880661772760516
1729403416.2153306,2316,1729403416,212708160,base_link,0.013877703808248043,0.013971653766930103,-0.004281874280422926,-0.00033791624253362546,0.0003903549307621034,-0.00038040521513757816
1729403416.3172643,2317,1729403416,314706368,base_link,0.014235235750675201,0.014466216787695885,-0.003417764324694872,-0.00018374216313592434,-9.952675618832797e-05,-0.0006318155937858083
1729403416.4154687,2318,1729403416,412704576,base_link,0.013984737917780876,0.016027474775910378,-0.0024593104608356953,0.0007055317860169695,-0.0006550267165131592,-0.0007202801923756146
1729403416.517136,2319,1729403416,514703040,base_link,0.015346384607255459,0.017329558730125427,-0.0019710229244083166,0.0007655729968945127,-0.0009349072405225235,-0.0005296508542887104
1729403416.617636,2320,1729403416,614701248,base_link,0.015270625241100788,0.018039578571915627,-0.0020798800978809595,0.0006526536267409542,-0.0006659500217346248,-0.00014957988014518292
1729403416.7156105,2321,1729403416,712698176,base_link,0.014832444489002228,0.01718214713037014,-0.0039039195980876684,-0.0005294276677656384,-0.001834600094482043,-0.0006618146995718687
1729403416.8154323,2322,1729403416,812695360,base_link,0.016176961362361908,0.017060840502381325,-0.006210618186742067,0.000246192825575761,-0.0008364048546729529,-0.0005071701542537198
1729403416.9174607,2323,1729403416,914692544,base_link,0.01706651784479618,0.016560273244976997,-0.006485383026301861,0.000659745167050366,6.501848191065956e-05,0.0002252741047310962
1729403417.01786,2324,1729403417,14689472,base_link,0.017316490411758423,0.01613803580403328,-0.007810917217284441,-0.0007341935495201634,-0.0001856233719635075,-0.0004469267376248612
1729403417.1156604,2325,1729403417,112688448,base_link,0.017459968104958534,0.01565183512866497,-0.008706948719918728,-0.0008231791295903648,-0.00013796621750895375,0.0002910524096442531
1729403417.2153065,2326,1729403417,212687168,base_link,0.01755448617041111,0.01393832080066204,-0.006066549103707075,0.0015536410744199107,0.0008832296483910544,3.785354750647066e-06
1729403417.3171315,2327,1729403417,314684096,base_link,0.016754819080233574,0.012325631454586983,-0.003087475197389722,1.813861422383971e-05,-0.00014623419199817975,0.00048576572900879483
1729403417.4154592,2328,1729403417,412682816,base_link,0.01702982932329178,0.011329994536936283,-0.0019691025372594595,-0.0008828459514664794,0.0010444028963159803,-6.621734529252369e-05
1729403417.5150838,2329,1729403417,512681536,base_link,0.016932418569922447,0.012312649749219418,-0.000966361491009593,-0.0004325146283027928,0.00019343806265522515,-0.0005317849145158272
1729403417.617064,2330,1729403417,614678464,base_link,0.017603931948542595,0.012754441238939762,0.0014984046574681997,0.00024155324538502264,-0.0006429521145121184,-0.00043405717402153515
1729403417.7171147,2331,1729403417,714675392,base_link,0.017285112291574478,0.013189246878027916,0.0034393540117889643,-0.0004752229535265354,0.0007191243435630951,-0.00024539806014687443
1729403417.8149114,2332,1729403417,812672576,base_link,0.01788267120718956,0.014585398137569427,0.006474972236901522,0.0010702127088542883,0.00034254344105859476,-0.0005210818827485056
1729403417.9171953,2333,1729403417,914669760,base_link,0.018516873940825462,0.015439237467944622,0.009694928303360939,0.00020821229700686807,9.909834674880041e-05,-0.00041633370725266844
1729403418.0177221,2334,1729403418,14666944,base_link,0.01855049841105938,0.015605042688548565,0.011884422972798347,0.00035623847298919283,-0.00041167761271097874,0.00019385559662325492
1729403418.1149278,2335,1729403418,112665920,base_link,0.018386367708444595,0.015464827418327332,0.012652755714952946,0.0003917437428462093,-0.0006825916513753128,-0.0003506924815127225
1729403418.2164931,2336,1729403418,212663104,base_link,0.018591266125440598,0.016162674874067307,0.013373578898608685,1.3404428565001394e-05,-0.0005138563930237758,-0.000782173288851859
1729403418.3144565,2337,1729403418,312660544,base_link,0.018854839727282524,0.016729481518268585,0.013267486356198788,5.42263364063587e-05,0.000623494463584036,0.00040180191554578754
1729403418.4179437,2338,1729403418,414657984,base_link,0.019456857815384865,0.018785150721669197,0.012353543192148209,0.000352624556718723,0.00015335595100790698,-0.0013366235976320375
1729403418.5147662,2339,1729403418,512655424,base_link,0.019637029618024826,0.020272502675652504,0.010737661272287369,-0.0011484944249146127,-0.00020598331498760108,0.0001290298099931792
1729403418.6155167,2340,1729403418,612652864,base_link,0.01977020502090454,0.02183441072702408,0.010831763967871666,0.000595772540283041,-0.0006613667606968681,0.00014839384455279386
1729403418.7143939,2341,1729403418,712650304,base_link,0.01989513821899891,0.023359544575214386,0.009649333544075489,-0.0006739756281832983,-0.0007123925506606476,0.0005715355418238577
1729403418.8145862,2342,1729403418,812647744,base_link,0.019596116617321968,0.024592606350779533,0.008174816146492958,0.0009099676927049388,-0.0005317504693275202,-0.0008918606074669024
1729403418.9143934,2343,1729403418,912645696,base_link,0.020117856562137604,0.024993306025862694,0.007540685124695301,0.0005071954720087212,-0.0006091994757982458,0.0010746885089130006
1729403419.0174537,2344,1729403419,14643136,base_link,0.02057769149541855,0.025706756860017776,0.008910572156310081,0.0019238379359427847,-0.0001315394405990952,-0.000957141033125801
1729403419.117866,2345,1729403419,114642112,base_link,0.020850278437137604,0.025906488299369812,0.008099144324660301,0.00017194896120310883,0.00020916929829074238,-0.0011301336744598464
1729403419.2127807,2346,1729403419,209639808,base_link,0.02066592313349247,0.026483280584216118,0.006163970101624727,-0.000160366384064743,0.0006652164070330903,-0.00015929747709924797
1729403419.315502,2347,1729403419,312637504,base_link,0.020873544737696648,0.02656005695462227,0.005037975963205099,-0.0005650368296406695,-0.0005415234114373452,0.00027282854777569413
1729403419.4182816,2348,1729403419,414635200,base_link,0.020981555804610252,0.024823294952511787,0.00406064186245203,-0.0017668536567033285,-0.0004910234078675825,-0.0005568533618144737
1729403419.5145407,2349,1729403419,512632896,base_link,0.020477354526519775,0.022103985771536827,0.003799636848270893,-0.0004947381826274693,-0.00034787839715199194,0.0015989816185081635
1729403419.614876,2350,1729403419,612630592,base_link,0.02006363868713379,0.021266808733344078,0.004998880438506603,2.0671969302849444e-07,0.00038449352080316786,-0.00011387003844338166
1729403419.7185507,2351,1729403419,714628288,base_link,0.020425206050276756,0.02118571847677231,0.0074828388169407845,0.00018030093944844573,-0.0008252038399762015,0.0001975506400293014
1729403419.8169684,2352,1729403419,812625984,base_link,0.019826533272862434,0.021317778155207634,0.008433644659817219,-0.0003514519989216766,-0.0004718194817192879,-4.9532269284278496e-05
1729403419.9147203,2353,1729403419,912623936,base_link,0.018706168979406357,0.021010924130678177,0.009428568184375763,-0.00018445873061231506,-0.0005830163496070603,-0.0014725013388761099
1729403420.0148144,2354,1729403420,12621632,base_link,0.017469555139541626,0.020731184631586075,0.009523631073534489,0.0012949749353069761,-0.0006703948414875734,-0.0003856040502645216
1729403420.114728,2355,1729403420,112619328,base_link,0.015683166682720184,0.020113378763198853,0.008187892846763134,-0.0002626887793381235,-0.0004667490724313154,-0.0010563520755052136
1729403420.2196338,2356,1729403420,217617280,base_link,0.014001729898154736,0.0202318225055933,0.006763421464711428,-0.0006718787649279209,0.00019884752990763515,-0.0004202262328633039
1729403420.314319,2357,1729403420,312615232,base_link,0.012624344788491726,0.020813534036278725,0.00586085906252265,-0.00010915564935811252,-0.00015707971972665812,-0.0004379942871130572
1729403420.4175088,2358,1729403420,414613184,base_link,0.011519534513354301,0.01998230442404747,0.004023115150630474,-0.00023503280586501785,0.0009817219507369422,0.0004615701393295637
1729403420.5142283,2359,1729403420,512611136,base_link,0.011097203008830547,0.01858014240860939,0.00395673792809248,0.0008524883540091855,0.00016997050049543565,-0.0002734269260857251
1729403420.6178722,2360,1729403420,614609344,base_link,0.01004630234092474,0.016969069838523865,0.0033512520603835583,-0.0003133899885543766,-0.000344200317838254,-0.0014698602802992167
1729403420.714791,2361,1729403420,712607296,base_link,0.00917037297040224,0.015301470644772053,0.0017253393307328224,0.0006468336320875728,-0.0005505218146703639,0.0008053131543333318
1729403420.816907,2362,1729403420,814605504,base_link,0.00941191054880619,0.014122934080660343,0.00025485578225925565,0.0012605101322863722,8.659207617309635e-05,9.455678857718522e-05
1729403420.9151468,2363,1729403420,912603456,base_link,0.008895336650311947,0.01258526649326086,-0.0004411977424751967,0.0006130537775996669,0.000657940822326093,-0.00023584138595360833
1729403421.0182264,2364,1729403421,14601408,base_link,0.00862001720815897,0.011273248121142387,-0.00019953558512497693,-0.00019958932032126413,0.0003388964579563668,-3.89652425437924e-06
1729403421.1166823,2365,1729403421,114599616,base_link,0.00826642569154501,0.009781674481928349,-0.0004889264819212258,-0.00021775179392904704,-0.00014225495747849763,-0.0010317651968572853
1729403421.2184987,2366,1729403421,214597568,base_link,0.008203585632145405,0.011386344209313393,-0.0004154252237640321,0.0009518531681438156,0.00014872935650026115,0.00010494042939450523
1729403421.3150017,2367,1729403421,312596032,base_link,0.008910263888537884,0.013176816515624523,-0.001047045923769474,-0.0003246130516758216,-0.0009213112641832067,7.647923283138144e-05
1729403421.416934,2368,1729403421,414594240,base_link,0.009789271280169487,0.015828970819711685,-0.0012411265634000301,-0.0002781298317723126,-1.538193560595593e-05,0.00014763249544867132
1729403421.5175216,2369,1729403421,514592448,base_link,0.010757405310869217,0.01715109869837761,-0.0024838740937411785,0.0014081072344630991,-0.00033528982883211954,-0.0009295968477452327
1729403421.61519,2370,1729403421,612590656,base_link,0.011324052698910236,0.016622269526124,-0.003011487890034914,-0.0004842921343304316,-0.00031066797857109816,-0.00019142274660186528
1729403421.715034,2371,1729403421,712589120,base_link,0.01112387329339981,0.016045119613409042,-0.0039060090202838182,-0.00032853883934882614,0.0003049186473745173,0.00013673357404350812
1729403421.8170838,2372,1729403421,814587328,base_link,0.010396517813205719,0.014949394389986992,-0.005362520460039377,0.0012812475411980275,-0.0006969387790302308,-0.00016195567808646467
1729403421.9181795,2373,1729403421,914585792,base_link,0.009519454091787338,0.014031059108674526,-0.007110309787094593,-0.0008363538333170978,0.0004711311195886171,2.550458297052552e-05
1729403422.0150964,2374,1729403422,12584256,base_link,0.007647223304957151,0.015425892546772957,-0.008829152211546898,0.000202249322285813,0.00034718425146625657,-0.000936500125107863
1729403422.1171703,2375,1729403422,114582464,base_link,0.005692961160093546,0.01779790408909321,-0.010342199355363846,0.000305179984593076,-3.063497224196055e-05,-0.0007361256063197419
1729403422.2153916,2376,1729403422,212580928,base_link,0.0031884859781712294,0.018055811524391174,-0.010244273580610752,-5.308788583950664e-05,-0.000568246129210033,-0.0005074628632178815
1729403422.3151703,2377,1729403422,312579392,base_link,0.0007431950652971864,0.018856091424822807,-0.009797513484954834,0.0004632604265085869,-0.0003222362624266476,-0.000819513222040477
1729403422.4170635,2378,1729403422,414577600,base_link,-0.0005691511323675513,0.017009662464261055,-0.011941460892558098,0.00017578351516102297,-0.0005292866017878723,0.0006545985426453658
1729403422.5149412,2379,1729403422,512576064,base_link,-0.0015724656404927373,0.015135494992136955,-0.012894987128674984,-0.00026347733873790445,-0.0009299591120971585,-0.0007383614247973528
1729403422.615103,2380,1729403422,612574528,base_link,-0.004311675205826759,0.0133922528475523,-0.014129526913166046,7.599391096429625e-05,-0.00032710519408933695,-0.000357322119174346
1729403422.7152543,2381,1729403422,712573248,base_link,-0.008042908273637295,0.01271315198391676,-0.014788247644901276,7.183768450781509e-05,-0.0005063442957054257,0.00017288649476735187
1729403422.8174558,2382,1729403422,814571968,base_link,-0.009592261165380478,0.010651194490492344,-0.014158805832266808,-0.00031830576390631316,4.852255127354094e-05,-0.000648208778659779
1729403422.9172378,2383,1729403422,914570688,base_link,-0.011490718461573124,0.008220808580517769,-0.014883139170706272,4.941860207776524e-05,0.00015955775358376072,-0.0009715763893544463
1729403423.0152855,2384,1729403423,12569408,base_link,-0.011755463667213917,0.006103646941483021,-0.015653392300009727,0.0008510109392040438,-0.000542630347673724,-0.00036753275135779586
1729403423.1149554,2385,1729403423,112568128,base_link,-0.011638371273875237,0.003502306994050741,-0.015395021066069603,-0.0011328419594600907,0.00014619082268271086,6.07372131099777e-05
1729403423.2159877,2386,1729403423,212566592,base_link,-0.011653697118163109,0.003065406112000346,-0.013855301775038242,-0.0004925187473401756,-0.0009652443277817262,-0.00017076721189816113
1729403423.3157146,2387,1729403423,312563776,base_link,-0.011379944160580635,0.003767549991607666,-0.012835540808737278,-0.00010375809907273684,0.00014816814986965483,-1.8689652471574372e-05
1729403423.4153543,2388,1729403423,412560960,base_link,-0.011894243769347668,0.0040763793513178825,-0.012894812971353531,0.0003119932186157212,0.00032033440565951154,0.00029162942001727054
1729403423.518299,2389,1729403423,514559680,base_link,-0.013073313981294632,0.004894506186246872,-0.012110295705497265,0.0004433665806444501,-7.397032543064998e-05,0.00021106318229924481
1729403423.6156676,2390,1729403423,612556864,base_link,-0.011929518543183804,0.005804670043289661,-0.010671078227460384,0.00036045108936587,-0.00021348825340731896,-0.001399462791072162
1729403423.7125397,2391,1729403423,710554048,base_link,-0.011156050488352776,0.008010697551071644,-0.008863349445164204,-0.0004979764405406496,-0.0007118145582525334,-0.000703630458594433
1729403423.8175097,2392,1729403423,814552768,base_link,-0.010118852369487286,0.008254983462393284,-0.00796780176460743,0.0010581215303369443,-5.5312504372735155e-05,0.0007448918014610938
1729403423.9175363,2393,1729403423,914550208,base_link,-0.009277342818677425,0.00973298866301775,-0.008632026612758636,-5.744336718323153e-05,8.425473701272516e-06,-0.000808936238289238
1729403424.017221,2394,1729403424,14549184,base_link,-0.007717044558376074,0.00986536219716072,-0.006859310436993837,-0.000504891277479302,8.4631852395141e-05,1.9047571614307797e-05
1729403424.1154783,2395,1729403424,112548416,base_link,-0.005575162824243307,0.00985074695199728,-0.0053651235066354275,-0.0011810333567465548,-0.00025778464441059834,0.00045088204067718455
1729403424.21785,2396,1729403424,214545856,base_link,-0.003616638481616974,0.00981635507196188,-0.003980487119406462,-0.0007740726553349916,-0.0003860714799121336,0.00020251461167727816
1729403424.3154619,2397,1729403424,312543040,base_link,-0.003402814269065857,0.010167336091399193,-0.002791407285258174,-0.00012039475400190114,0.0004926278496154261,0.0003240637412337965
1729403424.4144855,2398,1729403424,412542016,base_link,-0.0020578133407980204,0.011040394194424152,-0.0021725711412727833,0.0012164973327076466,3.8517970238281296e-05,-0.00020872440698839592
1729403424.5157368,2399,1729403424,512539200,base_link,0.0003861352743115276,0.011925408616662025,-0.002837174106389284,0.0005298162414464908,0.0010005511687500147,-0.0018411459820847987
1729403424.6183178,2400,1729403424,614536896,base_link,0.0006118390592746437,0.01286587119102478,-0.0023788646794855595,0.00041920374082082167,-0.00036485988053976614,-0.0005381418704710312
1729403424.7174637,2401,1729403424,714534592,base_link,-0.00011308040120638907,0.012504583224654198,-0.0019542721565812826,0.0001410462920229974,0.0009934082824345773,-0.00034273351999955835
1729403424.817457,2402,1729403424,814532288,base_link,-0.0008317891042679548,0.012524837628006935,-0.001591117586940527,-0.0005090179924378854,-0.0010283909880334887,-0.0013474603885606754
1729403424.917359,2403,1729403424,914529984,base_link,-0.000697107519954443,0.012558975256979465,-0.0004820482572540641,8.777314863968395e-06,0.00021092059153189806,-0.0006214690887299306
1729403425.014548,2404,1729403425,12527680,base_link,-0.0015436438843607903,0.011542250402271748,-0.00022094271844252944,-0.000962711973218768,0.0003827003699504455,-0.0004648691451888518
1729403425.1163285,2405,1729403425,112527168,base_link,-0.001269727130420506,0.01014272402971983,0.00036923011066392064,0.0003878902654610064,0.00023670260555861878,-0.0002484988000432282
1729403425.2186177,2406,1729403425,214524864,base_link,-0.00082126643974334,0.00906682014465332,0.0011283103376626968,-0.0004179084661414854,0.0006235994442046835,0.00033768943753660353
1729403425.317347,2407,1729403425,314522816,base_link,-0.0005456375074572861,0.008050449192523956,0.0017005348345264792,-0.0015530703510967527,-0.0003014183198050733,-0.00024255694926456563
1729403425.4156778,2408,1729403425,412519744,base_link,0.000572454184293747,0.008182214573025703,0.0028455390129238367,-0.0007835009784649294,-0.0005009655580262673,0.0002934464803657018
1729403425.5149639,2409,1729403425,512517952,base_link,0.0010026202071458101,0.009033747017383575,0.004529069643467665,-0.0002621160635041724,0.0010652655370659223,0.00014485026048230486
1729403425.617617,2410,1729403425,614515904,base_link,0.0016250305343419313,0.008091965690255165,0.005820028483867645,-0.0003122939478036722,-0.0007419594105160589,0.0004447091007736408
1729403425.7145772,2411,1729403425,712513856,base_link,0.0012924413895234466,0.005502187646925449,0.0078062335960567,4.486960962501708e-05,0.0004339526933082296,-0.0008159252735278347
1729403425.8178465,2412,1729403425,815513344,base_link,0.0018079187721014023,0.0027853078208863735,0.010138161480426788,-1.660230859655875e-05,0.0005064903529969589,-0.0005709877359011146
1729403425.9148207,2413,1729403425,912510528,base_link,0.001292043481953442,0.000701024429872632,0.010747235268354416,0.00043079751485950753,-0.0012627194658447049,0.00015894127722158928
1729403426.0145543,2414,1729403426,12507456,base_link,0.0010751497466117144,-0.0010923760710284114,0.009912987239658833,0.0001522666412639512,0.00015873198274820726,-0.0004068328763138366
1729403426.1182554,2415,1729403426,114508736,base_link,0.0006482164608314633,-0.0017221150919795036,0.009364253841340542,-0.0002500886968026312,-0.0007076573675178757,-0.0004999465876054856
1729403426.2131493,2416,1729403426,209507456,base_link,-0.0012588835088536143,-0.0015316125936806202,0.010374631732702255,-0.0005423808438984839,-0.000251143579218741,-0.001783161847739807
1729403426.3149397,2417,1729403426,312507456,base_link,-0.0035693305544555187,-0.001258806325495243,0.010075921192765236,-0.0009016741543868552,0.0005249321545366375,-0.0005423736157100696
1729403426.41473,2418,1729403426,412507456,base_link,-0.0032879940699785948,2.7374053388484754e-05,0.009659324772655964,0.00048297581480117165,0.00041472113632569574,-2.3348991392132248e-05
1729403426.5152855,2419,1729403426,512508992,base_link,-0.003689232049509883,0.002483070595189929,0.009976353496313095,0.0002730811816100959,0.0006311781750773533,-0.0010173828936392419
1729403426.614842,2420,1729403426,612508736,base_link,-0.0027785697020590305,0.0029324947390705347,0.009487608447670937,-9.731149819187723e-05,-0.00031887772446633373,-0.0002995757976936826
1729403426.7146213,2421,1729403426,712505920,base_link,-0.0023522989358752966,0.002646440640091896,0.00900686252862215,0.00013802928030240953,-0.0013962710492264492,-0.001436489100920529
1729403426.8149111,2422,1729403426,812506176,base_link,-0.002282944740727544,0.003546824213117361,0.00807251501828432,-0.0006225563729786569,2.4014728547148944e-05,-0.0006639144844484435
1729403426.9182267,2423,1729403426,915503616,base_link,-0.0015959807205945253,0.004350817296653986,0.006899433676153421,0.00043504151439234653,-0.0012240150350640658,0.0002624411780615912
1729403427.0148528,2424,1729403427,12503872,base_link,-0.0020237176213413477,0.004736665170639753,0.005226386711001396,3.611546901752405e-05,0.0004658885585913778,-0.0007162628678408518
1729403427.114848,2425,1729403427,112502848,base_link,-0.0020094311330467463,0.005986406933516264,0.004780987277626991,-0.00039614265097728243,-0.00024412772444550376,-0.0007731837254713114
1729403427.2149904,2426,1729403427,212500032,base_link,-0.002334544900804758,0.007605109363794327,0.0031670485623180866,-0.00047520708719392255,0.0006424820365612663,-5.7872206386001894e-05
1729403427.3131151,2427,1729403427,309497472,base_link,-0.0037535373121500015,0.009025350213050842,0.00045972850057296455,0.000924632882191866,-0.000279819963013987,-0.0006102224847648515
1729403427.4162123,2428,1729403427,412497728,base_link,-0.004741906654089689,0.009915884584188461,-0.00012338114902377129,0.0005216944729203811,9.080550123364557e-05,-0.00022419841885217625
1729403427.515066,2429,1729403427,512498240,base_link,-0.006656151730567217,0.009396789595484734,-0.0019799633882939816,0.00018662624307971994,-0.0006925917764370877,-0.0013947671287531372
1729403427.613207,2430,1729403427,609498496,base_link,-0.008058592677116394,0.011075802147388458,-0.002469544066116214,-0.0002815041259601407,0.0011437507019907067,-0.00014469393441433572
1729403427.71515,2431,1729403427,712495680,base_link,-0.008910675533115864,0.011626657098531723,-0.0022640142124146223,-0.00024765368833333236,-0.00018359969927423837,-0.0009278231206651941
1729403427.8148959,2432,1729403427,812493120,base_link,-0.00894523411989212,0.010634910315275192,-0.002307301852852106,-0.001113461874233434,-0.0006295746403819297,-0.001398082252357765
1729403427.914951,2433,1729403427,912490560,base_link,-0.00809614546597004,0.009254454635083675,-0.0028608834836632013,0.00011351598989008878,-4.552521715001823e-06,1.7634557432614134e-05
1729403428.0149796,2434,1729403428,12487744,base_link,-0.006784046534448862,0.008874138817191124,-0.0038165764417499304,0.0001689285296272225,7.8908908796374e-05,0.0006218509306875618
1729403428.1169245,2435,1729403428,112488000,base_link,-0.00601306464523077,0.007352138869464397,-0.002493542619049549,0.0005113580629032779,0.00020999277037892042,-0.000861453212194471
1729403428.2172456,2436,1729403428,212485440,base_link,-0.005985884927213192,0.006083562504500151,-0.002808504505082965,0.0003790401071479259,0.00027138175083267404,-0.0006315403189306027
1729403428.3151019,2437,1729403428,312483136,base_link,-0.006041795946657658,0.004624680615961552,-0.003467162139713764,0.0005388837028965127,0.0018189590672734184,-0.00024321513915106743
1729403428.4150481,2438,1729403428,412480832,base_link,-0.007013476919382811,0.004109259694814682,-0.00394446961581707,-0.0005969868380422945,6.108347216568761e-05,-0.0006879426064924068
1729403428.5146523,2439,1729403428,512478272,base_link,-0.008968816138803959,0.0034064867068082094,-0.003740214044228196,0.0007746708992754812,7.77091340876166e-05,0.0002141431511202066
1729403428.613558,2440,1729403428,610475712,base_link,-0.008093143813312054,0.0039041531272232533,-0.0033156126737594604,0.00022971024851928818,-0.0010225598208679044,-0.0008412600008642434
1729403428.7158966,2441,1729403428,712475456,base_link,-0.006152685731649399,0.004662643652409315,-0.001991253113374114,0.0012140832599603826,-0.0009955978910413193,0.000446732612042599
1729403428.815016,2442,1729403428,812476224,base_link,-0.0043053352274000645,0.007593418005853891,-0.0011999604757875204,-0.00039191402223797767,0.0001343289821835535,-0.0004026468193397812
1729403428.9149647,2443,1729403428,912476992,base_link,-0.002470568986609578,0.010808865539729595,-0.002444499172270298,0.0010362327809370442,0.0003411913572515524,-0.00018875698649186307
1729403429.0149727,2444,1729403429,12474688,base_link,-0.001808253931812942,0.011717980727553368,-0.004120818339288235,0.0005577954046074534,-0.00021216122448617817,-0.00011507541588709015
1729403429.1149905,2445,1729403429,112472640,base_link,-0.0020210507791489363,0.010424608364701271,-0.00496928533539176,-0.0005915248317387273,0.000972812361055595,0.00022702264929688566
1729403429.2157764,2446,1729403429,212470336,base_link,-0.0030151919927448034,0.00987895019352436,-0.006411267444491386,0.0004797483467592381,0.0010599951317530692,-0.0009918503393520244
1729403429.3154066,2447,1729403429,312468288,base_link,-0.0039834314957261086,0.00992785394191742,-0.006771209184080362,-8.701107763778144e-05,-0.0002787987469326883,-0.000720414376361034
1729403429.4151673,2448,1729403429,412465984,base_link,-0.00354580394923687,0.009646943770349026,-0.007424220908433199,2.8474714878878637e-05,-0.0004470647204122747,0.00025070270785273286
1729403429.5151274,2449,1729403429,512463936,base_link,-0.0042991722002625465,0.00835935864597559,-0.009258173406124115,-0.0006613850199022646,0.00046466444558175985,-0.0003617120433040286
1729403429.61611,2450,1729403429,612464448,base_link,-0.0047544692642986774,0.007852713577449322,-0.009919807314872742,-0.0008232193068584024,-0.0009062300447304433,-0.0011178085236272439
1729403429.7122335,2451,1729403429,709465216,base_link,-0.005915271583944559,0.00752411549910903,-0.009215423837304115,0.00013021139056943433,0.0002129720373671374,0.0007714337609764852
1729403429.8154023,2452,1729403429,812465728,base_link,-0.0068094381131231785,0.007933968678116798,-0.010311758145689964,-0.00010375538528339912,7.488232488916801e-05,-0.0015166487823099982
1729403429.915296,2453,1729403429,912466240,base_link,-0.007818533107638359,0.00847900751978159,-0.00978180393576622,0.00022792912955520132,0.00011722483846914112,0.0001265468237951676
1729403430.0160317,2454,1729403430,12463936,base_link,-0.00891116727143526,0.010648757219314575,-0.011354940943419933,-0.0004581075738157395,-0.0009264059484379919,0.00032397532133004835
1729403430.1180236,2455,1729403430,115461888,base_link,-0.009375329129397869,0.01285950280725956,-0.011821513995528221,-0.00013337304677585806,-0.0008387797960064381,-0.0003521193663801316
1729403430.2152765,2456,1729403430,212459840,base_link,-0.008403095416724682,0.013772709295153618,-0.012191278859972954,-0.0002664249199959871,0.0001737061291056267,-0.0008067629309539345
1729403430.315162,2457,1729403430,312457792,base_link,-0.007549352943897247,0.014831267297267914,-0.011238863691687584,0.00025969655542855836,0.002109613048241529,-0.0007433576711031241
1729403430.4150388,2458,1729403430,412456000,base_link,-0.005757729988545179,0.014427426271140575,-0.011771222576498985,-0.0002861403476240959,0.00029503715589720893,0.0007922493565989446
1729403430.515091,2459,1729403430,512454208,base_link,-0.0037882442120462656,0.01316750142723322,-0.013685198500752449,0.0013436586827355085,0.001006680486774235,-0.0008942640610663144
1729403430.6153617,2460,1729403430,612454976,base_link,-0.004223172552883625,0.012813527137041092,-0.015545578673481941,0.00040031223416332144,-0.0005263070803814987,-0.001346323093690925
1729403430.718519,2461,1729403430,715453184,base_link,-0.005414633080363274,0.011243154294788837,-0.017725322395563126,-0.00016713247785134485,-0.0003205065494165265,-0.00040420006814848486
1729403430.8142774,2462,1729403430,812453696,base_link,-0.007075573317706585,0.010286171920597553,-0.018214065581560135,0.00036879848406589375,0.00014057486885722092,-0.001151145500963653
1729403430.9158854,2463,1729403430,912454464,base_link,-0.008801966905593872,0.009749891236424446,-0.019096817821264267,0.00017750281436085946,-0.0003328846124211779,-0.000920476693986509
1729403431.0158045,2464,1729403431,12452672,base_link,-0.009770696051418781,0.009343039244413376,-0.018436040729284286,0.0006612612523300424,-0.0011267719496858234,-0.0003668771403869726
1729403431.1145716,2465,1729403431,112453696,base_link,-0.010189423337578773,0.009316578507423401,-0.017237115651369095,-0.0005020670249812121,-0.0005462498475740222,-0.00032739253463388596
1729403431.215474,2466,1729403431,212451904,base_link,-0.011102943681180477,0.008355236612260342,-0.01601751148700714,-0.0007096460545213991,-0.00045220002398091403,-0.0004789546881461953
1729403431.3126495,2467,1729403431,309450112,base_link,-0.01116739772260189,0.0074197277426719666,-0.014959876425564289,-0.0012106672938754705,0.0009659098683646923,-0.0012042715526019488
1729403431.4152896,2468,1729403431,412448320,base_link,-0.011715232394635677,0.007931722328066826,-0.015903819352388382,-0.0002979899988200566,0.0008411256850470208,-1.767251664164338e-06
1729403431.5125027,2469,1729403431,510449600,base_link,-0.011637984775006771,0.008368286304175854,-0.017409557476639748,0.0006094069694487682,0.0009178729523432396,-0.00037122834971253793
1729403431.6145298,2470,1729403431,612447808,base_link,-0.010851295664906502,0.006830052938312292,-0.018691465258598328,0.0011748048420110856,0.0010203621176085014,0.00028590904429358414
1729403431.7142465,2471,1729403431,712448832,base_link,-0.010501447133719921,0.005693718791007996,-0.020014120265841484,-0.0005022971885806495,-0.0005785335914995712,0.0005608411252365114
1729403431.814464,2472,1729403431,812450112,base_link,-0.009271218441426754,0.006259127054363489,-0.0191902294754982,-0.0015281268823291315,0.00046201396734850235,0.00017596475868771874
1729403431.9149272,2473,1729403431,912448320,base_link,-0.008258125744760036,0.005698795896023512,-0.020480697974562645,7.813291689863527e-05,-0.00021650051395935623,-0.000535071561161517
1729403432.0150812,2474,1729403432,12449600,base_link,-0.009026767686009407,0.00603174464777112,-0.02300938218832016,0.00020611870818505436,0.0007508081861690008,-0.00011900762133343153
1729403432.114767,2475,1729403432,112448064,base_link,-0.009114563465118408,0.005305995233356953,-0.02541278302669525,-0.0005961854762895483,-0.0010676046678973056,-0.00019249166847770067
1729403432.214428,2476,1729403432,212449344,base_link,-0.009530920535326004,0.0031740430276840925,-0.027931394055485725,0.00022207732871075314,-0.0006557373887425975,-0.0010426387973553242
1729403432.3151715,2477,1729403432,312446272,base_link,-0.009564731270074844,3.9383019611705095e-05,-0.02738501876592636,8.838131276148843e-05,-0.0008979535877721498,-0.0009911859903834785
1729403432.4146717,2478,1729403432,412447552,base_link,-0.010376594960689545,-0.0008410169393755496,-0.0293105598539114,0.0007251085543616826,-0.0008049564462377124,-5.403827068630802e-05
1729403432.5130153,2479,1729403432,510444480,base_link,-0.010190073400735855,-0.0012734596384689212,-0.030090592801570892,0.0002865900459771802,0.0005761539380964395,-0.00016695043955938232
1729403432.6150386,2480,1729403432,612444224,base_link,-0.00984933227300644,2.3184406018117443e-05,-0.029403695836663246,0.0003918577045085657,0.0007268861284321119,-0.000983424680528938
1729403432.7150853,2481,1729403432,712441152,base_link,-0.008876096457242966,0.0010689785704016685,-0.02834729477763176,-0.00010077067255919356,0.0002501931863340186,-0.0016224086189507597
1729403432.8147745,2482,1729403432,812440128,base_link,-0.00894556101411581,0.0012145927175879478,-0.025824716314673424,0.0008825534134274029,-0.0011896305723829233,0.0005187484713191138
1729403432.9148638,2483,1729403432,912437056,base_link,-0.008398370817303658,0.0011687410296872258,-0.023515185341238976,-0.0014476798449591874,-0.00034283349737181936,0.00015800995533271707
1729403433.01453,2484,1729403433,12434240,base_link,-0.007538644131273031,0.0019032874843105674,-0.021184690296649933,5.4179848122454764e-05,0.00018668849577751828,-0.0011753051384680207
1729403433.1148272,2485,1729403433,112435776,base_link,-0.0064602503553032875,0.0018104712944477797,-0.021410653367638588,-0.00035600710219158954,-0.000851438713548402,0.00017523710511359124
1729403433.2156756,2486,1729403433,210436032,base_link,-0.0057792360894382,0.0012720474041998386,-0.020688878372311592,0.00036422511382842415,0.00011613629046906489,-0.0007273736112564927
1729403433.3142023,2487,1729403433,312434752,base_link,-0.005949639715254307,0.00012204991071484983,-0.020139571279287338,0.00014605869908929756,-0.0004145112464307171,0.0009665502745275634
1729403433.41515,2488,1729403433,412431936,base_link,-0.006882862187922001,0.00022874145361129194,-0.019556106999516487,-0.00028088900095954943,-0.0002530651028916319,8.649008094120374e-05
1729403433.5148885,2489,1729403433,512429376,base_link,-0.006880385335534811,0.00029794342117384076,-0.01886315643787384,-0.0005697068342722154,-0.0006815969008016684,-0.00041100419109908336
1729403433.6144717,2490,1729403433,612426816,base_link,-0.0075004626996815205,0.00010105140972882509,-0.017240537330508232,-0.0010192511653793154,0.00011162392088485391,8.236421027761792e-06
1729403433.7143571,2491,1729403433,712424256,base_link,-0.006953693460673094,0.0008003718103282154,-0.016679368913173676,-0.00014216601325086432,0.0002682500300014495,0.0003073817554159925
1729403433.8193889,2492,1729403433,812424256,base_link,-0.0074949744157493114,0.0013829921372234821,-0.015274924226105213,-0.0012457713440613522,-0.0002864085920254005,0.0006215849250952842
1729403433.9182405,2493,1729403433,915424768,base_link,-0.008060727268457413,0.0020140190608799458,-0.014029824174940586,0.0007445731229923937,5.4630522523110504e-05,-0.0006943588944435064
1729403434.0146594,2494,1729403434,12424256,base_link,-0.00942070409655571,0.001251575187779963,-0.014277016744017601,-7.743745847774352e-05,1.6117812348393768e-05,-0.0005689026917219092
1729403434.1149757,2495,1729403434,112423488,base_link,-0.011677848175168037,-0.00043325641308911145,-0.013021322898566723,0.0007705030037619921,-0.0008959382418850335,-0.0013392771548865012
1729403434.2147837,2496,1729403434,212423744,base_link,-0.012380994856357574,-0.0020598568953573704,-0.012569613754749298,-4.662729463309947e-05,0.001097287404910862,-0.0005206924275440894
1729403434.3128648,2497,1729403434,310421184,base_link,-0.013620685786008835,-0.004427670501172543,-0.011759207583963871,-0.0010789890526251358,-0.000631872338435779,-0.00032915500304293453
1729403434.414984,2498,1729403434,412421184,base_link,-0.014251128770411015,-0.005088455975055695,-0.009583310224115849,0.000878453350874226,0.0001301657548355952,0.00014132553724072923
1729403434.5147638,2499,1729403434,512418880,base_link,-0.01390763372182846,-0.005901849362999201,-0.007048061583191156,0.0007725791512716514,-8.654538732440529e-05,0.0006747593985850706
1729403434.6147313,2500,1729403434,612416576,base_link,-0.013264276087284088,-0.008902053348720074,-0.004930857103317976,-0.0009721673237167749,0.0004991283429132725,0.0005137701499313278
1729403434.7150958,2501,1729403434,712414272,base_link,-0.012092082761228085,-0.011640641838312149,-0.0049740588292479515,-0.0006989660875237512,-0.0008333952096298806,-0.0007365373521292553
1729403434.8150618,2502,1729403434,812411968,base_link,-0.011123294942080975,-0.0141924899071455,-0.0032288962975144386,7.389979904641259e-05,-0.0013164968611643793,-3.631580224867194e-05
1729403434.9148388,2503,1729403434,912409664,base_link,-0.010094055905938148,-0.017751604318618774,-0.0012624649098142982,0.0008612703667455644,-0.00046727238553506396,-0.0010784177780507886
1729403435.01486,2504,1729403435,12409920,base_link,-0.00974941998720169,-0.01805899664759636,0.0013874408323317766,-0.000702305316845282,0.0008751569883070445,0.00024801272771611245
1729403435.115048,2505,1729403435,112407360,base_link,-0.009187005460262299,-0.017075682058930397,0.004019393585622311,-0.0007717373766854507,0.0009885893873970634,0.0007574437090987271
1729403435.2150078,2506,1729403435,212405056,base_link,-0.008529753424227238,-0.015661178156733513,0.005530023947358131,-0.0002963944313430981,0.0004737868128082682,-0.0003013341689529246
1729403435.318022,2507,1729403435,315405312,base_link,-0.006810959428548813,-0.015446251258254051,0.007010857108980417,-0.0012489181430907089,0.0011579864919575857,-0.0010252487687758957
1729403435.4150078,2508,1729403435,412404544,base_link,-0.004563414957374334,-0.015197408385574818,0.008108645677566528,0.0004959456304146823,0.0005968462866544317,-0.0008300947338448376
1729403435.515079,2509,1729403435,512405312,base_link,-0.0021769986487925053,-0.015712182968854904,0.008363297209143639,0.000762103727961092,0.0002707499062783107,-0.0004779681680423655
1729403435.6151524,2510,1729403435,612403520,base_link,-0.0005451537435874343,-0.01621313951909542,0.009796216152608395,0.0004602458361249058,0.0011861632553134712,-0.0003807766295813897
1729403435.7147248,2511,1729403435,712401728,base_link,0.000601853069383651,-0.01676422357559204,0.009627261199057102,0.0010577224981444641,-0.00016493880891098014,0.00011993508585620306
1729403435.8151364,2512,1729403435,812399936,base_link,0.0013835309073328972,-0.016584832221269608,0.009718319401144981,0.0005931163705027592,0.00030905996875293116,-0.0010303866089632944
1729403435.915498,2513,1729403435,912401216,base_link,0.002050528535619378,-0.01728108525276184,0.011324121616780758,-0.0005942691908914835,-0.0006334893902550068,0.000546023335245463
1729403436.0148754,2514,1729403436,12402240,base_link,0.002192513085901737,-0.016552651301026344,0.010772761888802052,0.0006645528256782106,0.00020473452666858261,0.001045677005414614
1729403436.117257,2515,1729403436,114400448,base_link,0.0020030189771205187,-0.015082933939993382,0.009304768405854702,-0.0002307389895113302,-0.0007388062440508308,-0.0003500123280380935
1729403436.2154791,2516,1729403436,212401216,base_link,0.0034189699217677116,-0.013642012141644955,0.00886362511664629,0.0005736991128958985,-0.00044406014602796655,-0.00035669398646257113
1729403436.3119478,2517,1729403436,309399680,base_link,0.004731389693915844,-0.011835562065243721,0.008024563081562519,0.0013146737283413396,-0.0007388127818881728,-0.0005113303717027056
1729403436.4153283,2518,1729403436,412400448,base_link,0.004819562193006277,-0.009924559853971004,0.007380299735814333,-0.0007061275108327429,0.0009186695832224324,-0.001473566344211302
1729403436.5149746,2519,1729403436,512401472,base_link,0.004790253005921841,-0.0066297296434640884,0.007207572925835848,-0.00010539255772756947,-0.00015630622700691903,-0.00031720113666548316
1729403436.6150115,2520,1729403436,612402496,base_link,0.005166554357856512,-0.0038165173027664423,0.007098454050719738,0.00010785890002883106,-0.0006777562986641819,0.0006714396243478823
1729403436.7143893,2521,1729403436,712400704,base_link,0.0046640862710773945,-0.002555769868195057,0.006767128128558397,-0.0006557898913542001,-0.0003909436718502901,0.0007795560549149936
1729403436.81529,2522,1729403436,812401728,base_link,0.00492387218400836,-0.0016454847063869238,0.005157873500138521,-0.0006924136036823006,0.00045755742947155346,0.0005140506415897025
1729403436.9151418,2523,1729403436,912402752,base_link,0.004882406909018755,-0.0007828824454918504,0.004258535336703062,0.00021623384904192753,0.0003756796985884629,0.0001064632428367881
1729403437.0155883,2524,1729403437,12400960,base_link,0.004546022042632103,0.0008674674900248647,0.004655926488339901,0.0007285461986672673,-0.00019740331511949313,-0.0004056113983711226
1729403437.115449,2525,1729403437,112401472,base_link,0.0037921846378594637,0.0022599748335778713,0.005658038891851902,0.00032272384434310045,-0.0003901132237728824,0.000773470547620266
1729403437.215313,2526,1729403437,212402496,base_link,0.0036727571859955788,0.003689624834805727,0.006994705647230148,0.0005524776927730304,0.0005383534458161483,-0.0012390410321055456
1729403437.3156402,2527,1729403437,312400960,base_link,0.0033799801021814346,0.005421606823801994,0.008218945935368538,0.0004179609420384053,7.04140925240062e-05,-7.540028264511585e-05
1729403437.414964,2528,1729403437,412402240,base_link,0.0032155581284314394,0.005187909584492445,0.009098476730287075,0.00046573728677178403,-0.00012310212582275617,0.0006799587525404995
1729403437.5150585,2529,1729403437,512403264,base_link,0.003218334633857012,0.004663375206291676,0.0086553068831563,0.0007506543842795865,-0.0003593568080722158,0.0008773359311425517
1729403437.615401,2530,1729403437,612404544,base_link,0.0024125499185174704,0.0038694217801094055,0.008407317101955414,0.0008494938726597231,0.0005973952367455299,0.00016101976540394144
1729403437.7126212,2531,1729403437,709403008,base_link,0.0017111803172156215,0.0036640227772295475,0.009826318360865116,-0.00047523883446490284,-0.0002078573940621208,0.000258068742086574
1729403437.8156252,2532,1729403437,812403776,base_link,0.0009124206844717264,0.004342187661677599,0.009962698444724083,2.5517526536360577e-05,-0.0011342106223911142,-0.0009371175199768557
1729403437.9153526,2533,1729403437,912405056,base_link,0.0008373361197300255,0.005279388278722763,0.010920400731265545,0.00031088239946554155,0.00047576433865081794,-0.0009434857409439835
1729403438.0162597,2534,1729403438,12406080,base_link,0.0007721779984422028,0.007101050112396479,0.011270493268966675,0.0005289823644004545,0.0004071205577266427,-0.0003442906398834568
1729403438.1139941,2535,1729403438,112402752,base_link,0.00011277512385277078,0.008132091723382473,0.011384345591068268,-0.0007893674532396285,0.00017249141919289422,-0.0008786485582240413
1729403438.2164128,2536,1729403438,212404032,base_link,-0.001983772264793515,0.008311201818287373,0.011483426205813885,-0.00038113565501264856,0.0005603062745397544,-0.00036616621843155563
1729403438.3146305,2537,1729403438,312405568,base_link,-0.004017470870167017,0.008337827399373055,0.011336112394928932,-0.0010545973401406435,-0.0011189177453217636,-0.0006393195136587563
1729403438.4153595,2538,1729403438,412404288,base_link,-0.004638639744371176,0.00811241939663887,0.011216551996767521,0.00040101154770467014,0.0003876466748093413,-0.0008658993530994065
1729403438.5142798,2539,1729403438,512405568,base_link,-0.005056809168308973,0.008450854569673538,0.010792520828545094,0.0006034047792280348,0.0006652341694505619,0.00047297309508774834
1729403438.6145217,2540,1729403438,612406592,base_link,-0.004919547587633133,0.009743975475430489,0.011954410001635551,8.852890300343836e-05,0.0006235077309578249,-0.000585059089346029
1729403438.7125642,2541,1729403438,710405056,base_link,-0.0049095177091658115,0.010763982310891151,0.014353402890264988,-0.00047663194573448187,0.0008823618205542979,0.0003548807711211418
1729403438.8146546,2542,1729403438,812404800,base_link,-0.0026705986820161343,0.010916040278971195,0.016302399337291718,-0.0004463001122980779,-5.1922868822231636e-05,-0.00039183825597551095
1729403438.9143786,2543,1729403438,912404800,base_link,-0.0011048245942220092,0.011122774332761765,0.01662546396255493,0.00039529509100116883,-0.0004698584243137832,-0.00014738262084095573
1729403439.014434,2544,1729403439,12404800,base_link,0.0013111670268699527,0.011630795896053314,0.017053816467523575,0.00047671324150611564,-4.572872156704573e-05,-0.0006895941308096357
1729403439.1127484,2545,1729403439,110403520,base_link,0.0023625462781637907,0.012116365134716034,0.01863916777074337,0.00040632435570222045,0.00035014728363866196,9.043018365828865e-05
1729403439.2145803,2546,1729403439,212403264,base_link,0.0028180463705211878,0.012923745438456535,0.01937786489725113,0.0009926695605097758,-0.0003568393953151747,-0.0006608323068751445
1729403439.3152676,2547,1729403439,312403520,base_link,0.0018153769196942449,0.013696329668164253,0.020162904635071754,7.779729673146943e-05,-0.0005107650364299481,0.0010639650844743126
1729403439.4145815,2548,1729403439,412405056,base_link,0.003091303398832679,0.014789696782827377,0.020957769826054573,-0.0001355529797361404,-0.0009028192020061562,0.0005675920441888313
1729403439.517634,2549,1729403439,515402240,base_link,0.003137442981824279,0.015440980903804302,0.021485285833477974,-0.0002984894219761512,0.0011923207862468562,-0.00025698470372458255
1729403439.616519,2550,1729403439,612402240,base_link,0.0037785335443913937,0.01436061691492796,0.021059716120362282,0.0016914837472704362,0.0010693950135398436,-0.0006000362055580361
1729403439.7145226,2551,1729403439,712402240,base_link,0.004482364747673273,0.012565229088068008,0.02334023453295231,0.001291355425899113,-0.001656676493464118,-0.00016849624699155806
1729403439.8145807,2552,1729403439,812401984,base_link,0.004958099685609341,0.012580600567162037,0.02539432793855667,0.0001541704709834556,0.00015195574077647126,0.00042997255092837473
1729403439.9146585,2553,1729403439,912402240,base_link,0.005691368132829666,0.011943208985030651,0.025543374940752983,-3.408898518995503e-05,0.0009842827050337438,0.0005095426301770361
1729403440.0146434,2554,1729403440,12402496,base_link,0.007527562323957682,0.013274752534925938,0.02667486108839512,0.0016309686860421786,-0.00022673316766251537,-0.0017258059397004654
1729403440.11486,2555,1729403440,112404288,base_link,0.008273426443338394,0.015133142471313477,0.028214819729328156,-3.931923940085465e-05,-0.0008924968659254842,-0.0012204435396517316
1729403440.2125893,2556,1729403440,209404544,base_link,0.010036288760602474,0.017278216779232025,0.030126413330435753,0.0002447009338938773,-0.0011258090238722071,-0.0014534012284642302
1729403440.3127544,2557,1729403440,310405056,base_link,0.010479898191988468,0.01974320039153099,0.030964339151978493,-0.0002845696813780848,0.00016689583264662113,-7.27118939529817e-05
1729403440.41453,2558,1729403440,412403520,base_link,0.01168585941195488,0.021127767860889435,0.030548231676220894,-0.00043146344412597833,-0.000359936923264759,0.0003075950003119095
1729403440.51479,2559,1729403440,512401984,base_link,0.013501078821718693,0.021385421976447105,0.029823200777173042,0.0006343427770137642,-0.000392848820484687,-0.001286886025528286
1729403440.6176221,2560,1729403440,614400704,base_link,0.014494293369352818,0.02199750766158104,0.029427599161863327,-0.0011869230410325633,0.0010915090702240146,-0.00033821882193586555
1729403440.71475,2561,1729403440,712399168,base_link,0.015306813642382622,0.02212855964899063,0.029169389978051186,-0.0011708117036037069,-0.0005802353377856003,0.0006608396378304509
1729403440.8127134,2562,1729403440,810397888,base_link,0.015127903781831264,0.02338356152176857,0.029724648222327232,-0.00013777122530965832,-0.0008831915064299552,-0.00017432874366714353
1729403440.9148033,2563,1729403440,912396608,base_link,0.01610831916332245,0.024723058566451073,0.02988661639392376,0.0015470309380097697,0.00011580376325338956,-0.0006102199904116621
1729403441.0147147,2564,1729403441,12395328,base_link,0.014792629517614841,0.024071870371699333,0.028556345030665398,-0.0008461991318258179,0.00028966711222694856,-0.0007935652296554276
1729403441.1153066,2565,1729403441,112395584,base_link,0.013024114072322845,0.023011788725852966,0.027605019509792328,-0.00042253367568287516,-0.0003557905859408355,-0.00011071633200975858
1729403441.2146342,2566,1729403441,212394560,base_link,0.012019187211990356,0.021331431344151497,0.02621353045105934,-0.00025709791321274904,-0.0002051768194124172,0.0002059212506816458
1729403441.3155432,2567,1729403441,312393280,base_link,0.01062595285475254,0.020720472559332848,0.023858405649662018,-0.000826940891455428,-0.0003146032126636517,-0.00022430177013645368
1729403441.4147723,2568,1729403441,412392000,base_link,0.009387155994772911,0.019590167328715324,0.02236478216946125,0.0005997725037997575,-0.0002346043548775194,-0.00012544714024054432
1729403441.5155656,2569,1729403441,512392512,base_link,0.009868892841041088,0.017997104674577713,0.022393830120563507,5.3142150768634794e-05,0.0010971967672605719,-0.000539851988032426
1729403441.615286,2570,1729403441,612390976,base_link,0.010950855910778046,0.01832267828285694,0.021511776372790337,-0.0006947530685533364,0.0009004544285301757,-0.0009740791035916499
1729403441.7150888,2571,1729403441,712389696,base_link,0.01259327307343483,0.01800045557320118,0.020728180184960365,0.0004580071230613624,0.00194985836761054,0.00048702119733769775
1729403441.814902,2572,1729403441,812388416,base_link,0.012950269505381584,0.016659919172525406,0.020224235951900482,0.0002567960938927377,0.0002951574443260329,-0.00045915417790349036
1729403441.9152167,2573,1729403441,912387136,base_link,0.012623452581465244,0.015645619481801987,0.02074420265853405,0.0006145704294025164,0.0003022903123000817,-0.0005376474970142883
1729403442.015122,2574,1729403442,12386112,base_link,0.012051580473780632,0.013039759360253811,0.019897038117051125,0.00019356971210625348,-0.00030123832830205796,-0.00014551801254557097
1729403442.1148474,2575,1729403442,112385088,base_link,0.011811845004558563,0.011372766457498074,0.01872592233121395,0.0008862486394815174,0.00034994907932810274,0.0004924333254820946
1729403442.2159567,2576,1729403442,212384064,base_link,0.011152013204991817,0.009303441271185875,0.019107015803456306,0.0003554919908253746,-0.00021583704808489308,-0.0002841303751478214
1729403442.3155653,2577,1729403442,312383040,base_link,0.009188511408865452,0.006798441521823406,0.019575707614421844,-0.0006041554839921607,-0.00022187246854098674,-0.0007233930593657078
1729403442.4148276,2578,1729403442,412382272,base_link,0.00769414845854044,0.00454897154122591,0.01873847469687462,-6.548053158671345e-05,0.0008556236976796741,-0.000926585743144047
1729403442.5118134,2579,1729403442,509381248,base_link,0.006734271999448538,0.00346559495665133,0.018999237567186356,-0.00043514630174480755,0.0012160622396281855,-0.0004655646791236015
1729403442.6155214,2580,1729403442,612380224,base_link,0.006116837728768587,0.0018698745407164097,0.019644783809781075,0.0005213393414312935,-0.0005051822862405241,-0.001271682269160465
1729403442.7154262,2581,1729403442,712379456,base_link,0.005459324922412634,0.00139132933691144,0.019499702379107475,-0.0009361271209384435,-0.0004660676602242153,0.00020469159580996783
1729403442.815964,2582,1729403442,812378688,base_link,0.004652312956750393,-0.00031065280199982226,0.0184002872556448,-0.0005490291948241424,-0.0005048100305463385,-0.0010629132125643881
1729403442.9147546,2583,1729403442,912377920,base_link,0.0035453643649816513,-0.0023349178954958916,0.01836463063955307,-0.0004894217105175079,-0.00017997694938642124,-0.0004386696964620852
1729403443.0155053,2584,1729403443,12376896,base_link,0.0024414837826043367,-0.002695743925869465,0.016066890209913254,0.0005701480112674901,-0.0005949722726537876,-0.00010421034946101824
1729403443.1154633,2585,1729403443,112376384,base_link,0.001323033939115703,-0.0024112456012517214,0.015211187303066254,0.0005302090595552545,-2.5308303150978254e-05,-0.0005171961171790247
1729403443.2166538,2586,1729403443,212375872,base_link,0.00022718627587892115,-0.0016726957401260734,0.014737054705619812,0.00047655008287226673,-0.0010374656891988716,-0.00029834524905292584
1729403443.3169277,2587,1729403443,314375616,base_link,-0.0003639395581558347,-0.0010451172711327672,0.014561550691723824,0.0004276374606394792,-4.880198321945901e-06,-0.0009136219652752202
1729403443.4148836,2588,1729403443,412374592,base_link,-0.0005823913379572332,-0.0011378235649317503,0.015193822793662548,-0.0006349032475425576,0.000918880239978455,0.0007314861006356015
1729403443.5149977,2589,1729403443,512374080,base_link,-0.0009643141529522836,-0.0011812524171546102,0.015951186418533325,-0.00023811976995498986,-0.0007079756141038615,0.0002655818162101703
1729403443.6166584,2590,1729403443,612373824,base_link,-0.001826031832024455,0.0007565637351945043,0.016963649541139603,0.0008791432959123525,-0.0009195024165290633,-0.0004989068815344784
1729403443.7154083,2591,1729403443,712373312,base_link,-0.0035388702526688576,0.0023552754428237677,0.017914773896336555,-0.00012028238502457864,-0.00050383298698539,-1.4278818364193107e-05
1729403443.81722,2592,1729403443,814371776,base_link,-0.0058317338116467,0.002582851331681013,0.015914011746644974,0.0007657649513128105,0.00011550081794917003,-0.0004995778767371826
1729403443.9153366,2593,1729403443,912371520,base_link,-0.00861574336886406,0.0017703351331874728,0.014201117679476738,0.0002365826120505432,-0.0005189022781805091,-2.3126241048371363e-05
1729403444.0152607,2594,1729403444,12371264,base_link,-0.01162340771406889,0.0011149623896926641,0.011341680772602558,0.00014185049865248858,-0.0014900324813520072,-0.0002168287517373869
1729403444.1151524,2595,1729403444,112370496,base_link,-0.013448853977024555,-0.0004553402541205287,0.008923467248678207,-0.0005556821358828237,9.982653101975555e-05,0.00024278751284411597
1729403444.2156193,2596,1729403444,212369984,base_link,-0.015792429447174072,-0.0020900655072182417,0.00647931732237339,0.0005516598180618265,-0.00025275456015827507,-0.0011276365663743838
1729403444.314205,2597,1729403444,312369472,base_link,-0.017930474132299423,-0.004256268497556448,0.004556143656373024,-0.00047985111464811056,-0.0006385690165046137,-0.0002404676135318932
1729403444.4155378,2598,1729403444,412368960,base_link,-0.018606036901474,-0.006663332227617502,0.0036199400201439857,-4.855131453670344e-05,-0.0003553450187017888,0.0004589579724063784
1729403444.515285,2599,1729403444,512368704,base_link,-0.01888677105307579,-0.008831598795950413,0.0030615422874689102,-0.001015901760162899,-0.0005212994915632217,-0.0008233704219108633
1729403444.6142719,2600,1729403444,612368704,base_link,-0.020466359332203865,-0.00987937580794096,0.002009031130000949,-4.3515818442299053e-05,-0.0007669298528741794,-0.00041262403275021644
1729403444.7154942,2601,1729403444,712368704,base_link,-0.022117307409644127,-0.0090950857847929,0.0008228388032875955,-0.00033034289081752637,-0.001094041731026312,-0.0004894529100739455
1729403444.8157508,2602,1729403444,812368448,base_link,-0.023478318005800247,-0.009678732603788376,-0.002410293323919177,0.0005644146387475059,9.783565335324728e-05,-0.00028072739950579247
1729403444.9140615,2603,1729403444,912368192,base_link,-0.023904358968138695,-0.009586571715772152,-0.006554885301738977,-0.0012862934936529625,0.00011354038944398009,-0.00032698445052686885
1729403445.0120316,2604,1729403445,10367936,base_link,-0.025170378386974335,-0.009611080400645733,-0.009544015862047672,-0.00024593667722098956,-0.00041352823657091653,-0.0007125920448144505
1729403445.1141896,2605,1729403445,112367680,base_link,-0.027038855478167534,-0.010431952774524689,-0.009201097302138805,-0.0005307885174189549,0.0005617030106641456,-0.0009692579753985495
