Time,header.seq,header.stamp.secs,header.stamp.nsecs,header.frame_id,pose.position.x,pose.position.y,pose.position.z,pose.orientation.x,pose.orientation.y,pose.orientation.z,pose.orientation.w
1729403414.561683,0,1729403413,212774464,map,-1.3581082820892334,-3.4538769721984863,0.04919878765940666,-0.006592521391000726,-0.002401996181928945,-0.2388795713591499,-0.9710238511299917
1729403414.561814,1,1729403413,312772416,map,-1.3593555688858032,-3.4553778171539307,0.05474245920777321,-0.006598006528491123,-0.002411560842032861,-0.2388443640136943,-0.9710324507775469
1729403414.5620964,2,1729403413,412770880,map,-1.3599662780761719,-3.458752155303955,0.06101299822330475,-0.006587745950212893,-0.0024201327553348743,-0.2387651842455477,-0.971051971499431
1729403414.5626912,3,1729403413,514768320,map,-1.3603523969650269,-3.46278977394104,0.0735473558306694,-0.0065919612059333246,-0.00242942906465955,-0.2386956540867704,-0.9710690133260189
1729403414.5627942,4,1729403413,614766016,map,-1.3610146045684814,-3.463719606399536,0.08675891160964966,-0.006561741287866352,-0.0024476197477925144,-0.23868095541378714,-0.9710727852388837
1729403414.5630667,5,1729403413,712763456,map,-1.3617690801620483,-3.4634270668029785,0.09653014689683914,-0.00652392834957219,-0.0024611630099435015,-0.23868788766139776,-0.971071301871942
1729403414.5632503,6,1729403413,814761152,map,-1.361633062362671,-3.464099407196045,0.10301166027784348,-0.006491457407532804,-0.0024827528052205816,-0.23869151677321887,-0.971070572481596
1729403414.5634818,7,1729403413,912758848,map,-1.3611332178115845,-3.4651148319244385,0.10583454370498657,-0.006494301794362864,-0.0025057068540355856,-0.2386842272729739,-0.9710722862529177
1729403414.563636,8,1729403414,12756288,map,-1.3611243963241577,-3.4652044773101807,0.1081584021449089,-0.006505624785131353,-0.002528910664653079,-0.23867785479421055,-0.9710737166084966
1729403414.5638282,9,1729403414,112753728,map,-1.3614110946655273,-3.465010404586792,0.11156082898378372,-0.006498316004623637,-0.0025394781639415088,-0.23861561603560355,-0.9710890333659981
1729403414.5641043,10,1729403414,212751424,map,-1.3610858917236328,-3.463998556137085,0.11607951670885086,-0.006491109660605733,-0.002562072986752915,-0.23847323210275417,-0.9711239976686039
1729403414.564356,11,1729403414,312749120,map,-1.3605839014053345,-3.4628827571868896,0.12024364620447159,-0.0064694186234272285,-0.002561176568286871,-0.2383594508753275,-0.9711520782944725
1729403414.564672,12,1729403414,414746048,map,-1.3588389158248901,-3.462794542312622,0.12328296154737473,-0.0064544134771984014,-0.0025801342400002046,-0.23828557477743556,-0.9711702571161023
1729403414.56472,13,1729403414,512743744,map,-1.3567661046981812,-3.463170051574707,0.12524713575839996,-0.006447326222366003,-0.002604778675407738,-0.23823370495986218,-0.9711829636756051
1729403414.614503,14,1729403414,612741440,map,-1.35452139377594,-3.4620280265808105,0.12769083678722382,-0.006451302601580949,-0.002632958443655781,-0.23821670613447404,-0.9711870309796247
1729403414.7143629,15,1729403414,712739392,map,-1.3524365425109863,-3.460451364517212,0.13346998393535614,-0.006416554886063366,-0.002637404323293976,-0.23821091607614908,-0.9711886693037515
1729403414.8162796,16,1729403414,814737088,map,-1.3505127429962158,-3.4604544639587402,0.1419697105884552,-0.006398270003086027,-0.0026401477411406487,-0.23818017304915928,-0.9711963225461397
1729403414.9145927,17,1729403414,912734528,map,-1.3488709926605225,-3.461122512817383,0.15251588821411133,-0.00641316397120211,-0.0026359103111652277,-0.2381455717725917,-0.9712047209264457
1729403415.014423,18,1729403415,12732224,map,-1.348077416419983,-3.461151123046875,0.16164760291576385,-0.0064029660536934286,-0.002617001954830566,-0.23806843431724634,-0.971223750691991
1729403415.1146364,19,1729403415,112729920,map,-1.3477169275283813,-3.460881471633911,0.16485348343849182,-0.006394119520434668,-0.002604012329445329,-0.2379856926858781,-0.9712441219550156
1729403415.214665,20,1729403415,212727616,map,-1.3450523614883423,-3.460268497467041,0.16416728496551514,-0.006375954668926476,-0.0026168251237063548,-0.23794885319578346,-0.9712532330402526
1729403415.3143125,21,1729403415,312725568,map,-1.3416825532913208,-3.4595654010772705,0.16331930458545685,-0.006355232675743201,-0.0026207217601370188,-0.2379424754014713,-0.9712549208291885
1729403415.4169815,22,1729403415,414723776,map,-1.3386949300765991,-3.4577057361602783,0.16287489235401154,-0.0063532764455629795,-0.00263151176783101,-0.2379481880724605,-0.9712535049189038
1729403415.5190563,23,1729403415,514721216,map,-1.336119532585144,-3.4555413722991943,0.1624070554971695,-0.0063471443811490506,-0.0026407913333595058,-0.23794308945382275,-0.9712547689254908
1729403415.6151378,24,1729403415,612719168,map,-1.3342229127883911,-3.453655958175659,0.1609032303094864,-0.006323834562686198,-0.0026456098628823486,-0.23796866533501576,-0.9712486417923828
1729403415.716949,25,1729403415,714717376,map,-1.3326354026794434,-3.4519948959350586,0.16103105247020721,-0.00632104157469705,-0.002646025970485792,-0.23795552310059742,-0.9712518787656967
1729403415.8169522,26,1729403415,814715584,map,-1.3321235179901123,-3.4493441581726074,0.16192543506622314,-0.006317499299595685,-0.002653408357159142,-0.23792421011676324,-0.9712595527803081
1729403415.9169664,27,1729403415,914713792,map,-1.332031488418579,-3.4463770389556885,0.16093891859054565,-0.006291608635307539,-0.002629687421039256,-0.23788306979404955,-0.9712698623504217
1729403416.016906,28,1729403416,14712000,map,-1.3306999206542969,-3.442760467529297,0.16009141504764557,-0.006272898407795456,-0.002625785064301534,-0.23788137866306053,-0.9712704081169792
1729403416.1152277,29,1729403416,112710208,map,-1.3288989067077637,-3.439127206802368,0.16201727092266083,-0.006227710237054474,-0.002624611318662685,-0.23788252969664692,-0.9712704201743987
1729403416.215121,30,1729403416,212708160,map,-1.3276950120925903,-3.437856674194336,0.16614921391010284,-0.006230414828484789,-0.0026249121316854964,-0.23790620385839661,-0.9712646034593522
1729403416.3172374,31,1729403416,314706368,map,-1.326703667640686,-3.437513589859009,0.17081715166568756,-0.006253441327360454,-0.002614904070480601,-0.23791163821334316,-0.9712631513400016
1729403416.4153924,32,1729403416,412704576,map,-1.3249907493591309,-3.4354360103607178,0.17564254999160767,-0.006254860722891282,-0.002608854272084296,-0.23787949095967525,-0.9712710323990364
1729403416.516905,33,1729403416,514703040,map,-1.3229312896728516,-3.4325594902038574,0.1772158145904541,-0.006251584870657567,-0.0026230357172311405,-0.23783324973428782,-0.9712823393283022
1729403416.6174328,34,1729403416,614701248,map,-1.3210402727127075,-3.432258367538452,0.1768702119588852,-0.006247652905286429,-0.002632682537547076,-0.23778130943171344,-0.9712950554289725
1729403416.7155309,35,1729403416,712698176,map,-1.3193556070327759,-3.4328901767730713,0.17373618483543396,-0.006252916239959781,-0.0026204268953701378,-0.23775696026719229,-0.9713010152604014
1729403416.8153853,36,1729403416,812695360,map,-1.3166214227676392,-3.433134078979492,0.16733558475971222,-0.0062792330838114105,-0.002617760513261489,-0.23775701274588096,-0.9713008398286956
1729403416.9174044,37,1729403416,914692544,map,-1.3135457038879395,-3.4330015182495117,0.16451413929462433,-0.006305636001160444,-0.0026307138318809745,-0.23777773725777585,-0.971295560560187
1729403417.0176098,38,1729403417,14689472,map,-1.3117932081222534,-3.4346683025360107,0.16077399253845215,-0.006319398449661793,-0.002625297478896999,-0.237812096009339,-0.9712870739426251
1729403417.1154692,39,1729403417,112688448,map,-1.3106590509414673,-3.43670654296875,0.1573261171579361,-0.006336495499523474,-0.00258441890494135,-0.23785782436456587,-0.9712758748122304
1729403417.2151668,40,1729403417,212687168,map,-1.3103728294372559,-3.4399404525756836,0.16127586364746094,-0.0063700637338131765,-0.002571199984392544,-0.23783496400802423,-0.9712812883577904
1729403417.3169851,41,1729403417,314684096,map,-1.310258388519287,-3.4432384967803955,0.1666070520877838,-0.006392060048855378,-0.0025459457667203005,-0.23775853182825668,-0.9712999229235821
1729403417.4148235,42,1729403417,412682816,map,-1.3088475465774536,-3.443789005279541,0.17111583054065704,-0.006388958642508498,-0.002547547443097703,-0.23766125531950028,-0.9713237456839242
1729403417.5149665,43,1729403417,512681536,map,-1.3068265914916992,-3.4429690837860107,0.17504408955574036,-0.006359693229029321,-0.0025614405799713304,-0.23756118859324876,-0.9713483798299922
1729403417.616949,44,1729403417,614678464,map,-1.304543375968933,-3.4424092769622803,0.1807233840227127,-0.006338592374625579,-0.002553148063665564,-0.23753121683303569,-0.9713558692423134
1729403417.7170851,45,1729403417,714675392,map,-1.302297830581665,-3.4418859481811523,0.1884935349225998,-0.006333480921462385,-0.002563234094674367,-0.23752906411099556,-0.971356402435763
1729403417.8148067,46,1729403417,812672576,map,-1.2994616031646729,-3.440188407897949,0.20026364922523499,-0.006325593351944482,-0.0025574187869881627,-0.23752616002753518,-0.971357179301449
1729403417.9170287,47,1729403417,914669760,map,-1.2963899374008179,-3.4379353523254395,0.2123570740222931,-0.006329090502502557,-0.002578455220717186,-0.23753833787319062,-0.9713541229760276
1729403418.017504,48,1729403418,14666944,map,-1.294087290763855,-3.4362480640411377,0.22142209112644196,-0.006322972147836373,-0.002558791641912336,-0.2375282947206392,-0.9713566707526418
1729403418.1148212,49,1729403418,112665920,map,-1.2922074794769287,-3.4348649978637695,0.22624559700489044,-0.006333587596851246,-0.0025468487750735657,-0.2375101909370978,-0.9713610597663944
1729403418.2163796,50,1729403418,212663104,map,-1.2909349203109741,-3.433276653289795,0.22944524884223938,-0.006342515057954629,-0.002538014978129219,-0.23749316635058548,-0.9713651872079232
1729403418.3143685,51,1729403418,312660544,map,-1.289814829826355,-3.431527853012085,0.2312351018190384,-0.006347219554101823,-0.0025192360216094774,-0.23745647276411103,-0.9713741759982227
1729403418.4177365,52,1729403418,414657984,map,-1.2880499362945557,-3.4274685382843018,0.22803175449371338,-0.006317602416213988,-0.002526978212687726,-0.23739055012441945,-0.9713904616540399
1729403418.5145595,53,1729403418,512655424,map,-1.286055326461792,-3.4227328300476074,0.22471576929092407,-0.006266498395836049,-0.002547578043338543,-0.2373722074556991,-0.971395221303655
1729403418.6154063,54,1729403418,612652864,map,-1.2841143608093262,-3.418379545211792,0.22447583079338074,-0.006236752338682233,-0.0025442930680245135,-0.23736050283569765,-0.9713982814410549
1729403418.7142656,55,1729403418,712650304,map,-1.282224178314209,-3.4143900871276855,0.22336693108081818,-0.006235443992373896,-0.0025354581663197193,-0.23737863234783568,-0.9713938828275457
1729403418.8144586,56,1729403418,812647744,map,-1.2804821729660034,-3.4101173877716064,0.21992051601409912,-0.0062451857275884854,-0.002538199250187098,-0.23735602245669574,-0.9713993379673111
1729403418.9143634,57,1729403418,912645696,map,-1.2787857055664062,-3.4059505462646484,0.21735084056854248,-0.006254671461481458,-0.002534735459525341,-0.237325060962169,-0.9714068507275218
1729403419.0174258,58,1729403419,14643136,map,-1.2769746780395508,-3.402144432067871,0.21718643605709076,-0.0062473542326929605,-0.0025226649464462226,-0.23728091518838546,-0.9714177134549387
1729403419.1176412,59,1729403419,114642112,map,-1.2751691341400146,-3.3987441062927246,0.21412916481494904,-0.006247132482486668,-0.0025251373903770855,-0.23725090364777784,-0.9714250386598127
1729403419.2126813,60,1729403419,209639808,map,-1.2729600667953491,-3.3953638076782227,0.20608912408351898,-0.00624621553605639,-0.0025274060628345677,-0.23725691030267881,-0.9714235716327337
1729403419.3152635,61,1729403419,312637504,map,-1.2704724073410034,-3.3918886184692383,0.19700947403907776,-0.0062466351887043355,-0.002519665794220138,-0.23727271482809736,-0.9714197288665745
1729403419.4180148,62,1729403419,414635200,map,-1.268983006477356,-3.391286611557007,0.19156210124492645,-0.006264029395730541,-0.0025202014374535193,-0.2372822502305003,-0.9714172863635866
1729403419.5144453,63,1729403419,512632896,map,-1.2678990364074707,-3.391942262649536,0.1893111914396286,-0.00628364637517641,-0.0024931874540427314,-0.23731392564722753,-0.9714094916658229
1729403419.6146812,64,1729403419,612630592,map,-1.2664834260940552,-3.3904664516448975,0.19266045093536377,-0.006283212598311867,-0.0024629147505925396,-0.23731726814155107,-0.9714087551243333
1729403419.7183316,65,1729403419,714628288,map,-1.2648392915725708,-3.3880484104156494,0.20034345984458923,-0.0062816828217426585,-0.00246123603121078,-0.23729215129947545,-0.971414905027606
1729403419.8166797,66,1729403419,812625984,map,-1.2635444402694702,-3.386162042617798,0.20801027119159698,-0.006250723353255953,-0.0024383360520041342,-0.2372502999016447,-0.9714253847678873
1729403419.9145775,67,1729403419,912623936,map,-1.2623190879821777,-3.3844492435455322,0.21514920890331268,-0.00626438104976047,-0.002426388087149342,-0.2372213636186552,-0.9714323933315276
1729403420.014658,68,1729403420,12621632,map,-1.2629565000534058,-3.3831212520599365,0.2195321023464203,-0.006279779530370156,-0.0024056825804133803,-0.23721524442594638,-0.9714338396783957
1729403420.1145952,69,1729403420,112619328,map,-1.2641364336013794,-3.3819096088409424,0.21759431064128876,-0.006289807553566181,-0.0023787489303096323,-0.237195507882904,-0.9714386603973699
1729403420.2195735,70,1729403420,217617280,map,-1.2656768560409546,-3.3790979385375977,0.2100011110305786,-0.006279374906235158,-0.0023634367232921233,-0.23715653731540148,-0.9714482798513828
1729403420.3142638,71,1729403420,312615232,map,-1.267245888710022,-3.376007080078125,0.20195072889328003,-0.006250339226674696,-0.0023390843507373298,-0.23711173593435347,-0.9714594621630638
1729403420.417097,72,1729403420,414613184,map,-1.2679692506790161,-3.374333381652832,0.1947280764579773,-0.006252919398274985,-0.0023361778104463,-0.2370612600928842,-0.9714717711984278
1729403420.5142117,73,1729403420,512611136,map,-1.2682045698165894,-3.3734850883483887,0.18814635276794434,-0.006264391205519976,-0.002345895906144711,-0.23695040687978924,-0.9714987178862995
1729403420.6174316,74,1729403420,614609344,map,-1.2687376737594604,-3.3728437423706055,0.18477179110050201,-0.006268109237805519,-0.0023391837367910755,-0.23684337731533434,-0.9715248085601802
1729403420.7145743,75,1729403420,712607296,map,-1.2693008184432983,-3.372408390045166,0.1832592785358429,-0.006286629710750669,-0.0023395307402127976,-0.23682257224197362,-0.9715297597909652
1729403420.8166738,76,1729403420,814605504,map,-1.2695175409317017,-3.372474193572998,0.181574746966362,-0.006310217494224537,-0.00235975177578833,-0.23684389795612304,-0.9715243593074143
1729403420.914947,77,1729403420,912603456,map,-1.26943039894104,-3.37274169921875,0.17811740934848785,-0.006331761993014092,-0.002356428730716549,-0.23686533286465422,-0.971519001420259
1729403421.0177813,78,1729403421,14601408,map,-1.270298719406128,-3.3733248710632324,0.17671148478984833,-0.0063339260546245455,-0.002358405165632185,-0.23685813656425758,-0.9715207370144587
1729403421.1166492,79,1729403421,114599616,map,-1.2713007926940918,-3.373948812484741,0.17774175107479095,-0.006348981977456362,-0.0023465364003781254,-0.23685218749441656,-0.9715221178510973
1729403421.2178075,80,1729403421,214597568,map,-1.2714797258377075,-3.3704135417938232,0.17829114198684692,-0.006346029029905934,-0.0023570523794672013,-0.23680486036257886,-0.9715336485826374
1729403421.314801,81,1729403421,312596032,map,-1.271122932434082,-3.3654019832611084,0.17660890519618988,-0.006299391304373499,-0.002364064397576103,-0.2367738036256946,-0.9715415044069602
1729403421.4168377,82,1729403421,414594240,map,-1.2694510221481323,-3.3602771759033203,0.17437738180160522,-0.00626635324951822,-0.002380964447260618,-0.2367047939983114,-0.971558492486927
1729403421.5169313,83,1729403421,514592448,map,-1.2672579288482666,-3.355501890182495,0.17156320810317993,-0.0062776887895208125,-0.0023981503401762526,-0.23669487737874956,-0.9715607930135234
1729403421.6149843,84,1729403421,612590656,map,-1.265589714050293,-3.3528077602386475,0.1678345799446106,-0.006301129227763288,-0.0023890775403086393,-0.23669254963899783,-0.9715612307128934
1729403421.7149663,85,1729403421,712589120,map,-1.2641115188598633,-3.3511552810668945,0.16343769431114197,-0.006337167696795011,-0.0024005540460198807,-0.23673089515722134,-0.9715516254548264
1729403421.8169923,86,1729403421,814587328,map,-1.2644574642181396,-3.3499579429626465,0.15705420076847076,-0.006377900697490303,-0.0023838018770629315,-0.2367789932231938,-0.9715396791894371
1729403421.918051,87,1729403421,914585792,map,-1.2653697729110718,-3.349113702774048,0.15093925595283508,-0.0063870043102252924,-0.002378192400143796,-0.23677010847101188,-0.9715417984376555
1729403422.0149052,88,1729403422,12584256,map,-1.2676509618759155,-3.344536304473877,0.1467067003250122,-0.006389760763314998,-0.002357283415915922,-0.23669641838963246,-0.9715597869888424
1729403422.1170647,89,1729403422,114582464,map,-1.2701539993286133,-3.3386662006378174,0.1432928591966629,-0.006354534990915302,-0.0023644329338083415,-0.236633730754558,-0.9715752707902409
1729403422.2152853,90,1729403422,212580928,map,-1.2746927738189697,-3.334287405014038,0.14040574431419373,-0.006336280530878035,-0.0023542302828889377,-0.23659628809413896,-0.971584533434371
1729403422.3149288,91,1729403422,312579392,map,-1.2794764041900635,-3.3308260440826416,0.13724833726882935,-0.00630530074466092,-0.002310956781368229,-0.23655972320823748,-0.9715937422693273
1729403422.4169924,92,1729403422,414577600,map,-1.2830349206924438,-3.330127000808716,0.13317488133907318,-0.006348987649422592,-0.002294079315452488,-0.23654226517905919,-0.9715977482167615
1729403422.5147676,93,1729403422,512576064,map,-1.28565514087677,-3.330709218978882,0.13088378310203552,-0.006398846400072982,-0.0022744753321526463,-0.2365344378103741,-0.9715993728159986
1729403422.6150198,94,1729403422,612574528,map,-1.2908631563186646,-3.330592632293701,0.1293826848268509,-0.006424682140492118,-0.0022447931226172407,-0.23655241197961951,-0.9715948953910032
1729403422.7151515,95,1729403422,712573248,map,-1.2966445684432983,-3.330155372619629,0.13216380774974823,-0.006414738314206579,-0.0021826977052792286,-0.2366002289878848,-0.9715834594135329
1729403422.8172553,96,1729403422,814571968,map,-1.3013583421707153,-3.3313701152801514,0.1349494904279709,-0.0064163414907582456,-0.0021622991490766364,-0.23660512024920038,-0.9715823033053481
1729403422.917133,97,1729403422,914570688,map,-1.3051280975341797,-3.333186149597168,0.13454368710517883,-0.006450540012770344,-0.0021322711645951997,-0.23658846101712905,-0.9715862000186968
1729403423.0151813,98,1729403423,12569408,map,-1.3063921928405762,-3.3347184658050537,0.1349533051252365,-0.0064869478793787945,-0.002145038655807894,-0.23656495619007029,-0.971591652814682
1729403423.1148832,99,1729403423,112568128,map,-1.306558609008789,-3.3360300064086914,0.13439176976680756,-0.006512359723984636,-0.002171753837716222,-0.23654766965233326,-0.9715956322658847
1729403423.2157524,100,1729403423,212566592,map,-1.3076945543289185,-3.3354780673980713,0.13609987497329712,-0.006510615362253798,-0.002181078241542093,-0.2365513107993767,-0.971594736577142
1729403423.3154829,101,1729403423,312563776,map,-1.3091392517089844,-3.334167003631592,0.1396559476852417,-0.006519694010205549,-0.0021794657741954397,-0.2365630162749211,-0.9715918293449488
1729403423.4151185,102,1729403423,412560960,map,-1.3104705810546875,-3.3318278789520264,0.13862046599388123,-0.006513751929127308,-0.0021743216690454747,-0.2365702372180024,-0.9715901225432995
1729403423.5181954,103,1729403423,514559680,map,-1.3117570877075195,-3.3293375968933105,0.13722501695156097,-0.006497221708050262,-0.002181400285026201,-0.2365833997834364,-0.9715870123410377
1729403423.6153681,104,1729403423,612556864,map,-1.3118622303009033,-3.325061321258545,0.13804352283477783,-0.006494034853692114,-0.002188880652660961,-0.2365854911569496,-0.9715865075673049
1729403423.7124972,105,1729403423,710554048,map,-1.3115051984786987,-3.3204782009124756,0.14041577279567719,-0.006458846069045708,-0.0022042569031711636,-0.2365387801331187,-0.9715980805107105
1729403423.8174005,106,1729403423,814552768,map,-1.3105932474136353,-3.316147565841675,0.14477810263633728,-0.006472015714692547,-0.0022265546809769263,-0.23651075776202718,-0.9716047637438143
1729403423.9175034,107,1729403423,914550208,map,-1.3094866275787354,-3.312458038330078,0.14659415185451508,-0.006472820508407736,-0.002215738844140046,-0.23647342098338553,-0.9716138709716196
1729403424.017038,108,1729403424,14549184,map,-1.306748390197754,-3.308863639831543,0.14954769611358643,-0.006490121518149324,-0.002235247742535796,-0.2364914000037152,-0.9716093349255615
1729403424.1153662,109,1729403424,112548416,map,-1.3035939931869507,-3.30572772026062,0.1543225646018982,-0.00650624143952781,-0.002273146400790742,-0.23650878384242063,-0.9716049077650598
1729403424.2170944,110,1729403424,214545856,map,-1.3015823364257812,-3.302642583847046,0.1595277190208435,-0.006509811502627972,-0.0022562586688788947,-0.2365170107870923,-0.9716029205695904
1729403424.3153358,111,1729403424,312543040,map,-1.300222396850586,-3.299945592880249,0.16389773786067963,-0.006504986984409238,-0.002254054698192146,-0.2365332454480944,-0.971599005855575
1729403424.4143846,112,1729403424,412542016,map,-1.296984076499939,-3.2950732707977295,0.16670183837413788,-0.006516132040337997,-0.0022685619104144007,-0.23649033597358743,-0.9716093426069922
1729403424.5155363,113,1729403424,512539200,map,-1.2932583093643188,-3.2898712158203125,0.17179083824157715,-0.006509446499732441,-0.002313654444251644,-0.2364207489400626,-0.9716262159801987
1729403424.618089,114,1729403424,614536896,map,-1.292250394821167,-3.2850327491760254,0.17484544217586517,-0.006500082900691745,-0.0023169931900939313,-0.2363721389025633,-0.9716380974495948
1729403424.7172973,115,1729403424,714534592,map,-1.2924870252609253,-3.2809131145477295,0.17432646453380585,-0.006480717865265894,-0.0022974123104891556,-0.23636563116699166,-0.9716398564260608
1729403424.8174152,116,1729403424,814532288,map,-1.293243169784546,-3.2771050930023193,0.1762971431016922,-0.006477703607322533,-0.002273426486746188,-0.2363670208274954,-0.9716395948874867
1729403424.9173262,117,1729403424,914529984,map,-1.2940868139266968,-3.273815870285034,0.18003997206687927,-0.0065026286069148065,-0.0022497247767544657,-0.23641078670668014,-0.9716288357641296
1729403425.0144668,118,1729403425,12527680,map,-1.2950539588928223,-3.2723312377929688,0.18543876707553864,-0.006494445825619096,-0.0022525219251893994,-0.2364463898046777,-0.971620220593792
1729403425.1160948,119,1729403425,112527168,map,-1.2959465980529785,-3.2717649936676025,0.193079873919487,-0.0065339672636202835,-0.002257926149680199,-0.23643654046922535,-0.9716223398894475
1729403425.2173626,120,1729403425,214524864,map,-1.2968541383743286,-3.271252393722534,0.2001418173313141,-0.00656459565985945,-0.0022643493585094315,-0.2363862052543857,-0.9716343657833622
1729403425.3172786,121,1729403425,314522816,map,-1.2975977659225464,-3.2708725929260254,0.2076593041419983,-0.0065658485126316845,-0.002270263856851771,-0.23630594647197672,-0.9716538659405995
1729403425.4155738,122,1729403425,412519744,map,-1.297705054283142,-3.2681074142456055,0.21710345149040222,-0.006552754931889559,-0.002281383687353579,-0.2362686905155324,-0.9716629881668588
1729403425.5148532,123,1729403425,512517952,map,-1.2974427938461304,-3.2646121978759766,0.22651809453964233,-0.006539539757046979,-0.0022874339065032225,-0.23627560499330957,-0.9716613816299047
1729403425.6175816,124,1729403425,614515904,map,-1.298299789428711,-3.2640514373779297,0.23348689079284668,-0.006544118169032079,-0.002274847781235566,-0.2362878557487592,-0.9716584012967806
1729403425.7144508,125,1729403425,712513856,map,-1.2994602918624878,-3.2649295330047607,0.24343480169773102,-0.0065818689632740094,-0.002263953245568344,-0.23626364464215888,-0.9716640590950434
1729403425.8176389,126,1729403425,815513344,map,-1.3011515140533447,-3.266392230987549,0.25374460220336914,-0.0066363198233231075,-0.0022379504609451005,-0.23626304972916456,-0.9716638936224868
1729403425.9146237,127,1729403425,912510528,map,-1.3022959232330322,-3.267591714859009,0.2585006356239319,-0.006676946966062687,-0.0022188743818246596,-0.23626438325526689,-0.9716633347928172
1729403426.0144663,128,1729403426,12507456,map,-1.30414617061615,-3.266796588897705,0.26150673627853394,-0.006669262358977252,-0.0022081888418418703,-0.23622137329416026,-0.9716738689707811
1729403426.117442,129,1729403426,114508736,map,-1.306125521659851,-3.2652201652526855,0.26321855187416077,-0.00666021670200558,-0.0022049056473804553,-0.23618300116249186,-0.9716832662274509
1729403426.2129335,130,1729403426,209507456,map,-1.3099889755249023,-3.262127161026001,0.2653976380825043,-0.006647548499832218,-0.00218502804262665,-0.23615401774490508,-0.9716904422985411
1729403426.3147511,131,1729403426,312507456,map,-1.3145793676376343,-3.258638858795166,0.2667243480682373,-0.006624535270897615,-0.0021662071463350034,-0.23616777587798443,-0.9716872978051581
1729403426.4146202,132,1729403426,412507456,map,-1.3167755603790283,-3.2530624866485596,0.2655462324619293,-0.006615590759977418,-0.002160987673369177,-0.2361910434885679,-0.9716817148979153
1729403426.5150533,133,1729403426,512508992,map,-1.317674994468689,-3.247307538986206,0.26475730538368225,-0.006584955274586597,-0.002179844519331834,-0.23620690884084644,-0.9716780242743762
1729403426.6146002,134,1729403426,612508736,map,-1.318017840385437,-3.2426249980926514,0.2642659842967987,-0.006570380077037981,-0.0021912519842979274,-0.23621233676104358,-0.9716767777827522
1729403426.7144248,135,1729403426,712505920,map,-1.3179879188537598,-3.2390382289886475,0.26334401965141296,-0.006587691867243014,-0.002183197068831656,-0.23620421912972678,-0.9716786520407543
1729403426.8148727,136,1729403426,812506176,map,-1.3183296918869019,-3.234257936477661,0.26321735978126526,-0.006577389213535504,-0.0021887083995871994,-0.23614684427313004,-0.9716926548279128
1729403426.917492,137,1729403426,915503616,map,-1.3187657594680786,-3.2290992736816406,0.2601691484451294,-0.006567028629808075,-0.0021778886701961557,-0.2361131015200455,-0.9717009489686115
1729403427.0147376,138,1729403427,12503872,map,-1.3198803663253784,-3.2236881256103516,0.2566697299480438,-0.006558028534270501,-0.002177352923106289,-0.23610604355944326,-0.9717027259356115
1729403427.114746,139,1729403427,112502848,map,-1.3211660385131836,-3.2180886268615723,0.24826839566230774,-0.006532893961004163,-0.002190191581304644,-0.23609588654077507,-0.971705334304519
1729403427.2147725,140,1729403427,212500032,map,-1.3230479955673218,-3.212128162384033,0.23865358531475067,-0.006535856478702206,-0.0021984866975145833,-0.23613451672455277,-0.9716959088354713
1729403427.31301,141,1729403427,309497472,map,-1.3249821662902832,-3.2066843509674072,0.22963790595531464,-0.006527895434309029,-0.0022074860136134613,-0.23617135174345832,-0.971686989828703
1729403427.4160695,142,1729403427,412497728,map,-1.328454613685608,-3.202518939971924,0.2224469780921936,-0.00654522306474101,-0.0021942399660147974,-0.23617120554533122,-0.9716869388014173
1729403427.5145907,143,1729403427,512498240,map,-1.3321778774261475,-3.1994411945343018,0.2172829508781433,-0.006564002356901467,-0.002160277391462106,-0.23617647772490208,-0.9716856067906479
1729403427.6126122,144,1729403427,609498496,map,-1.3348820209503174,-3.1948115825653076,0.21309803426265717,-0.0065656266895255016,-0.0021475557671010764,-0.2361327801987309,-0.9716962440320632
1729403427.7150104,145,1729403427,712495680,map,-1.3369810581207275,-3.189924955368042,0.2111734300851822,-0.00655991962491095,-0.002183708212600995,-0.23606261430093933,-0.9717132503997066
1729403427.814805,146,1729403427,812493120,map,-1.337415099143982,-3.188389539718628,0.20959773659706116,-0.006575009542486622,-0.002200724301558627,-0.2360408798692808,-0.9717183898087967
1729403427.914778,147,1729403427,912490560,map,-1.3371057510375977,-3.1884210109710693,0.20726342499256134,-0.0066135686576381985,-0.0022271829185555626,-0.23604686650735213,-0.971716613616294
1729403428.0147862,148,1729403428,12487744,map,-1.3376224040985107,-3.188526153564453,0.20694704353809357,-0.006638610817246902,-0.002231747715732252,-0.2360308915720265,-0.9717203128330008
1729403428.1166754,149,1729403428,112488000,map,-1.3383597135543823,-3.1886768341064453,0.21030659973621368,-0.006651305276802228,-0.0022157025831350797,-0.23604889909189697,-0.9717158885382504
1729403428.217045,150,1729403428,212485440,map,-1.3393101692199707,-3.1891326904296875,0.21279196441173553,-0.00665825564707499,-0.0022040532785212613,-0.2360476478274673,-0.9717161713875114
1729403428.3150647,151,1729403428,312483136,map,-1.3402591943740845,-3.1896939277648926,0.2099519520998001,-0.006649719564027829,-0.0022055315904080204,-0.23604451368040658,-0.9717169878218164
1729403428.4149625,152,1729403428,412480832,map,-1.3435698747634888,-3.1897010803222656,0.20585159957408905,-0.006666016602142181,-0.00219372591321819,-0.23602385505539752,-0.9717219209393531
1729403428.5145445,153,1729403428,512478272,map,-1.3475492000579834,-3.1895041465759277,0.20372451841831207,-0.006663294641832097,-0.0021711991236951275,-0.23599633275074378,-0.9717286747477825
1729403428.6133132,154,1729403428,610475712,map,-1.3483062982559204,-3.187225818634033,0.2047709822654724,-0.006642258618110769,-0.002187839564181285,-0.23599008289675472,-0.9717302992769516
1729403428.7156997,155,1729403428,712475456,map,-1.3476459980010986,-3.184300184249878,0.20666344463825226,-0.006610865342255784,-0.0022397047902770187,-0.23600229337080675,-0.9717274297381949
1729403428.8149052,156,1729403428,812476224,map,-1.3462575674057007,-3.178704023361206,0.20592853426933289,-0.006576099584909865,-0.0022724237357706983,-0.2360019026461248,-0.9717276845660122
1729403428.9148808,157,1729403428,912476992,map,-1.344660997390747,-3.1724612712860107,0.20132681727409363,-0.00653744614662666,-0.0023192854775918063,-0.23600697421325767,-0.9717266029266958
1729403429.0148678,158,1729403429,12474688,map,-1.345417857170105,-3.1701600551605225,0.1932157576084137,-0.006503363489005455,-0.002322209047412886,-0.2360050633893488,-0.9717272887302587
1729403429.1147728,159,1729403429,112472640,map,-1.3470028638839722,-3.169728994369507,0.18682537972927094,-0.006534697848501147,-0.0022988730032946886,-0.23598992035402505,-0.9717308116954225
1729403429.214963,160,1729403429,212470336,map,-1.3492544889450073,-3.1690547466278076,0.1808953434228897,-0.006560293566497811,-0.002285996706541029,-0.23593966287086593,-0.9717428735276432
1729403429.3153012,161,1729403429,312468288,map,-1.3515293598175049,-3.168242931365967,0.17336896061897278,-0.006550292418404286,-0.002277026956213797,-0.23591500030455687,-0.9717489498058512
1729403429.4150262,162,1729403429,412465984,map,-1.3533943891525269,-3.1686606407165527,0.1661849468946457,-0.006569500977347177,-0.0022856015647812916,-0.23588457494475285,-0.9717561859774956
1729403429.5149183,163,1729403429,512463936,map,-1.3548462390899658,-3.1694858074188232,0.15893447399139404,-0.006561921010563039,-0.0023036904922171084,-0.23585820904817334,-0.9717625941696642
1729403429.6160293,164,1729403429,612464448,map,-1.3576242923736572,-3.1699280738830566,0.15224771201610565,-0.006555746571655588,-0.002281269354516399,-0.23585501520555546,-0.9717634639146542
1729403429.712205,165,1729403429,709465216,map,-1.3606278896331787,-3.170097827911377,0.1496993601322174,-0.006560972852782429,-0.0022627537668883538,-0.23584744173064842,-0.971765310046476
1729403429.8152914,166,1729403429,812465728,map,-1.3636187314987183,-3.169691562652588,0.1497826725244522,-0.00656079269752072,-0.0022597902952100576,-0.2358405122513269,-0.9717669999171784
1729403429.9152138,167,1729403429,912466240,map,-1.366274356842041,-3.169001340866089,0.1484960913658142,-0.006564829313467111,-0.002258955764382361,-0.2358604419442829,-0.9717621375937566
1729403430.0159187,168,1729403430,12463936,map,-1.36891770362854,-3.166185140609741,0.14592355489730835,-0.00655114071001895,-0.0022599072010752322,-0.2358571992239492,-0.9717630148081755
1729403430.1178315,169,1729403430,115461888,map,-1.3714399337768555,-3.162301540374756,0.14732883870601654,-0.006523459024519289,-0.0022704394041838643,-0.23585783481527178,-0.9717630222145313
1729403430.2150724,170,1729403430,212459840,map,-1.3722983598709106,-3.1595194339752197,0.15343743562698364,-0.00649930079291004,-0.0022786561037558676,-0.2358588909172601,-0.9717629085280237
1729403430.3149674,171,1729403430,312457792,map,-1.372622013092041,-3.156848907470703,0.15821227431297302,-0.006504520617842602,-0.0023113762999506255,-0.23587151194554856,-0.971759732960598
1729403430.4149494,172,1729403430,412456000,map,-1.3718122243881226,-3.156308650970459,0.15750698745250702,-0.0065213057940894945,-0.002340963830253829,-0.23593222350670529,-0.9717448113420866
1729403430.514992,173,1729403430,512454208,map,-1.3705157041549683,-3.156622886657715,0.15517763793468475,-0.006565370312633973,-0.0023573367651174523,-0.23599214178273337,-0.9717299253871068
1729403430.6151185,174,1729403430,612454976,map,-1.3725392818450928,-3.15693736076355,0.15088073909282684,-0.006601801170002514,-0.0023320445199538757,-0.2359798492058769,-0.9717327248572212
1729403430.7184227,175,1729403430,715453184,map,-1.3759920597076416,-3.1572632789611816,0.14400804042816162,-0.006593819699550637,-0.0022841281842782587,-0.23598547341581144,-0.9717315270366209
1729403430.814077,176,1729403430,812453696,map,-1.380135416984558,-3.157747745513916,0.13725218176841736,-0.0065925754932425,-0.0022470832608469287,-0.2359421843186657,-0.9717421336054753
1729403430.9156914,177,1729403430,912454464,map,-1.3846874237060547,-3.158320426940918,0.1330186277627945,-0.006602315513285856,-0.0022100031458169088,-0.23588950456152002,-0.9717549418210742
1729403431.0157201,178,1729403431,12452672,map,-1.3881549835205078,-3.1580467224121094,0.13341663777828217,-0.006588582359427984,-0.0021965472602305494,-0.23582253215224153,-0.9717713203691142
1729403431.1144614,179,1729403431,112453696,map,-1.3908361196517944,-3.1573212146759033,0.13575845956802368,-0.006585956166630439,-0.002203608573880055,-0.23579282512961097,-0.971778530791878
1729403431.2152698,180,1729403431,212451904,map,-1.393550992012024,-3.1569247245788574,0.14025011658668518,-0.006567515771206833,-0.0022099274148958577,-0.23577599110627961,-0.9717827257032652
1729403431.312439,181,1729403431,309450112,map,-1.3960195779800415,-3.156672477722168,0.14197677373886108,-0.006567816129566757,-0.0022313243743407605,-0.23579587936914453,-0.9717778492306544
1729403431.4152575,182,1729403431,412448320,map,-1.398032307624817,-3.1548259258270264,0.13838762044906616,-0.006564836630049702,-0.0022378321723598516,-0.2358308788052212,-0.971769361334852
1729403431.5122967,183,1729403431,510449600,map,-1.3996191024780273,-3.1524574756622314,0.1337733268737793,-0.0065486611798767505,-0.002241948741700353,-0.23582547127222392,-0.9717707732803165
1729403431.614301,184,1729403431,612447808,map,-1.400420069694519,-3.1525158882141113,0.12794846296310425,-0.006584199096797291,-0.0022595209373444058,-0.23581055364220677,-0.9717741124759104
1729403431.714065,185,1729403431,712448832,map,-1.4008204936981201,-3.153616428375244,0.12216591835021973,-0.006624301143955545,-0.0022581173557240744,-0.23579495921606686,-0.9717776272114187
1729403431.814229,186,1729403431,812450112,map,-1.4009360074996948,-3.153442859649658,0.11808349937200546,-0.006624466415602042,-0.002275193461447289,-0.23577571966984917,-0.9717822543932291
1729403431.9147255,187,1729403431,912448320,map,-1.400887131690979,-3.152651309967041,0.11325359344482422,-0.006622905272785134,-0.002287288650437004,-0.2357554165226457,-0.9717871624057457
1729403432.0150378,188,1729403432,12449600,map,-1.402403473854065,-3.153050184249878,0.10490211844444275,-0.006620968687028357,-0.0022843259721448523,-0.23576829872965244,-0.9717840572589282
1729403432.1145575,189,1729403432,112448064,map,-1.4044755697250366,-3.1537985801696777,0.09393763542175293,-0.006601488435819546,-0.0022593917996457597,-0.23577382009678588,-0.9717829085017371
1729403432.2143052,190,1729403432,212449344,map,-1.4068269729614258,-3.157106876373291,0.0852513536810875,-0.006622714817125493,-0.002230557625601506,-0.23579151060294956,-0.9717785384482973
1729403432.3142533,191,1729403432,312446272,map,-1.4091311693191528,-3.1611788272857666,0.07864610105752945,-0.006648561745636577,-0.002196299688415772,-0.23581196101956398,-0.9717734776862871
1729403432.414467,192,1729403432,412447552,map,-1.411363959312439,-3.163224935531616,0.07243002951145172,-0.0066274635956362375,-0.002179193306550778,-0.23579703457817142,-0.9717772822653151
1729403432.5128047,193,1729403432,510444480,map,-1.4133588075637817,-3.1641483306884766,0.06860249489545822,-0.006611168387786303,-0.0021939131506198955,-0.2357380262821565,-0.9717916763186589
1729403432.6148312,194,1729403432,612444224,map,-1.414231300354004,-3.1633718013763428,0.07006938010454178,-0.006594338907571697,-0.0022002625113087585,-0.23570589805481706,-0.971799569438794
1729403432.7148757,195,1729403432,712441152,map,-1.4145431518554688,-3.1618480682373047,0.07418345659971237,-0.00657104254083912,-0.002225430077622754,-0.23568933617819554,-0.9718036867972757
1729403432.8145676,196,1729403432,812440128,map,-1.415773630142212,-3.161212205886841,0.0799834206700325,-0.006569844548570824,-0.0022146460327106005,-0.2357290939708238,-0.9717940763048786
1729403432.9146543,197,1729403432,912437056,map,-1.4173052310943604,-3.160933256149292,0.08613746613264084,-0.006581402876323422,-0.0022101444488652816,-0.23577441818177342,-0.9717830128834013
1729403433.0144255,198,1729403433,12434240,map,-1.4175024032592773,-3.1605615615844727,0.08660515397787094,-0.006600443682393378,-0.002209136353750938,-0.2357687386896703,-0.9717842639786096
1729403433.1147254,199,1729403433,112435776,map,-1.4171197414398193,-3.16015887260437,0.0844482034444809,-0.006611433260035817,-0.0022187514252218084,-0.2357719073571528,-0.9717833985994673
1729403433.2155814,200,1729403433,210436032,map,-1.417456865310669,-3.1609222888946533,0.08278518170118332,-0.006617402705828006,-0.0022159354600286944,-0.23572824841325635,-0.9717939557907755
1729403433.3141186,201,1729403433,312434752,map,-1.4181405305862427,-3.162081718444824,0.08112990856170654,-0.006615793529032223,-0.0022034742894274247,-0.23569335164462452,-0.971802459333974
1729403433.4149556,202,1729403433,412431936,map,-1.4199364185333252,-3.162803888320923,0.07944989949464798,-0.006621399132773243,-0.0022029749629845345,-0.2356627090008453,-0.9718098536036872
1729403433.514707,203,1729403433,512429376,map,-1.4220324754714966,-3.1631698608398438,0.07791711390018463,-0.00660557126787117,-0.002195169206032308,-0.23567777653079486,-0.9718063249999367
1729403433.6143506,204,1729403433,612426816,map,-1.423750638961792,-3.1630477905273438,0.07719536125659943,-0.0065814267145882675,-0.0021869744889368627,-0.23570727455436535,-0.9717993531008025
1729403433.7142742,205,1729403433,712424256,map,-1.4251443147659302,-3.1626200675964355,0.07457202672958374,-0.006554687248965327,-0.0021944752967787105,-0.23575710901181202,-0.9717874283523289
1729403433.8192432,206,1729403433,812424256,map,-1.4269556999206543,-3.1618826389312744,0.07365220040082932,-0.0065269433837239635,-0.002192720397398403,-0.23575927934299384,-0.9717870925212974
1729403433.9173844,207,1729403433,915424768,map,-1.4289517402648926,-3.1609506607055664,0.07440397143363953,-0.006503010573773712,-0.0021893815096496725,-0.23577008990581588,-0.971784637750508
1729403434.0145314,208,1729403434,12424256,map,-1.4318939447402954,-3.1620662212371826,0.07570996880531311,-0.00649999704125153,-0.002173139541120281,-0.23572519840751605,-0.9717955846466558
1729403434.1147718,209,1729403434,112423488,map,-1.4353222846984863,-3.1637301445007324,0.07827471196651459,-0.00651361511586532,-0.002132067847446034,-0.23566118410301934,-0.9718111099447152
1729403434.2145593,210,1729403434,212423744,map,-1.438650131225586,-3.1670472621917725,0.0822748914361,-0.006543975981907255,-0.0021066268045832415,-0.23566737466428495,-0.9718094602444957
1729403434.3127966,211,1729403434,310421184,map,-1.4416342973709106,-3.1706981658935547,0.08947654813528061,-0.006560647664486131,-0.002074342617384821,-0.23570183088904179,-0.9718010608763924
1729403434.4147656,212,1729403434,412421184,map,-1.4429198503494263,-3.173989772796631,0.097964808344841,-0.006565613676612026,-0.002099752293156426,-0.2357304379959052,-0.9717940339185127
1729403434.5147212,213,1729403434,512418880,map,-1.443430781364441,-3.1767172813415527,0.10707718133926392,-0.006573880743937571,-0.0021250146375838557,-0.2357593334132479,-0.9717869134297371
1729403434.6146052,214,1729403434,612416576,map,-1.443783164024353,-3.182617664337158,0.11505880951881409,-0.00659667444049664,-0.0021519766786927156,-0.23577523345248091,-0.9717828420861981
1729403434.7149987,215,1729403434,712414272,map,-1.4440937042236328,-3.189300537109375,0.11746912449598312,-0.006631593672338221,-0.0021390507378270143,-0.23578701082079662,-0.97177977544066
1729403434.8148503,216,1729403434,812411968,map,-1.443511724472046,-3.196803569793701,0.12232382595539093,-0.006669852549170965,-0.0021363555316773583,-0.23573789188412947,-0.9717914361538905
1729403434.9146237,217,1729403434,912409664,map,-1.4427261352539062,-3.2040038108825684,0.13089081645011902,-0.006705399523384811,-0.0021447006072131108,-0.23566083105670665,-0.9718098633900563
1729403435.014639,218,1729403435,12409920,map,-1.4428496360778809,-3.207293748855591,0.14138002693653107,-0.006679978775059434,-0.00214918479515318,-0.23561307777418805,-0.971821607328246
1729403435.1148167,219,1729403435,112407360,map,-1.4433784484863281,-3.2086238861083984,0.1545986384153366,-0.006629657855534665,-0.0021624901311251598,-0.2356235481920287,-0.9718193838417455
1729403435.2148001,220,1729403435,212405056,map,-1.4425692558288574,-3.209859848022461,0.16358399391174316,-0.0066052286189875594,-0.0021665748122843757,-0.23563372590799475,-0.9718170733853103
1729403435.3179104,221,1729403435,315405312,map,-1.441098928451538,-3.2109503746032715,0.1731494963169098,-0.006587566286058714,-0.002186926128700947,-0.23565438452417165,-0.9718121384192875
1729403435.4148922,222,1729403435,412404544,map,-1.4383423328399658,-3.2129688262939453,0.1788942962884903,-0.006583695038681282,-0.002211979529680905,-0.23565785590037125,-0.9718112661719032
1729403435.5148761,223,1729403435,512405312,map,-1.4349805116653442,-3.2151947021484375,0.18456752598285675,-0.006600844187773915,-0.0022404440369688584,-0.23564066863618044,-0.9718152522734038
1729403435.614944,224,1729403435,612403520,map,-1.4319556951522827,-3.2182717323303223,0.18912215530872345,-0.006628717911365237,-0.0022707391977426616,-0.23559855150309528,-0.9718252036101918
1729403435.714651,225,1729403435,712401728,map,-1.429357647895813,-3.221465826034546,0.1902512162923813,-0.006647947325429238,-0.0022836903164195755,-0.23555592660124347,-0.9718353744322781
1729403435.8150241,226,1729403435,812399936,map,-1.4274041652679443,-3.2232718467712402,0.190501868724823,-0.0066590377841411206,-0.0022877574919945446,-0.23550236394936996,-0.9718482700276345
1729403435.9152572,227,1729403435,912401216,map,-1.4258683919906616,-3.2244515419006348,0.18953613936901093,-0.006645750374479082,-0.0022899019700387073,-0.23550432565530166,-0.971847880559797
1729403436.0147264,228,1729403436,12402240,map,-1.4246548414230347,-3.223909378051758,0.18390637636184692,-0.00660402430477485,-0.0022742759415849243,-0.23553070571916113,-0.9718418087298764
1729403436.1169193,229,1729403436,114400448,map,-1.4236575365066528,-3.2225427627563477,0.17650148272514343,-0.006577607177192012,-0.002262686869715869,-0.23558705364021065,-0.971828357010165
1729403436.215254,230,1729403436,212401216,map,-1.4216712713241577,-3.221078395843506,0.17036376893520355,-0.006531764760108094,-0.002275394152120774,-0.23563037698965988,-0.9718181332277568
1729403436.3118496,231,1729403436,309399680,map,-1.4192692041397095,-3.219282388687134,0.16376230120658875,-0.006502946080160708,-0.0023054552561284415,-0.235623574787368,-0.9718199049066458
1729403436.4151285,232,1729403436,412400448,map,-1.419001817703247,-3.2160451412200928,0.15569615364074707,-0.006472908406610291,-0.002304738067924691,-0.23556433848845282,-0.9718344674231798
1729403436.5149481,233,1729403436,512401472,map,-1.4196429252624512,-3.212522029876709,0.14985701441764832,-0.006438672127865407,-0.002300975132747209,-0.2355197240767753,-0.971845516831491
1729403436.614888,234,1729403436,612402496,map,-1.4200246334075928,-3.2096304893493652,0.14960873126983643,-0.006392858439028219,-0.0022663758308859435,-0.2355098608901101,-0.9718482907970218
1729403436.7142909,235,1729403436,712400704,map,-1.420226812362671,-3.2073216438293457,0.15018148720264435,-0.00636805925658632,-0.002251836800235974,-0.23549068817916435,-0.9718531333659595
1729403436.8150892,236,1729403436,812401728,map,-1.4202605485916138,-3.205190420150757,0.14780868589878082,-0.006381227355116431,-0.00225623646605297,-0.23551382087997796,-0.9718474311891581
1729403436.9151015,237,1729403436,912402752,map,-1.4201552867889404,-3.203380584716797,0.1433156579732895,-0.0063809020103889665,-0.0022685929973079388,-0.2355311705861018,-0.9718431999338613
1729403437.0153565,238,1729403437,12400960,map,-1.420676350593567,-3.201184034347534,0.14120282232761383,-0.006353066972439459,-0.002256858606220254,-0.23556405817377712,-0.9718354385522154
1729403437.1153424,239,1729403437,112401472,map,-1.421398401260376,-3.1990127563476562,0.14259424805641174,-0.006347596226256074,-0.0022497559931528755,-0.235590468783633,-0.9718290886974044
1729403437.215203,240,1729403437,212402496,map,-1.4211668968200684,-3.1966629028320312,0.14739187061786652,-0.0063325539432535615,-0.002255548287705002,-0.23553465233252463,-0.9718427027112331
1729403437.314989,241,1729403437,312400960,map,-1.4205633401870728,-3.194429874420166,0.15171441435813904,-0.006325663609876524,-0.002230902390112625,-0.235534133811112,-0.9718429301406013
1729403437.4139946,242,1729403437,412402240,map,-1.4203509092330933,-3.194002389907837,0.15466946363449097,-0.006329175582641678,-0.0022138751579120403,-0.23554131788322352,-0.9718412050654486
1729403437.5149689,243,1729403437,512403264,map,-1.420305609703064,-3.194349527359009,0.15729926526546478,-0.006335564330500371,-0.0022018659674023023,-0.2355595875223786,-0.9718367625981035
1729403437.6151857,244,1729403437,612404544,map,-1.4202303886413574,-3.1957013607025146,0.15837126970291138,-0.006338139895770286,-0.0021875749329442417,-0.23558071365395417,-0.9718316571571786
1729403437.712522,245,1729403437,709403008,map,-1.420248031616211,-3.197323799133301,0.16140304505825043,-0.00636349944290446,-0.00216729626520413,-0.23560279574599308,-0.9718261837069482
1729403437.8154206,246,1729403437,812403776,map,-1.4196418523788452,-3.1960484981536865,0.16697394847869873,-0.006334517100095627,-0.002156754972301851,-0.23563515039735522,-0.971818552096179
1729403437.9152572,247,1729403437,912405056,map,-1.4189233779907227,-3.1936557292938232,0.1703440248966217,-0.006283628804431787,-0.0021625606189424663,-0.2356464916711673,-0.9718161195944878
1729403438.0159106,248,1729403438,12406080,map,-1.418595790863037,-3.191356658935547,0.1738435924053192,-0.00626215805763598,-0.0021685906645283414,-0.23559542781639814,-0.971828625315698
1729403438.1139574,249,1729403438,112402752,map,-1.418526291847229,-3.189244270324707,0.17754672467708588,-0.006238811733088174,-0.002175765120500779,-0.23553740537823337,-0.9718428236818901
1729403438.2157152,250,1729403438,212404032,map,-1.42030930519104,-3.188730478286743,0.17707225680351257,-0.006236387181242232,-0.0021629763476389966,-0.23552214339352995,-0.9718465665832043
1729403438.3145359,251,1729403438,312405568,map,-1.4227871894836426,-3.188866138458252,0.17326563596725464,-0.006222197294061211,-0.0021118434932033683,-0.23553008937927367,-0.9718448442909419
1729403438.4152398,252,1729403438,412404288,map,-1.4235286712646484,-3.188159465789795,0.1706916242837906,-0.006230348495679091,-0.002104098218448949,-0.2355680812087868,-0.9718356006259081
1729403438.5141711,253,1729403438,512405568,map,-1.4235727787017822,-3.1871423721313477,0.17034566402435303,-0.006217908767976374,-0.002115014086144381,-0.23561574599174523,-0.97182410165972
1729403438.6143157,254,1729403438,612406592,map,-1.4230246543884277,-3.1852126121520996,0.1747289001941681,-0.00620963966983092,-0.002145977124626551,-0.23564334451587937,-0.971817395060781
1729403438.71236,255,1729403438,710405056,map,-1.4223190546035767,-3.18300461769104,0.17872625589370728,-0.006193620724022253,-0.0021708625773339918,-0.23561694253390564,-0.9718238435071305
1729403438.814453,256,1729403438,812404800,map,-1.4190691709518433,-3.1827826499938965,0.18167388439178467,-0.006175165530637297,-0.002180386198714094,-0.23557460091549226,-0.9718342043014333
1729403438.9142919,257,1729403438,912404800,map,-1.4150400161743164,-3.1833078861236572,0.18249015510082245,-0.006227739737035881,-0.0022287491013476585,-0.23553594657861454,-0.97184312818712
1729403439.0143049,258,1729403439,12404800,map,-1.4113245010375977,-3.182892322540283,0.1857265830039978,-0.006239839117944699,-0.0022586090188925732,-0.2355255370013824,-0.9718455044467164
1729403439.1125405,259,1729403439,110403520,map,-1.4081063270568848,-3.182011127471924,0.19114206731319427,-0.006258317169970783,-0.002255369418327973,-0.23555642365382223,-0.9718379072923671
1729403439.2143085,260,1729403439,212403264,map,-1.40684175491333,-3.1798534393310547,0.19567027688026428,-0.006259472849877539,-0.002232186831305928,-0.23560020366164924,-0.9718273408256124
1729403439.3150606,261,1729403439,312403520,map,-1.4065704345703125,-3.1772961616516113,0.1993764489889145,-0.006224976932622305,-0.0022124249813723295,-0.23564983139452184,-0.9718155749943626
1729403439.4143689,262,1729403439,412405056,map,-1.4041080474853516,-3.1751248836517334,0.2018474042415619,-0.00623227058007998,-0.0022281716127573875,-0.23563772743711675,-0.9718184272089885
1729403439.5174158,263,1729403439,515402240,map,-1.4007364511489868,-3.173140048980713,0.20456120371818542,-0.006235710299704509,-0.002246602507612795,-0.23558360926496424,-0.9718314832006234
1729403439.6164885,264,1729403439,612402240,map,-1.3979084491729736,-3.173199415206909,0.20758482813835144,-0.00627168538945664,-0.002273109027521966,-0.2355308609581912,-0.9718439753756862
1729403439.7144246,265,1729403439,712402240,map,-1.395095944404602,-3.173950433731079,0.21397410333156586,-0.006304225196599581,-0.0023022701236885225,-0.23549999112212755,-0.9718511771245769
1729403439.8144789,266,1729403439,812401984,map,-1.3923395872116089,-3.1728367805480957,0.22131836414337158,-0.006312510527765367,-0.0023206767470690328,-0.23550860356311004,-0.9718489925487532
1729403439.914626,267,1729403439,912402240,map,-1.3899239301681519,-3.1709961891174316,0.22672618925571442,-0.006292709658679483,-0.0023199268694739233,-0.23554204744092255,-0.9718410176730604
1729403440.0144238,268,1729403440,12402496,map,-1.3866692781448364,-3.167363166809082,0.2346535325050354,-0.006275342012772357,-0.0023235274948895275,-0.23557487966435697,-0.9718331633432392
1729403440.1144328,269,1729403440,112404288,map,-1.3833435773849487,-3.1631953716278076,0.2452130913734436,-0.006241044797638126,-0.002355199676955923,-0.23560399395371984,-0.9718262501226087
1729403440.2124891,270,1729403440,209404544,map,-1.380494236946106,-3.158545970916748,0.25716134905815125,-0.006223813709877369,-0.002355512698228293,-0.23556994261552572,-0.9718346144478242
1729403440.3127065,271,1729403440,310405056,map,-1.3780266046524048,-3.1539435386657715,0.2658356726169586,-0.006218872832520106,-0.0023578613555693935,-0.23554079178460952,-0.9718417059974325
1729403440.4144137,272,1729403440,412403520,map,-1.3745989799499512,-3.1498050689697266,0.27072852849960327,-0.00621510384325889,-0.0023501255989147197,-0.23548981292701682,-0.9718541029400892
1729403440.5146775,273,1729403440,512401984,map,-1.3712090253829956,-3.146573543548584,0.2751255929470062,-0.006213231668786114,-0.00236574400123946,-0.23548286969689225,-0.9718557594040726
1729403440.6174636,274,1729403440,614400704,map,-1.3675940036773682,-3.142808437347412,0.2798011302947998,-0.006233353999807308,-0.002384996364009927,-0.23550739790442365,-0.9718496399250989
1729403440.7145236,275,1729403440,712399168,map,-1.3642702102661133,-3.1391615867614746,0.28252869844436646,-0.006243083386772363,-0.002386285641183827,-0.2355396479790502,-0.9718417586112306
1729403440.8124855,276,1729403440,810397888,map,-1.3620320558547974,-3.133620262145996,0.2839564085006714,-0.006229484574237,-0.002370159551902888,-0.2355596406790998,-0.9718370396052884
1729403440.9145691,277,1729403440,912396608,map,-1.3602275848388672,-3.1275417804718018,0.28329697251319885,-0.0062039599085596695,-0.002365693613829233,-0.23556328241874508,-0.9718363310513171
1729403441.0144916,278,1729403441,12395328,map,-1.3603160381317139,-3.12540864944458,0.27855756878852844,-0.0062149068185609726,-0.0023439491998820364,-0.23553874830105304,-0.9718422602892703
1729403441.114567,279,1729403441,112395584,map,-1.3611514568328857,-3.124971628189087,0.2764999568462372,-0.006250622384321614,-0.002293995115657546,-0.2355233724724975,-0.9718458768371655
1729403441.214535,280,1729403441,212394560,map,-1.3626338243484497,-3.1239700317382812,0.2735556364059448,-0.006259379709772331,-0.002261462747805875,-0.235487445079958,-0.9718546028916069
1729403441.314737,281,1729403441,312393280,map,-1.3641414642333984,-3.1227385997772217,0.26793473958969116,-0.006254944640481159,-0.0022348713662240895,-0.23546179567180725,-0.9718609076388087
1729403441.4145463,282,1729403441,412392000,map,-1.364507794380188,-3.1218583583831787,0.2642684876918793,-0.006288854016872341,-0.002222585523419452,-0.2354546188572011,-0.9718624557454392
1729403441.5154586,283,1729403441,512392512,map,-1.364261269569397,-3.1210949420928955,0.26399147510528564,-0.006290013798842339,-0.0022277321407931294,-0.23543529164190646,-0.9718671186872254
1729403441.6150804,284,1729403441,612390976,map,-1.3618472814559937,-3.1197948455810547,0.2622074782848358,-0.006284830653986288,-0.0022650382204452368,-0.2354367730872941,-0.9718667071073854
1729403441.7148795,285,1729403441,712389696,map,-1.3586034774780273,-3.118173122406006,0.25832605361938477,-0.006310221590480793,-0.0023114739767075613,-0.23546522262572817,-0.9718595408418595
1729403441.8148577,286,1729403441,812388416,map,-1.3571490049362183,-3.1178994178771973,0.25721845030784607,-0.006322977432164812,-0.0023117235021481797,-0.2354697307899623,-0.9718583650782373
1729403441.915024,287,1729403441,912387136,map,-1.3565099239349365,-3.1180944442749023,0.2581607401371002,-0.0063509132324588045,-0.0022917475816361934,-0.23543468938921747,-0.9718667196824564
1729403442.0150247,288,1729403442,12386112,map,-1.3569626808166504,-3.119446039199829,0.2570381164550781,-0.006378040469139586,-0.0022879514638625424,-0.23542693596885111,-0.9718684292115838
1729403442.1147277,289,1729403442,112385088,map,-1.357682704925537,-3.1211047172546387,0.25427818298339844,-0.006410555565276788,-0.002266900577821097,-0.2354377815584674,-0.97186563729455
1729403442.215646,290,1729403442,212384064,map,-1.359354019165039,-3.1243748664855957,0.2528078556060791,-0.006444704926988318,-0.002238913225285969,-0.23543622146187043,-0.9718658542565075
1729403442.314975,291,1729403442,312383040,map,-1.361150860786438,-3.127950668334961,0.25177285075187683,-0.006483277279778896,-0.002215700797450632,-0.23544679170275934,-0.971863090184295
1729403442.414658,292,1729403442,412382272,map,-1.3633531332015991,-3.1309494972229004,0.2492121309041977,-0.006512307978336706,-0.0021972405230699923,-0.23548230242417328,-0.9718543343649237
1729403442.5116968,293,1729403442,509381248,map,-1.3653801679611206,-3.13330078125,0.24735970795154572,-0.0065148097037595245,-0.00219237974568255,-0.23553684721137724,-0.9718411106406741
1729403442.6154253,294,1729403442,612380224,map,-1.3670852184295654,-3.134644031524658,0.24921061098575592,-0.006511550204919881,-0.0021970658098331617,-0.2355416816041918,-0.9718399502195953
1729403442.7153282,295,1729403442,712379456,map,-1.368377923965454,-3.1354455947875977,0.2537623941898346,-0.0064972386458486,-0.002201440555057184,-0.23549983331418123,-0.9718501777838262
1729403442.8157191,296,1729403442,812378688,map,-1.370681881904602,-3.138390064239502,0.2552149295806885,-0.0065149653200412055,-0.002203514591257495,-0.23541725860758628,-0.9718700602961352
1729403442.9145827,297,1729403442,912377920,map,-1.373021125793457,-3.141936779022217,0.25225576758384705,-0.006549572115294057,-0.002183197845177087,-0.23540006402328295,-0.9718740384484552
1729403443.0152736,298,1729403443,12376896,map,-1.3757327795028687,-3.1425342559814453,0.24736081063747406,-0.006560913280137391,-0.002163747962043033,-0.23541236269681337,-0.971871026474805
1729403443.1148272,299,1729403443,112376384,map,-1.3782211542129517,-3.1418263912200928,0.24421675503253937,-0.006525046637736033,-0.002160872901156852,-0.23544808625779662,-0.9718626204727816
1729403443.2156916,300,1729403443,212375872,map,-1.3805735111236572,-3.140789747238159,0.24627353250980377,-0.006493376074621784,-0.002159234970792591,-0.23548750618805225,-0.971853285326971
1729403443.3168294,301,1729403443,314375616,map,-1.3825148344039917,-3.139697313308716,0.25232312083244324,-0.006494750914789773,-0.0021602335392811303,-0.2355260214501358,-0.971843940569411
1729403443.414812,302,1729403443,412374592,map,-1.3841627836227417,-3.138490676879883,0.25859031081199646,-0.00648460265261734,-0.00216409712532324,-0.23553799057165725,-0.9718410989506132
1729403443.5148954,303,1729403443,512374080,map,-1.3854438066482544,-3.137352228164673,0.263360857963562,-0.006479791013054818,-0.0021594691187137964,-0.2354846728760585,-0.9718540620082874
1729403443.6165464,304,1729403443,612373824,map,-1.3883380889892578,-3.1353938579559326,0.270378977060318,-0.006459508537499479,-0.0021492038354174194,-0.23541923659897634,-0.9718700729580487
1729403443.7153192,305,1729403443,712373312,map,-1.3915599584579468,-3.133173704147339,0.2783682644367218,-0.00644629322280001,-0.0021285771319171725,-0.23541150963688845,-0.9718720777929369
1729403443.8171873,306,1729403443,814371776,map,-1.3972578048706055,-3.1325414180755615,0.27856335043907166,-0.006442955417531728,-0.0020887407824477394,-0.23542331841176445,-0.9718693259051983
1729403443.9152377,307,1729403443,912371520,map,-1.4033739566802979,-3.1326022148132324,0.275005042552948,-0.006449119173297932,-0.0020434279200631593,-0.23544941083242493,-0.9718630604168923
1729403444.0151625,308,1729403444,12371264,map,-1.4095087051391602,-3.134411573410034,0.27030766010284424,-0.006464749689391882,-0.002006990359359137,-0.23549165727940718,-0.971852796648211
1729403444.115027,309,1729403444,112370496,map,-1.415060043334961,-3.136719226837158,0.2648102939128876,-0.006486125631579245,-0.0019869578612872274,-0.23550192634787004,-0.9718502070068162
1729403444.214871,310,1729403444,212369984,map,-1.4214818477630615,-3.1395139694213867,0.2593012750148773,-0.006502284543198931,-0.0019797919153708207,-0.23545203502341033,-0.9718622021269404
1729403444.3139699,311,1729403444,312369472,map,-1.427667498588562,-3.142233371734619,0.2564364969730377,-0.006521811018001777,-0.001967083375207929,-0.23539743047258543,-0.9718753244583096
