Time,header.seq,header.stamp.secs,header.stamp.nsecs,header.frame_id,twist.linear.x,twist.linear.y,twist.linear.z,twist.angular.x,twist.angular.y,twist.angular.z
1729403414.5618477,2287,1729403413,312772416,base_link,-0.01819725892539194,-0.015012524697869343,-0.020514716264223694,0.0010351162636652589,-0.00019608205184340482,-0.0005430466844700277
1729403414.5621161,2288,1729403413,412770880,base_link,-0.01812192733937174,-0.015760054372333184,-0.018732685759214513,-0.0007668245816603303,0.0005923106800764799,-0.0004302748129703105
1729403414.5623515,2289,1729403413,514768320,base_link,-0.018245987981228732,-0.016154139436061546,-0.015163826792935868,0.0003942311741411686,0.00033726973924785863,0.000812426907941699
1729403414.5625765,2290,1729403413,614766016,base_link,-0.016781113770206916,-0.015407075286225296,-0.012176833767463447,-5.5524054914712906e-05,0.0003149008844047785,0.0001246604660991579
1729403414.5627317,2291,1729403413,712763456,base_link,-0.01585918683088057,-0.014518691896798738,-0.009899961854869724,0.0002647930523380637,-0.0007598465308547021,-0.0006790073821321129
1729403414.5629377,2292,1729403413,814761152,base_link,-0.014922512045165507,-0.013157265107968073,-0.008567095679733823,0.001075749401934445,0.0008377367630600929,-0.0004373450647108258
1729403414.5643551,2293,1729403413,912758848,base_link,-0.013004238735472103,-0.013436168993201894,-0.008455956612231388,0.001025545410811901,0.0006783298449590803,0.0004962033126503228
1729403414.5648162,2294,1729403414,12756288,base_link,-0.011857166399307326,-0.012220506614380894,-0.007737196795799935,0.0005251157563179731,-2.8885668143629987e-05,0.0003395397507119924
1729403414.5648737,2295,1729403414,112753728,base_link,-0.011484255155479213,-0.011422715820064794,-0.007987364406266217,-0.0008466766448691487,-0.0015464106108993292,-0.00016083694936241936
1729403414.5654454,2296,1729403414,212751424,base_link,-0.009882710030150725,-0.010449663719481663,-0.007027161377214194,-0.00047158566303551197,-0.000288747251033783,-0.0005292259738780558
1729403414.5655632,2297,1729403414,312749120,base_link,-0.00827381747589167,-0.008923588813854393,-0.006687663740632104,0.0005340258358046412,-0.0003894639667123556,-0.00014921510592103
1729403414.5659778,2298,1729403414,414746048,base_link,-0.006146285982076079,-0.0079014948048275,-0.006861997304251306,-0.0005517627578228712,-0.0005702665075659754,-0.0014040179084986448
1729403414.5662,2299,1729403414,512743744,base_link,-0.00452645862002718,-0.008208935983300332,-0.006393559251804385,0.0007822975749149919,-0.0003916483838111162,-0.00010946076508844266
1729403414.6147254,2300,1729403414,612741440,base_link,-0.002894846150772848,-0.007342206636398366,-0.006173943101675825,0.0005258952151052654,0.0007446485105901957,-0.0002185099001508207
1729403414.7145076,2301,1729403414,712739392,base_link,-0.0007157454205246821,-0.007193935306853635,-0.0056614507827740645,-0.00033062277361750603,-0.0004692217335104941,0.0007710842764936389
1729403414.8164418,2302,1729403414,814737088,base_link,0.001075051407091021,-0.007227424849711867,-0.0030617790280931694,0.0005204126937314868,-0.001350632170215249,-0.00032239290885627253
1729403414.9147656,2303,1729403414,912734528,base_link,0.0013466865389471425,-0.006679087639502985,-0.0017535152694255463,0.0005929970648139715,-0.0007545023690909147,-0.00029847785481251765
1729403415.014511,2304,1729403415,12732224,base_link,0.0023500553318754154,-0.0048201781024858,-0.00026213870059194836,0.0005268336972221732,0.00019526109099388123,-8.679937309352684e-05
1729403415.1148612,2305,1729403415,112729920,base_link,0.003067560752686719,-0.003838534809029922,-0.0005920811092589416,-1.6952864825725555e-05,-0.00011798227205872533,0.00017312275303993377
1729403415.2148926,2306,1729403415,212727616,base_link,0.005225220578257596,-0.003133275546537901,-0.0006391613478206223,0.0004080783692188561,0.0003874888643622397,-0.001202574116177857
1729403415.3146958,2307,1729403415,312725568,base_link,0.00715462946871369,-0.003295236150713739,-0.0006475329787100685,-0.00018312304746359587,0.00015560851898044345,-0.00030001444974914193
1729403415.4174316,2308,1729403415,414723776,base_link,0.009046330434799467,-0.0030178830269102204,-0.0010345121608483186,0.0001539394725114107,5.139270797371861e-05,-0.0002950477646663785
1729403415.519513,2309,1729403415,514721216,base_link,0.011430150565941329,-0.0018257935740997131,-0.0008602064248892855,-0.0005451955366879702,-0.00033311848528683196,-0.0008926204172894359
1729403415.6153169,2310,1729403415,612719168,base_link,0.012975633647500935,-0.0013198513551203113,-0.0016777656870663588,0.00033085071481764317,-0.0005884240381419659,2.8650538297370796e-06
1729403415.7171857,2311,1729403415,714717376,base_link,0.014158537058293522,-0.0006050355169197135,-0.004227561911071373,-0.000292428070679307,9.538326412439348e-05,0.00011305950465612112
1729403415.8171828,2312,1729403415,814715584,base_link,0.015192643615770038,0.0009913512303174187,-0.004586429788173886,0.0013169702142477036,-0.0006326457951217891,-0.000592073774896562
1729403415.9172897,2313,1729403415,914713792,base_link,0.015925236921444756,0.003215827084357195,-0.005571858039959092,7.46001023799181e-06,-0.0009468868374824524,0.00018137195729650568
1729403416.0171628,2314,1729403416,14712000,base_link,0.017239333822416686,0.004973929806261198,-0.005542195103918421,-2.8761569410562515e-05,-0.0004630533512681723,-0.00042383727850392455
1729403416.1155872,2315,1729403416,112710208,base_link,0.01862580957330683,0.005716233464350514,-0.006847298295897997,-0.0001717832637950778,-0.0003589836414903403,-0.00029440925572998816
1729403416.2153623,2316,1729403416,212708160,base_link,0.01877302726389971,0.005918840623131914,-0.004321225792830486,-0.00011843664105981588,0.0004972113529220223,-0.000387332052923739
1729403416.317383,2317,1729403416,314706368,base_link,0.01931677749875428,0.006203340416427582,-0.0034605133646048803,-0.00020760949701070786,-1.1802883818745691e-05,-0.0006321524269878864
1729403416.4155798,2318,1729403416,412704576,base_link,0.019813667035535176,0.007717640534144054,-0.0025214427328259684,0.0003244783729314804,-0.0009164863731712104,-0.000707393221091479
1729403416.517275,2319,1729403416,514703040,base_link,0.021621166157840394,0.008251701938906309,-0.0020358405511542144,0.00024811364710330963,-0.0011898363009095192,-0.0005132375517860054
1729403416.6178403,2320,1729403416,614701248,base_link,0.02188135448441531,0.0089172328510658,-0.0021525742113233425,0.0002715311711654067,-0.0008940419647842646,-0.00013704056618735183
1729403416.7157137,2321,1729403416,712698176,base_link,0.021100030347463532,0.008335827949534901,-0.0039712554046829164,-0.0013155655469745398,-0.001391398487612605,-0.000646024302113801
1729403416.8156412,2322,1729403416,812695360,base_link,0.022241265883712853,0.007576087322104433,-0.006266348905572961,-0.00016691500786691904,-0.0008622957393527032,-0.0004959747893735765
1729403416.9175963,2323,1729403416,914692544,base_link,0.022799975883099167,0.0067162813873166095,-0.006528517316311006,0.0006146931555122137,-0.00024401512928307054,0.00022988791170064363
1729403417.0181258,2324,1729403417,14689472,base_link,0.02282974063596776,0.006206664132319903,-0.007847785064020814,-0.0007359615992754698,0.00016849196981638665,-0.0004507889680098742
1729403417.1158586,2325,1729403417,112688448,base_link,0.022734019425386436,0.00569482650547028,-0.008739261809278859,-0.0007943590171635151,0.00026192038785666233,0.00028593972092494363
1729403417.2154553,2326,1729403417,212687168,base_link,0.022020307725686656,0.004168084829239156,-0.006080535009301661,0.001785937463864684,6.55431067571044e-05,6.40352664049714e-06
1729403417.3172646,2327,1729403417,314684096,base_link,0.020559453661368434,0.003151036672406436,-0.0030915189301302715,-5.238421726971865e-05,-0.00013144640251994128,0.0004875033628195524
1729403417.4149294,2328,1729403417,412682816,base_link,0.020340923312523553,0.002160362105493958,-0.00195982197071006,-0.0003007500199601054,0.0013330080546438694,-8.49592397571543e-05
1729403417.5151982,2329,1729403417,512681536,base_link,0.020705716387843028,0.0030948838800644194,-0.0009679874175007829,-0.0002933716168627143,0.0003639670321717858,-0.0005373485619202256
1729403417.6171772,2330,1729403417,614678464,base_link,0.021500326138937032,0.0032115994816567734,0.0014970011933099288,-8.157547563314438e-05,-0.0006876778788864613,-0.0004249536432325839
1729403417.7171803,2331,1729403417,714675392,base_link,0.021414268825434006,0.0037707520933059242,0.003430891354034881,-8.924503345042467e-05,0.0008538789115846157,-0.0002571439545135946
1729403417.815023,2332,1729403417,812672576,base_link,0.022582729353681413,0.00477459022219419,0.006455436232587931,0.0011085380101576447,-0.00019698240794241434,-0.0005162935121916234
1729403417.9173787,2333,1729403417,914669760,base_link,0.02353281859566205,0.005282445253598493,0.009671531937894447,0.000231280573643744,-1.3798242434859327e-05,-0.00041572286863811314
1729403418.0179565,2334,1729403418,14666944,base_link,0.023635091682327566,0.00544384699381859,0.01185853401910958,0.00012567301746457815,-0.00052694883197546,0.00020123498688917612
1729403418.115016,2335,1729403418,112665920,base_link,0.02342342477336799,0.005406626455820189,0.012626289796478354,3.324041608721018e-05,-0.0007910090498626232,-0.0003399698471184819
1729403418.2166033,2336,1729403418,212663104,base_link,0.023925907763472757,0.005941900067817591,0.01334033766690095,-0.00022370985243469477,-0.00047261384315788757,-0.0007762816385366022
1729403418.3145695,2337,1729403418,312660544,base_link,0.024421526136649357,0.006323528934005967,0.013229088033619857,0.0003350044135004282,0.0005335535388439894,0.0003952509141527116
1729403418.4179955,2338,1729403418,414657984,base_link,0.025904331870851463,0.007860009971950918,0.012298254618027088,0.0003861613804474473,-4.456820897758023e-05,-0.0013354092370718718
1729403418.514987,2339,1729403418,512655424,base_link,0.026752259906586345,0.009074818421868329,0.010670001267688498,-0.0011143079027533531,0.00034858041908591986,0.00012217549374327058
1729403418.6156163,2340,1729403418,612652864,base_link,0.027590252236003514,0.010400471410807235,0.010748850403989752,0.00022333324886858463,-0.0008595327381044626,0.00016030401457101117
1729403418.714573,2341,1729403418,712650304,base_link,0.02840739636947226,0.011679143499381749,0.009550493389760691,-0.0009276962373405695,-0.00031364057213068003,0.0005739411571994424
1729403418.8148098,2342,1729403418,812647744,base_link,0.028713070947436956,0.012892900141591166,0.008060048097837657,0.000563952955417335,-0.0009032783564180137,-0.000878783466760069
1729403418.9145198,2343,1729403418,912645696,base_link,0.029361312491379753,0.013001378651663068,0.007425154062145499,0.0001670453930273652,-0.0007600162643939256,0.0010852639097720385
1729403419.0175643,2344,1729403419,14643136,base_link,0.030094603316153583,0.013443253537853028,0.00879038208804715,0.001648390549235046,-0.0010163048282265665,-0.0009404823649674653
1729403419.117973,2345,1729403419,114642112,base_link,0.030429276084100232,0.01348589261212499,0.007979112930336667,0.0002512055216357112,9.12814866751431e-05,-0.001130965887568891
1729403419.2128634,2346,1729403419,209639808,base_link,0.030535464774536586,0.01405649108186613,0.00603651442008669,0.00016465515363961458,0.000662065576761961,-0.00016782068996690222
1729403419.3157396,2347,1729403419,312637504,base_link,0.030757824816074596,0.014012887834888174,0.004910996260000944,-0.0007515852339565754,-0.00021641561761498449,0.0002742873621173203
1729403419.4185467,2348,1729403419,414635200,base_link,0.030055161248104555,0.012408537913887735,0.003952965697614108,-0.001793179544620216,0.00037132832221686835,-0.0005653175176121294
1729403419.5146117,2349,1729403419,512632896,base_link,0.028355456100632614,0.010222815822386027,0.003715860809891977,-0.0006023861933499575,-5.916738882660846e-05,0.00159879878628999
1729403419.6150029,2350,1729403419,612630592,base_link,0.027600457021132868,0.009686520292476044,0.004919517614057576,0.00017767678946256638,0.0003395357634872198,-0.0001181021580123343
1729403419.7188504,2351,1729403419,714628288,base_link,0.027878956216189684,0.009482515391980032,0.0074069081586225945,-0.0002208211226388812,-0.0008126830216497183,0.00020803941879421483
1729403419.8172522,2352,1729403419,812625984,base_link,0.027406286048222588,0.009890156327678023,0.008351391632519864,-0.0005292909918352962,-0.00025733793154358864,-4.705115861725059e-05
1729403419.9148536,2353,1729403419,912623936,base_link,0.026268525911745604,0.01014924679066662,0.009339963850290595,-0.0004298544954508543,-0.0004519606009125711,-0.001467361580580473
1729403420.014947,2354,1729403420,12621632,base_link,0.02504232275034304,0.01047268003647137,0.00942719289865933,0.0008408837602473795,-0.0011968251783400774,-0.0003682442184071986
1729403420.1148705,2355,1729403420,112619328,base_link,0.023174542632033595,0.010730870554875318,0.008083334873090766,-0.0004465085221454501,-0.00030724285170435916,-0.0010530772851780057
1729403420.2196946,2356,1729403420,217617280,base_link,0.021738485622923177,0.011593347795827455,0.0066446581292776965,-0.0005039869574829936,0.00048042833805084223,-0.0004274777893442661
1729403420.314418,2357,1729403420,312615232,base_link,0.020784584058284504,0.012733700549067169,0.005725459389393752,-0.00016855774447321892,-9.492598474025732e-05,-0.00043704156996682286
1729403420.417217,2358,1729403420,414613184,base_link,0.019422690352649586,0.012482619976582659,0.003888562587925352,0.00024286634288728237,0.0009856708347797394,0.0004489257698878645
1729403420.5143,2359,1729403420,512611136,base_link,0.01839940901936794,0.011436100661509291,0.0038344140325265977,0.0008354451856575906,-0.0002452165354043246,-0.000268865842372179
1729403420.6174605,2360,1729403420,614609344,base_link,0.016723457347674928,0.010485514827154869,0.0032385745988332843,-0.0004343214677646756,-0.00018087564967572708,-0.0014682728797197342
1729403420.715018,2361,1729403420,712607296,base_link,0.015180507655093049,0.009387312397362365,0.00162422086037171,0.0003196639008820057,-0.0007756249979138373,0.0008162218728102745
1729403420.817109,2362,1729403420,814605504,base_link,0.014855260143038593,0.008209692447319086,0.00016874447617215043,0.001158780651167035,-0.0005019127856940031,0.00010313062375644229
1729403420.915243,2363,1729403420,912603456,base_link,0.01369038327089955,0.0070724298771933335,-0.0005145326081013332,0.0008474576170556247,0.0002987629268318414,-0.00023853410675656053
1729403421.0184488,2364,1729403421,14601408,base_link,0.012841609894421348,0.00603787499661722,-0.0002602982217622587,-2.1207495592534542e-05,0.0003926416393369436,-9.201852662954527e-06
1729403421.1167912,2365,1729403421,114599616,base_link,0.011841575380193427,0.0048727465229846155,-0.0005361271555384188,-0.00025718891993165016,-3.9951875805854926e-05,-0.0010317215928807855
1729403421.2180088,2366,1729403421,214597568,base_link,0.012523605000568504,0.006328375003957405,-0.000480850696650403,0.0009133630665019155,-0.0003044975455850363,0.00011048313172068451
1729403421.3151107,2367,1729403421,312596032,base_link,0.013975464754405663,0.0075852594709984135,-0.0011259772965267433,-0.0007122319657355547,-0.0006675801705569029,8.425849955528983e-05
1729403421.417133,2368,1729403421,414594240,base_link,0.01597518119345364,0.009535213299034508,-0.0013415803116671363,-0.0002542802831158042,0.00011622312013059856,0.00014567733160220084
1729403421.517367,2369,1729403421,514592448,base_link,0.017444887368528065,0.010247569249089823,-0.0025912960621751395,0.0010976644698530436,-0.000957673415541649,-0.0009150573168881236
1729403421.6152318,2370,1729403421,612590656,base_link,0.017705555729428262,0.009510353662464638,-0.003109588809728578,-0.0005725981900468469,-5.5671902373433133e-05,-0.0001916457258630544
1729403421.7153563,2371,1729403421,712589120,base_link,0.017264571701390456,0.009076347406777643,-0.0039997260708433775,-0.00015166937373578548,0.0004236724926158786,0.00013079465134069318
1729403421.8171852,2372,1729403421,814587328,base_link,0.0161176726732928,0.008416496041163261,-0.0054508552482792115,0.000817160471342504,-0.0012103631161153316,-0.00014428602298721658
1729403421.9182818,2373,1729403421,914585792,base_link,0.014918988416816947,0.007981229818409392,-0.007195198842966942,-0.0005258481251075864,0.0008033656049519777,1.3791453966405144e-05
1729403422.0151813,2374,1729403422,12584256,base_link,0.013899285628099934,0.010059726848039116,-0.008944488173532586,0.0003407325129956007,0.0002025667345151304,-0.000938798300921917
1729403422.117272,2375,1729403422,114582464,base_link,0.013256027886871384,0.013046446587110369,-0.010497820743046966,0.00025808007922023535,-0.00017743208445608624,-0.0007333940011449158
1729403422.2155955,2376,1729403422,212580928,base_link,0.01114926711401138,0.01442956751557189,-0.010421388485499812,-0.0003076100256294012,-0.00048699020408093935,-0.0005014550406485795
1729403422.31521,2377,1729403422,312579392,base_link,0.009343092979002354,0.016271834162056745,-0.010001490878987494,0.0002645073691383004,-0.0005100206471979619,-0.0008123811567202209
1729403422.4171722,2378,1729403422,414577600,base_link,0.007330861655084342,0.015206140474329995,-0.012136012429007248,-8.814211469143629e-05,-0.0005420213565230368,0.0006618060288019479
1729403422.5150669,2379,1729403422,512576064,base_link,0.005578683243278654,0.013989135797566249,-0.013077420342125548,-0.0006604313384741545,-0.0007147033466026188,-0.0007296926924027501
1729403422.6151962,2380,1729403422,612574528,base_link,0.0023459445894356405,0.013682768438963579,-0.01431310246006076,-8.240772876888514e-05,-0.00033024058211594825,-0.0003529902314767241
1729403422.7154417,2381,1729403422,712573248,base_link,-0.0012792448287799899,0.014786673345031856,-0.014990753794476184,-0.00016922224313020706,-0.0004803047049790621,0.00017918192315846687
1729403422.8175569,2382,1729403422,814571968,base_link,-0.003604365405426923,0.01367664548528789,-0.01434883685979144,-0.00025959836784750223,0.00018067692872136823,-0.0006510085659101605
1729403422.9173427,2383,1729403422,914570688,base_link,-0.006408413090052249,0.012380587451304046,-0.01505919759094498,0.00011830416042357683,0.00010580581147223699,-0.0009729700977914035
1729403423.0154815,2384,1729403423,12569408,base_link,-0.007616460684831321,0.010610305278734888,-0.01580775351034848,0.0005067004822194576,-0.00087803287897259,-0.0003550500259734689
1729403423.115048,2385,1729403423,112568128,base_link,-0.0087083182557081,0.00824876414810005,-0.015519265349886515,-0.00093892274890095,0.0006513363914564252,5.076068919152013e-05
1729403423.2162993,2386,1729403423,212566592,base_link,-0.008924196305429757,0.007888956243530738,-0.01397490064796746,-0.000880912528373301,-0.0006330965552479029,-0.0001631399354664608
1729403423.3160157,2387,1729403423,312563776,base_link,-0.008359384206570177,0.008400572102903188,-0.01296147190410202,-2.4007633328437805e-05,0.00017900904640555382,-2.1171719708945623e-05
1729403423.4156032,2388,1729403423,412560960,base_link,-0.008674034771843479,0.008910710445638128,-0.013027911005128553,0.0004240015405230224,0.00014502916019409898,0.0002901566040236503
1729403423.5183318,2389,1729403423,514559680,base_link,-0.009345360494503881,0.010190518952636056,-0.01226150692366316,0.0003594766603782773,-0.00026661413721740246,0.0002151432854589075
1729403423.6158636,2390,1729403423,612556864,base_link,-0.007912625607908614,0.010492640677505426,-0.010824710856278657,0.00022359669674187899,-0.00037437921855598704,-0.001394217717461288
1729403423.7126377,2391,1729403423,710554048,base_link,-0.0062144094971138975,0.012120601207326992,-0.009036583542226457,-0.000768583151511848,-0.0004127908032387496,-0.0006990279071033001
1729403423.8176935,2392,1729403423,814552768,base_link,-0.005182481946418289,0.01187240092806752,-0.00813693844625952,0.0009133688872680068,-0.0005252386908978223,0.0007532768649980427
1729403423.917673,2393,1729403423,914550208,base_link,-0.003756139302075221,0.01278889544914056,-0.008811788255934703,-4.613981582224369e-05,2.2854655981063745e-05,-0.0008093808428384364
1729403424.017363,2394,1729403424,14549184,base_link,-0.0023110712357874747,0.012213446601821516,-0.007029861984118348,-0.0004095397889614105,0.0003074288833886385,1.4324992662295662e-05
1729403424.1156776,2395,1729403424,112548416,base_link,-0.0004166501370200542,0.011236385158226095,-0.005520349401068547,-0.001167981536127627,0.0003200132632628084,0.0004449696280062198
1729403424.217162,2396,1729403424,214545856,base_link,0.0013051218788505518,0.010324767636491733,-0.004120801942232087,-0.0008651756215840578,1.5675090253353143e-05,0.00020118962856940925
1729403424.315568,2397,1729403424,312543040,base_link,0.0016551383762077835,0.010554469535051526,-0.0029341970906353074,0.00011909741442650557,0.0004972385941073298,0.0003174334415234625
1729403424.4146838,2398,1729403424,412542016,base_link,0.0032492332762741024,0.010720300882796548,-0.0023157282172994137,0.001098392065614462,-0.0005276689771562815,-0.00020003897952847177
1729403424.515929,2399,1729403424,512539200,base_link,0.005826180981090983,0.01037488071660719,-0.0029717828531264415,0.0009329020977020264,0.0006199164781719444,-0.0018485193140804768
1729403424.6185715,2400,1729403424,614536896,base_link,0.006457014280226346,0.011113429845790068,-0.0025224252911543294,0.00020552088972181082,-0.0005239881575107576,-0.0005307059036567806
1729403424.7175393,2401,1729403424,714534592,base_link,0.005646328043977987,0.011131505915205392,-0.002098838760115733,0.0005820911610499024,0.0008128535700961947,-0.00035307122743688535
1729403424.8176053,2402,1729403424,814532288,base_link,0.005016685991587396,0.011484576795302353,-0.0017413912231322947,-0.0009227071423083544,-0.0006980127654969694,-0.0013393007684499025
1729403424.9175787,2403,1729403424,914529984,base_link,0.00515149715775086,0.011467701070696203,-0.000632533089220756,0.00010550685692578554,0.00017477979417890302,-0.0006237857742235065
1729403425.014657,2404,1729403425,12527680,base_link,0.003932941742357995,0.010956886542273885,-0.00036579095977758543,-0.0006785992300137877,0.0007758261635899543,-0.00047641797573305677
1729403425.1165934,2405,1729403425,112527168,base_link,0.003532182646612123,0.009596282238689045,0.00024174687132653012,0.0004536019405350089,2.8591137379407852e-05,-0.00024832732742652297
1729403425.2176058,2406,1729403425,214524864,base_link,0.003434282566129158,0.008445594794278883,0.0010160817612019414,-8.516153320670128e-05,0.000750482315197587,0.0003272334288340061
1729403425.3174388,2407,1729403425,314522816,base_link,0.0032102083514727532,0.007424744119165813,0.0016021886029550622,-0.0015177133027464151,0.00044206238817423577,-0.0002506822056602687
1729403425.4157727,2408,1729403425,412519744,base_link,0.004261816094045677,0.007044481649458543,0.0027542028351587064,-0.0009264424443244934,-8.121994324028488e-05,0.00029335785075090826
1729403425.5150614,2409,1729403425,512517952,base_link,0.005032731548550135,0.007626455650555992,0.004431150150872211,0.00025611522141844034,0.0010685777524486184,0.0001304748002439736
1729403425.6176474,2410,1729403425,614515904,base_link,0.005151753759970796,0.006521827265921717,0.005737470421095687,-0.0006187260150909424,-0.0005095216911286115,0.0004509581194724888
1729403425.7147834,2411,1729403425,712513856,base_link,0.0036644988156897215,0.004402269314094714,0.007750692221958327,0.0002401689998805523,0.00035355903673917044,-0.0008205955964513123
1729403425.8179495,2412,1729403425,815513344,base_link,0.002872683147315769,0.001785549819683168,0.010117723633474789,0.00021850736811757088,0.00044955557677894825,-0.0005770523566752673
1729403425.914851,2413,1729403425,912510528,base_link,0.0014572391522041806,0.0001802281601208559,0.01074745781045361,-0.00019728660117834806,-0.0013171888422220945,0.00017720278992783294
1729403426.0146906,2414,1729403426,12507456,base_link,0.0004423476548485297,-0.0013250745533695631,0.009933028463268188,0.00020860822405666113,6.541085895150894e-05,-0.0004075512115377933
1729403426.1176574,2415,1729403426,114508736,base_link,-0.00022525718144743482,-0.001696383889949131,0.009388645050022126,-0.0005464443238452077,-0.0005208556540310384,-0.0004933334421366452
1729403426.213253,2416,1729403426,209507456,base_link,-0.0018328984370970017,-0.0006381995410273967,0.010382523444726578,-0.0005951729835942388,9.17119905352374e-07,-0.0017840079963207245
1729403426.3150392,2417,1729403426,312507456,base_link,-0.003759807181045338,0.0006598372194009075,0.010063665667148594,-0.0005595581606030464,0.0008726009400561451,-0.0005551589420065285
1729403426.4148078,2418,1729403426,412507456,base_link,-0.002918927224676562,0.001667474728650576,0.009633981590859108,0.0006194805609993637,0.00014641485176980495,-2.4717599444556998e-05
1729403426.5155156,2419,1729403426,512508992,base_link,-0.0021488670160770924,0.004037093398844014,0.009919069977344262,0.0005335015594027936,0.0004212791100144385,-0.0010227058082818985
1729403426.6150718,2420,1729403426,612508736,base_link,-0.0011331987645485102,0.0040113677933461215,0.009431833227253592,-0.00023249362129718065,-0.0002427336294203997,-0.00029652199009433383
1729403426.7148168,2421,1729403426,712505920,base_link,-0.0008851095269959636,0.0035552117714395533,0.00895754326476777,-0.0005167191848158836,-0.0013235744554549458,-0.0014189002104103563
1729403426.814937,2422,1729403426,812506176,base_link,-0.00040973808968714675,0.004310101566093676,0.00801326628761415,-0.0005413331091403961,0.0002978498814627527,-0.0006687148124910891
1729403426.917575,2423,1729403426,915503616,base_link,0.0005707303998306889,0.004692770372841508,0.006836016654419656,-0.00017545593436807394,-0.0012834258377552032,0.00027996898279525356
1729403427.0149522,2424,1729403427,12503872,base_link,0.00036955277939015245,0.005208664888600387,0.005155559021494927,0.00024668744299560785,0.00038746988866478194,-0.0007213884964585304
1729403427.115039,2425,1729403427,112502848,base_link,0.0009559248918559463,0.00630609277621486,0.004695968728584256,-0.00046309037134051323,-4.57556452602149e-05,-0.0007731714867986739
1729403427.215075,2426,1729403427,212500032,base_link,0.001412285816557614,0.007871120521152686,0.0030608651455211085,-0.0001272845547646284,0.0007880427874624729,-6.885740731377164e-05
1729403427.313212,2427,1729403427,309497472,base_link,0.0008072844034189554,0.00974673036322671,0.0003269223680161167,0.0006937769940122962,-0.0006813101936131717,-0.0006000887951813637
1729403427.4163141,2428,1729403427,412497728,base_link,0.00033862878158550454,0.010983436068508745,-0.00027410105480270405,0.000505434931255877,-0.0001618426758795977,-0.00022140047803986815
1729403427.5147884,2429,1729403427,512498240,base_link,-0.0015981733314662492,0.011375251469605663,-0.002138635449755746,-0.00015056866686791182,-0.0007201349362730982,-0.0013851436087861657
1729403427.6128387,2430,1729403427,609498496,base_link,-0.0020742125907825086,0.013503538010760109,-0.002658018126058357,0.0002749442355707288,0.0011432849569246173,-0.00016016163863241686
1729403427.7152464,2431,1729403427,712495680,base_link,-0.0025805909720135268,0.014386353452702177,-0.0024654489786668865,-0.0003032214008271694,-6.229756399989139e-05,-0.0009274010662920773
1729403427.8150103,2432,1729403427,812493120,base_link,-0.003066802408135508,0.013520249451195955,-0.002497949255027678,-0.001276560709811747,-6.793695501983183e-05,-0.0013987754937261343
1729403427.9151592,2433,1729403427,912490560,base_link,-0.0029447370138372987,0.011896382298718271,-0.0030301433015857563,9.875523392111063e-05,-5.587073974311352e-05,1.85323297046125e-05
1729403428.0150185,2434,1729403428,12487744,base_link,-0.001952562469105095,0.010943051100680775,-0.00397202911321128,0.00018555507995188236,1.3033859431744384e-06,0.0006221170770004392
1729403428.1171815,2435,1729403428,112488000,base_link,-0.001967040097211364,0.009255624440677561,-0.0026254174231395747,0.0005517120007425547,-6.0031423345208276e-05,-0.0008600556757301092
1729403428.2174985,2436,1729403428,212485440,base_link,-0.0025246078013740057,0.008111630179700756,-0.00292507434778655,0.0004620196996256709,5.841581150889389e-05,-0.000631892413366586
1729403428.3153799,2437,1729403428,312483136,base_link,-0.0032428511056381095,0.0068319253564315474,-0.0035666363698270824,0.0013135845074430108,0.0013655178481712937,-0.0002608027716632934
1729403428.415183,2438,1729403428,412480832,base_link,-0.004342567501120329,0.006812748396258784,-0.004045031653242631,-0.0005016791401430964,0.000318467617034912,-0.0006930266390554607
1729403428.5148013,2439,1729403428,512478272,base_link,-0.0064032093703861636,0.00708774988896713,-0.003846521413227607,0.0007237874669954181,-0.0002832405734807253,0.0002189006190747023
1729403428.6138024,2440,1729403428,610475712,base_link,-0.005397222978854495,0.00713431229514467,-0.0034214394657841388,-0.0002639519516378641,-0.001025649718940258,-0.0008273365674540399
1729403428.7159963,2441,1729403428,712475456,base_link,-0.003326091385052134,0.006936963728694693,-0.0020920150162877117,0.0006216085166670382,-0.0014352104626595974,0.00046750094043090956
1729403428.8150518,2442,1729403428,812476224,base_link,-0.0003411105799568435,0.008704831386370775,-0.0013211236438978944,-0.00028610951267182827,0.0002935193479061126,-0.00040712783811613923
1729403428.9150794,2443,1729403428,912476992,base_link,0.0027661647490441537,0.010703212622174885,-0.0025885196005522013,0.0010775591945275664,-0.00017470680177211764,-0.00018483190797269342
1729403429.0151007,2444,1729403429,12474688,base_link,0.0037741304284555303,0.011184372761550376,-0.00426939619130615,0.0003985015209764242,-0.0004459142219275236,-0.00010838585876626888
1729403429.1151166,2445,1729403429,112472640,base_link,0.002992383375282015,0.01012096654883564,-0.005105152339208266,-7.974985055625439e-05,0.0011387821286916733,0.00021123452461324619
1729403429.2150712,2446,1729403429,212470336,base_link,0.0018594161090377404,0.010072079814121846,-0.0065486769561074465,0.0009137543383985758,0.0007082014344632624,-0.0010005093645304441
1729403429.315602,2447,1729403429,312468288,base_link,0.0010212709029792896,0.010554725181853082,-0.006916217627146106,-0.0002042008563876152,-0.0002177944406867028,-0.0007177493534982204
1729403429.415363,2448,1729403429,412465984,base_link,0.0012816692078974888,0.010095220638851269,-0.0075630119758172505,-0.00017999880947172642,-0.00040685734711587424,0.00025611920864321297
1729403429.5153568,2449,1729403429,512463936,base_link,2.4137942786196903e-05,0.009271053969540163,-0.009387359002989744,-0.0003742791013792157,0.0007110771257430315,-0.0003721065295394511
1729403429.616206,2450,1729403429,612464448,base_link,-0.0006123102948679834,0.009020579614518492,-0.01004623736529018,-0.0011455584317445755,-0.00044344319030642526,-0.0011133251246064901
1729403429.7122715,2451,1729403429,709465216,base_link,-0.0017960385961070528,0.009270325944712119,-0.009346768997733856,0.00021234690211713314,0.0001402392517775298,0.0007698466652072966
1729403429.8155901,2452,1729403429,812465728,base_link,-0.0024016169409763533,0.01002922106353122,-0.01045445471483967,-5.591916851699352e-05,9.31449467316268e-05,-0.0015181545168161392
1729403429.9154117,2453,1729403429,912466240,base_link,-0.003048874851963474,0.010983458777477523,-0.009938546781800551,0.000256143044680357,1.445645466446892e-06,0.0001268704072572291
1729403430.016061,2454,1729403430,12463936,base_link,-0.003023212986323682,0.013390979658406868,-0.011544759127474895,-0.0008322438225150108,-0.0006088062655180693,0.0003313241468276829
1729403430.118117,2455,1729403430,115461888,base_link,-0.0024212431309710894,0.015562481982432453,-0.01203987284518042,-0.0005025806603953242,-0.000689095351845026,-0.000343348569003865
1729403430.2154515,2456,1729403430,212459840,base_link,-0.0011376872171712277,0.01592382306498783,-0.012412265745779872,-0.00015604891814291477,0.0002654279815033077,-0.0008106905734166503
1729403430.3152924,2457,1729403430,312457792,base_link,0.00010615954912420692,0.0164859476972047,-0.011466190966054633,0.001199009595438838,0.0017454460030421615,-0.0007656920934095981
1729403430.4151173,2458,1729403430,412456000,base_link,0.0015165372197614689,0.015297756654751922,-0.011980923193508108,-0.00012015539687126875,0.00040427804924547683,0.0007865775260142982
1729403430.5152135,2459,1729403430,512454208,base_link,0.0026936070108700767,0.013247194193452964,-0.013866321549828045,0.0016570431180298328,0.00026584393344819535,-0.0008955822559073567
1729403430.6154125,2460,1729403430,612454976,base_link,0.0021461579343863726,0.013105459820431636,-0.01572665283562453,0.00011624046601355076,-0.0006699787918478253,-0.0013369560474529862
1729403430.7187226,2461,1729403430,715453184,base_link,0.00036879379605027975,0.012226822370883772,-0.017896441818554203,-0.00029498268850147724,-0.0002137499395757914,-0.00040166103281080723
1729403430.8144908,2462,1729403430,812453696,base_link,-0.0015478164245161686,0.012131653376290841,-0.018386095459265773,0.00039364455733448267,-6.0159945860505246e-05,-0.0011499279644340277
1729403430.9159813,2463,1729403430,912454464,base_link,-0.0033296324961387663,0.012434079552822705,-0.019275130726990296,6.211805157363415e-06,-0.0003899522125720979,-0.0009151477715931833
1729403431.0159044,2464,1729403431,12452672,base_link,-0.004379968833210369,0.01252580784956315,-0.01861629641361611,7.166527211666107e-05,-0.0013094849418848753,-0.0003487027133814989
1729403431.114802,2465,1729403431,112453696,base_link,-0.0047661657093243355,0.012710529075402852,-0.01742031153770367,-0.0006961981998756528,-0.0002599211875349284,-0.00032464612741023297
1729403431.2155614,2466,1729403431,212451904,base_link,-0.006020213616855433,0.01229198770431878,-0.016195989557758774,-0.000837398343719542,-8.332589641213422e-05,-0.0004788536170963198
1729403431.3127503,2467,1729403431,309450112,base_link,-0.006506389474159325,0.011504809730219202,-0.015128360235673474,-0.0006318493979051709,0.0013965703547000883,-0.0012244691606611016
1729403431.4155157,2468,1729403431,412448320,base_link,-0.0067563653907175905,0.012198361462308575,-0.01608234633022361,0.00012071302626281977,0.0008840422378852963,-1.3829951058141996e-05
1729403431.5126064,2469,1729403431,510449600,base_link,-0.006485582034668674,0.012530568306684744,-0.01759220510360939,0.0009628108236938715,0.0005312886787578464,-0.00037736687227152293
1729403431.614628,2470,1729403431,612447808,base_link,-0.006489856248057246,0.010783686486060836,-0.018851126913547008,0.0015114429406821728,0.00037237035576254135,0.0002827185962814837
1729403431.7145543,2471,1729403431,712448832,base_link,-0.006698789481556625,0.00959339172364921,-0.020158295818529997,-0.0007122947135940194,-0.000276154838502407,0.0005638449219986796
1729403431.814679,2472,1729403431,812450112,base_link,-0.005347027587290701,0.00954323424917134,-0.019332176448599667,-0.0011467121075838804,0.0011132718063890934,0.00015896382683422403
1729403431.9149647,2473,1729403431,912448320,base_link,-0.004701557658895699,0.0085627834924352,-0.020608396333723203,-2.9054353944957256e-05,-0.00023567839525640016,-0.0005318743642419577
1729403432.0152202,2474,1729403432,12449600,base_link,-0.0052286980607073215,0.009175848735906413,-0.02314650434962058,0.0005274253198876977,0.0005711689591407776,-0.00012629022239707418
1729403432.1148188,2475,1729403432,112448064,base_link,-0.0056370515960740735,0.008538891112404011,-0.025541131173299172,-0.0010189033346250653,-0.0006783122662454844,-0.00018438643019180737
1729403432.214627,2476,1729403432,212449344,base_link,-0.006982501972689341,0.006799416726489954,-0.0280372674784122,-0.00010188203305006027,-0.0006990479305386544,-0.0010331299854442477
1729403432.3144627,2477,1729403432,312446272,base_link,-0.008451823776464553,0.004036118042756278,-0.027453621147266637,-0.0003318946110084653,-0.0008523468859493734,-0.0009797613602131605
1729403432.4152439,2478,1729403432,412447552,base_link,-0.009575531231373351,0.0036000434750812736,-0.029374118540558204,0.0002756069879978895,-0.001048410777002573,-3.9154328987933567e-05
1729403432.5132248,2479,1729403432,510444480,base_link,-0.009606392235277435,0.003118976945440169,-0.0301478404126889,0.0005189226940274239,0.0003784486325457692,-0.00017162614676635718
1729403432.6150954,2480,1729403432,612444224,base_link,-0.008709873991417734,0.004125116444735847,-0.029473865066644567,0.0006824817974120378,0.00045292533468455065,-0.000988998101092875
1729403432.7153196,2481,1729403432,712441152,base_link,-0.007365358721327613,0.004624118284487169,-0.028422982702549757,2.7035712264478207e-05,0.0002461116528138516,-0.0016259333351626992
1729403432.8149786,2482,1729403432,812440128,base_link,-0.007363613024176796,0.004821021180048838,-0.02590268766116637,0.0002387587446719408,-0.0014544762670993805,0.000539179425686598
1729403432.9149015,2483,1729403432,912437056,base_link,-0.0069009307898026525,0.004561652464560661,-0.0235887899358817,-0.001444013323634863,0.00036084523890167475,0.0001513113384135067
1729403433.0146623,2484,1729403433,12434240,base_link,-0.00580324235107259,0.004851925481030061,-0.021260902118492832,0.00013509648852050304,0.0001247903564944862,-0.001176990452222526
1729403433.1150246,2485,1729403433,112435776,base_link,-0.004886696663853037,0.004271653770892604,-0.021477939574537776,-0.000706820166669786,-0.0005911432672291994,0.00018262494995724418
1729403433.2158766,2486,1729403433,210436032,base_link,-0.004529504960795452,0.00349049918760402,-0.020744815326046263,0.0003778188256546855,-7.375795394182215e-05,-0.0007259701378643513
1729403433.314357,2487,1729403433,312434752,base_link,-0.0052092026497759115,0.0025539212557754796,-0.020183090303726982,-6.11928990110755e-05,-0.00042189378291368474,0.0009724367409944534
1729403433.4153483,2488,1729403433,412431936,base_link,-0.005990807528475483,0.003083748135605019,-0.01960785960067999,-0.0003657082561403513,-9.508128277957438e-05,8.739640907151626e-05
1729403433.5150728,2489,1729403433,512429376,base_link,-0.005957755144367793,0.0031545969620213276,-0.018915623571384835,-0.000818176195025444,-0.00035057519562542444,-0.0004071233270224183
1729403433.6145647,2490,1729403433,612426816,base_link,-0.0066008816434881806,0.0032874034893455866,-0.017295219552473717,-0.0008548555197194219,0.0005662352778017521,-5.718829925172724e-07
1729403433.714454,2491,1729403433,712424256,base_link,-0.005794281687227048,0.0036676485043192126,-0.016738292902782843,-3.7990976125001907e-06,0.0003077795263379813,0.000303166831145063
1729403433.8194199,2492,1729403433,812424256,base_link,-0.00600988857305019,0.004453669759570407,-0.015344597872535582,-0.0012392544886097312,0.0003247784916311503,0.0006157200550660491
1729403433.9174895,2493,1729403433,915424768,base_link,-0.006224867253887687,0.005291614090142657,-0.014110896897301335,0.0006876486586406827,-0.000302109168842435,-0.000689476088155061
1729403434.0147438,2494,1729403434,12424256,base_link,-0.00778366677319095,0.00523324649566273,-0.014358864018927258,-6.078649312257767e-05,4.203128628432744e-05,-0.000569600728340447
1729403434.1151707,2495,1729403434,112423488,base_link,-0.010565130850215106,0.004785522300737868,-0.013099293323590779,0.00027595553547143936,-0.0011675462592393162,-0.0013231507036834953
1729403434.2149801,2496,1729403434,212423744,base_link,-0.011936499023129809,0.0036675144322867175,-0.01263315332630284,0.0004617184167727828,0.0009895252296701074,-0.0005338448099792005
1729403434.3130572,2497,1729403434,310421184,base_link,-0.01412460606034481,0.0021426379412834914,-0.011803004560006455,-0.0012482680613175035,-7.186224684119229e-05,-0.0003293716872576624
1729403434.4150248,2498,1729403434,412421184,base_link,-0.01498920207355068,0.0018746688044505209,-0.00962477679556487,0.000840317748952657,-0.00028481893241405487,0.00014608414494432512
1729403434.5149114,2499,1729403434,512418880,base_link,-0.015058689356472896,0.0010299326521265846,-0.007078445261627916,0.0006463343161158264,-0.00042160600423812855,0.0006812996580265462
1729403434.614846,2500,1729403434,612416576,base_link,-0.015863718047323318,-0.0019018645246490602,-0.004922020597417881,-0.0006358864484354854,0.0008961631683632733,0.000500737631227821
1729403434.715297,2501,1729403434,712414272,base_link,-0.016077159029490213,-0.004873362089241436,-0.004923369642500746,-0.0010024226503446698,-0.00043059932067990314,-0.0007316566770896316
1729403434.8151019,2502,1729403434,812411968,base_link,-0.016386709451203275,-0.007562805569895273,-0.0031400567999416537,-0.0005375028122216463,-0.0012044224422425032,-2.003274130402118e-05
1729403434.9150782,2503,1729403434,912409664,base_link,-0.017102890218340563,-0.011172889411625982,-0.001122909854123931,0.0005526459426619112,-0.0008249415550380946,-0.0010663812281563878
1729403435.0150602,2504,1729403435,12409920,base_link,-0.01693890454676304,-0.011568483882310417,0.0015320690220549545,-0.00022377795539796352,0.001102983020246029,0.0002323676162632181
1729403435.1150866,2505,1729403435,112407360,base_link,-0.01599174887754369,-0.010915178945764483,0.004154316829543504,-0.00023408629931509495,0.0012426727917045355,0.0007399840978905558
1729403435.2151246,2506,1729403435,212405056,base_link,-0.014761591865102588,-0.009937789429978432,0.00565208868003357,-4.614598583430052e-05,0.0005526927998289466,-0.000309074588585645
1729403435.318254,2507,1729403435,315405312,base_link,-0.01313765373918871,-0.010512982349986415,0.007141933912537213,-0.0005786006804555655,0.0015870872884988783,-0.0010479692136868837
1729403435.415214,2508,1729403435,412404544,base_link,-0.01102752559277919,-0.01130586490939409,0.008252709275539599,0.0007152403122745454,0.0002918723039329051,-0.0008333586738444865
1729403435.5152752,2509,1729403435,512405312,base_link,-0.009142235486830675,-0.012852802042694768,0.008531223061596933,0.0008020676323212683,-0.00011499784886837011,-0.00047542000538669527
1729403435.6153576,2510,1729403435,612403520,base_link,-0.007922095502049127,-0.01402552345775046,0.009982686570805038,0.0009528439259156585,0.000838323263451457,-0.00039128365460783254
1729403435.7148669,2511,1729403435,712401728,base_link,-0.007153418006897064,-0.015043142856425329,0.009829447656110355,0.0008646547794342041,-0.0006291805766522884,0.00012988469097763308
1729403435.8152323,2512,1729403435,812399936,base_link,-0.006374813695555105,-0.015240731376825759,0.009924636366551713,0.0006701502716168761,-1.1174008250236637e-05,-0.0010294539388269186
1729403435.915335,2513,1729403435,912401216,base_link,-0.006102823675091119,-0.016142735176730705,0.011543134296409348,-0.0008190632797777653,-0.0002835139166563749,0.000548963900655508
1729403436.0150027,2514,1729403436,12402240,base_link,-0.005643129581418535,-0.015568539009778256,0.010982962217288067,0.0006831778446212411,-0.00010766624473035323,0.001048171310685575
1729403436.1174972,2515,1729403436,114400448,base_link,-0.005138355500042857,-0.014195630797115496,0.009495634016466012,-0.0005429910961538553,-0.0005559322889894247,-0.0003430506330914795
1729403436.2157776,2516,1729403436,212401216,base_link,-0.0032208061434249105,-0.01356967918573713,0.009046983773050138,0.000307083479128778,-0.0006623486988246441,-0.00034719536779448385
1729403436.3120537,2517,1729403436,309399680,base_link,-0.001226042255193483,-0.012576912920294215,0.008196235249779131,0.0008310324046760798,-0.0012657714542001486,-0.000492826395202428
1729403436.4155197,2518,1729403436,412400448,base_link,-0.00027026980582158173,-0.010927959331801672,0.007529976845403938,-0.00020499725360423326,0.0011197841959074137,-0.0014893042389303448
1729403436.5151968,2519,1729403436,512401472,base_link,0.001213262591564637,-0.007988399126820535,0.007318635102389953,-0.00016480078920722008,-9.502307511866097e-05,-0.00031617574859410524
1729403436.6153266,2520,1729403436,612402496,base_link,0.0028363229096575594,-0.005661949149177714,0.007179466717623159,-0.000215312116779387,-0.0006428279448300599,0.0006798758986406029
1729403436.7145073,2521,1729403436,712400704,base_link,0.0029675018551068733,-0.004315893490266564,0.006829837449907916,-0.0007630782201886177,-3.692344762384882e-05,0.000779072055593133
1729403436.8154087,2522,1729403436,812401728,base_link,0.0036171872738673633,-0.003647200267565024,0.005212454573507698,-0.00040683604311197996,0.0007306280313059689,0.0005036969087086617
1729403436.9152749,2523,1729403436,912402752,base_link,0.003976251600472742,-0.002873609091789524,0.004303221974284453,0.00036408763844519854,0.00023641635198146105,0.00010379901505075392
1729403437.0154479,2524,1729403437,12400960,base_link,0.004432169061567336,-0.0012477384096425499,0.004679262120672459,0.0005578607670031488,-0.0005144698079675436,-0.0003979703760705888
1729403437.1156495,2525,1729403437,112401472,base_link,0.004398296821565048,0.0003483658046023493,0.005659962986921901,0.00010718067642301321,-0.0004841827321797608,0.0007801763131283225
1729403437.2155502,2526,1729403437,212402496,base_link,0.004944651321694089,0.0016921770711908104,0.006979637807715789,0.0007393852574750781,0.00020909961313009246,-0.0012409131741151214
1729403437.315888,2527,1729403437,312400960,base_link,0.005475969177779441,0.0033820471509448556,0.008181972681715891,0.0004039230407215655,-0.00012974301353096962,-7.312744855880736e-05
1729403437.4142447,2528,1729403437,412402240,base_link,0.0052219677079634345,0.003261215341264231,0.009062672150125227,0.0003567944513633847,-0.00031356862746179093,0.0006846763426437974
1729403437.5152323,2529,1729403437,512403264,base_link,0.00498519648943458,0.002787609687359719,0.008625319215218629,0.0005016640643589199,-0.0006514007691293954,0.0008867625729180874
1729403437.6156042,2530,1729403437,612404544,base_link,0.0039059768907859396,0.0024472407857609774,0.008380343664773533,0.0010285486932843924,0.00014423718675971034,0.0001604103890713304
1729403437.712717,2531,1729403437,709403008,base_link,0.0031872315966502826,0.0026049736204400223,0.009796193174151053,-0.0005179777508601546,3.630365245044235e-05,0.0002569770731497556
1729403437.815718,2532,1729403437,812403776,base_link,0.002787861853435646,0.0035745816870076308,0.009919307311715508,-0.0004956728080287576,-0.001032344298437238,-0.0009240388753823935
1729403437.9154365,2533,1729403437,912405056,base_link,0.0031489308224178017,0.004453666189755906,0.010866338695816413,0.0004954427713528275,0.00026802578940987576,-0.0009465006878599524
1729403438.015945,2534,1729403438,12406080,base_link,0.003924084104110824,0.006107325513767953,0.011195862141818787,0.0006571285193786025,0.00011513615027070041,-0.000345009146258235
1729403438.1142168,2535,1729403438,112402752,base_link,0.003808753729325523,0.007327248064951579,0.011293882830406622,-0.00062166852876544,0.0005031431792303919,-0.0008861448732204736
1729403438.2164814,2536,1729403438,212404032,base_link,0.0020267336191203246,0.008447480285971212,0.011375980535430586,-8.187093771994114e-05,0.000667757005430758,-0.0003750772448256613
1729403438.314743,2537,1729403438,312405568,base_link,0.0002322479627985214,0.009399568026388548,0.011214324053009527,-0.0014490982284769416,-0.000520292203873396,-0.0006342651322484015
1729403438.4155006,2538,1729403438,412404288,base_link,-0.0004221075545105686,0.009482142377438925,0.011092797978310698,0.0005350021529011428,0.0001496501499786972,-0.0008673173724673688
1729403438.514415,2539,1729403438,512405568,base_link,-0.0006377261526016234,0.00996874875662465,0.010662275617269885,0.0008405093685723841,0.0003211937146261335,0.0004698041884694248
1729403438.6146207,2540,1729403438,612406592,base_link,7.500923081279855e-05,0.011070516944230883,0.011810713493382679,0.0003650105791166425,0.0005060184048488735,-0.0005912749329581858
1729403438.7127798,2541,1729403438,710405056,base_link,0.000546688768253558,0.012003709466883616,0.014198554302511636,-2.006138674914837e-05,0.0010072238510474563,0.00034172856248915185
1729403438.8148506,2542,1729403438,812404800,base_link,0.002602699008460869,0.011138783152429181,0.016162107678132635,-0.00042001588735729456,0.00015307788271456951,-0.00039442465640604496
1729403438.9144907,2543,1729403438,912404800,base_link,0.004086928151578091,0.010612260583231331,0.01649302100311485,0.0001365195494145155,-0.0006005861796438694,-0.00013930340355727813
1729403439.0145333,2544,1729403439,12404800,base_link,0.006465722621214637,0.009964294009199135,0.0169332366705167,0.0004038846818730235,-0.0002679696772247554,-0.0006855334504507482
1729403439.1129532,2545,1729403439,110403520,base_link,0.007621351579036694,0.009935738778602049,0.01852032934945393,0.0005214223056100309,0.00012643658556044102,8.951418567448853e-05
1729403439.2147925,2546,1729403439,212403264,base_link,0.00839672761340892,0.010453765675883103,0.01925305113639123,0.000719960720743984,-0.0007804727647453548,-0.0006495732231996952
1729403439.3154628,2547,1729403439,312403520,base_link,0.007859711797566223,0.011607684755898294,0.020022845655137976,-0.00016625027637928724,-0.0004756469279527663,0.0010700821876525879
1729403439.4147978,2548,1729403439,412405056,base_link,0.009492780690229857,0.012006309403487432,0.020814779676672557,-0.0005348004633560777,-0.0007329406216740607,0.0005765451933257283
1729403439.5178955,2549,1729403439,515402240,base_link,0.009829246752397767,0.012572457387598086,0.021335514303611365,0.00028100411873310804,0.0011931631015613675,-0.00027233146829530613
1729403439.6165438,2550,1729403439,612402240,base_link,0.009903117548117216,0.011315755986288749,0.020926017449113345,0.0019942731596529484,0.00016839441377669565,-0.0005994032835587859
1729403439.7146153,2551,1729403439,712402240,base_link,0.009701985606985925,0.00943016281654446,0.02323115641450796,0.00038997933734208345,-0.002066102810204029,-0.00014036423817742592
1729403439.8147166,2552,1729403439,812401984,base_link,0.01012824421684235,0.009253923543094303,0.025288529469236473,0.00020596920512616634,7.02647957950831e-05,0.00042938912520185113
1729403439.914764,2553,1729403439,912402240,base_link,0.010488507362786663,0.008351931458789067,0.02545058682340847,0.0004195586661808193,0.0008973833173513414,0.0004982789396308361
1729403440.014689,2554,1729403440,12402496,base_link,0.012729005615999638,0.008708395021739137,0.02658134187099975,0.0013487966498360038,-0.0009712278842926028,-0.0017109462060034273
1729403440.1144738,2555,1729403440,112404288,base_link,0.014239047196966673,0.010037049306188721,0.028107735851124332,-0.0004416853189468384,-0.0007914982270449401,-0.001210794667713344
1729403440.212814,2556,1729403440,209404544,base_link,0.016784380835283556,0.011162083299233204,0.030009283625400538,-0.0002955751260742545,-0.0011320011690258982,-0.0014390650903806088
1729403440.3129635,2557,1729403440,310405056,base_link,0.018305095256454955,0.013162099079009447,0.03082361371448503,-0.00017645815387368202,0.0002776770852506161,-7.66752782510594e-05
1729403440.4147553,2558,1729403440,412403520,base_link,0.020010811103696464,0.013837130852416887,0.030401276161847936,-0.0005488714668899775,-0.00011845352128148075,0.0003082837210968137
1729403440.515015,2559,1729403440,512401984,base_link,0.021742698193638468,0.013226237276011119,0.02968771513329288,0.0003863134188577533,-0.0006565519142895938,-0.0012776924995705485
1729403440.6178603,2560,1729403440,614400704,base_link,0.02290643018858237,0.013310853922474842,0.029292918937852862,-0.0005549954948946834,0.0015091535169631243,-0.00035917403874918835
1729403440.7149549,2561,1729403440,712399168,base_link,0.023690157467825077,0.013051020028203712,0.02903915155589566,-0.0013076666509732604,2.89331655949355e-05,0.0006582954665645957
1729403440.8129146,2562,1729403440,810397888,base_link,0.02410607136870082,0.01425393475793538,0.029579077086674056,-0.0005265851505100727,-0.0007243400905281305,-0.0001656447129789739
1729403440.9150052,2563,1729403440,912396608,base_link,0.025590740790873773,0.014996235520667318,0.029734564341993786,0.001429371302947402,-0.0006133704446256162,-0.0005997983389534055
1729403441.0148127,2564,1729403441,12395328,base_link,0.024125742802991304,0.015003727653429406,0.028400323298394783,-0.0006183842197060585,0.0006344181019812821,-0.0008030071039684118
1729403441.1148427,2565,1729403441,112395584,base_link,0.02207234949966426,0.014860346956420899,0.027444280747865295,-0.0005383703391999006,-0.00012433785013854504,-0.00010989645670633762
1729403441.2147548,2566,1729403441,212394560,base_link,0.020412492837134057,0.013809692093083147,0.02606266570410487,-0.00032279815059155226,-6.200885400176046e-05,0.00020629270875360817
1729403441.3148425,2567,1729403441,312393280,base_link,0.018897994436564144,0.013873542540739199,0.02370364952793565,-0.0008789179846644402,9.578769095242021e-05,-0.00022681622067466378
1729403441.4149704,2568,1729403441,412392000,base_link,0.017282015524903566,0.013417440360849447,0.022212182888783318,0.00042606022907420993,-0.00048471265472471714,-0.0001184464781545102
1729403441.5157654,2569,1729403441,512392512,base_link,0.01698049640066081,0.011781847629302178,0.022262642665940812,0.000550122931599617,0.0009439910063520073,-0.0005516799283213915
1729403441.615484,2570,1729403441,612390976,base_link,0.018091135521738022,0.011564605125021537,0.021386187860043565,-0.00020422181114554405,0.0011055372888222335,-0.0009891465306282046
1729403441.7152946,2571,1729403441,712389696,base_link,0.01940410962627658,0.010516493248759388,0.020619124149325804,0.0012989386450499296,0.0015303847612813115,0.000468602927867323
1729403441.815106,2572,1729403441,812388416,base_link,0.01910890457019593,0.009154926302548223,0.02013254076010516,0.0003641108050942421,0.0001387357478961348,-0.00046050018863752484
1729403441.9153156,2573,1729403441,912387136,base_link,0.018353764799911774,0.008411955994715522,0.020660039254480223,0.0006855640676803887,-1.9686063751578395e-05,-0.0005364284152165055
1729403442.0153244,2574,1729403442,12386112,base_link,0.01665426291594072,0.006346774208981639,0.019837389591063896,3.446242772042751e-05,-0.00035835523158311844,-0.00014065249706618482
1729403442.1150742,2575,1729403442,112385088,base_link,0.01568107901800935,0.004959261161875453,0.01868232201902179,0.000947461579926312,-8.776038885116572e-05,0.0004949810681864619
1729403442.216383,2576,1729403442,212384064,base_link,0.014148170820121738,0.0034276611906334143,0.019080877132121754,0.00021767406724393368,-0.0003584218211472035,-0.00027900189161300654
1729403442.315177,2577,1729403442,312383040,base_link,0.011256605661513867,0.0021064322024090033,0.019562915171304728,-0.0006378046236932278,6.934534758329382e-05,-0.0007252070354297757
1729403442.4149497,2578,1729403442,412382272,base_link,0.00890044295826674,0.000779209745519732,0.01874028932192566,0.00033454864751547575,0.0007779407314956187,-0.0009369237814098598
1729403442.512042,2579,1729403442,509381248,base_link,0.007551030046872188,0.0002581623684751281,0.019006501343573092,0.00017045345157384872,0.0012738557998090982,-0.0004828531527891757
1729403442.6156094,2580,1729403442,612380224,base_link,0.0062705399192491,-0.000869022005585059,0.01966608236040049,0.00023372052237391472,-0.0007051590364426376,-0.001261865720152855
1729403442.715531,2581,1729403442,712379456,base_link,0.005466865113368099,-0.0009954417256076466,0.019521805767119853,-0.001045883633196354,1.6942387446761155e-05,0.0002032045304076746
1729403442.8161983,2582,1729403442,812378688,base_link,0.003972065731996003,-0.0021528107337489754,0.018436355167617612,-0.0007178864907473326,-0.0002121611032634975,-0.0010609794408082962
1729403442.9149287,2583,1729403442,912377920,base_link,0.0020626787087328472,-0.0034453859883909563,0.018416182571910484,-0.0005170224467292428,5.787424743175501e-05,-0.0004401076876092702
1729403443.015737,2584,1729403443,12376896,base_link,0.0009193120007272138,-0.003292563453616959,0.016114798501415194,0.0002348001580685377,-0.0007912833243608475,-9.305989078711709e-05
1729403443.1150408,2585,1729403443,112376384,base_link,5.56178794667265e-05,-0.002540745978881142,0.015247500117883414,0.0004604191635735333,-0.00027221930213272577,-0.0005129959317855537
1729403443.215793,2586,1729403443,212375872,base_link,-0.0005804647669202091,-0.0013900327786357837,0.01475673322819441,-5.086464807391167e-05,-0.0011444955598562956,-0.0002828208380378781
1729403443.3170614,2587,1729403443,314375616,base_link,-0.0008186236940348366,-0.0005638419855364953,0.014569674605939702,0.00037899601738899946,-0.0002125571481883527,-0.0009103758493438363
1729403443.4151022,2588,1729403443,412374592,base_link,-0.001056202828037004,-0.0005378779268127012,0.015201355075865952,-0.00014459388330578804,0.0011174606624990702,0.0007161628454923629
1729403443.5150785,2589,1729403443,512374080,base_link,-0.0014163386719952243,-0.0003916671600193491,0.015956383951866816,-0.0005360826617106795,-0.000516798347234726,0.0002720276534091682
1729403443.6168573,2590,1729403443,612373824,base_link,-0.0012966621498236765,0.0017383247941265849,0.016940161772277244,0.0003614696906879544,-0.0012265390250831842,-0.00048189976951107367
1729403443.7154975,2591,1729403443,712373312,base_link,-0.0020885571712392107,0.0039556709076616365,0.01786058916851288,-0.000337491394020617,-0.00039310543797910213,-9.332157787866843e-06
1729403443.8174188,2592,1729403443,814371776,base_link,-0.004019592269173915,0.005179733821475791,0.015841377643755643,0.0007342437165789306,-0.00025445409119129186,-0.0004954328760504723
1729403443.915435,2593,1729403443,912371520,base_link,-0.006863458113351692,0.0057083470588497965,0.014118944018950476,-2.711720298975706e-05,-0.0005699046887457371,-1.546068233437829e-05
1729403444.0153596,2594,1729403444,12371264,base_link,-0.009833465365392197,0.0064644808277742796,0.011246951466975342,-0.000555763952434063,-0.001392499078065157,-0.00019850897660944595
1729403444.1153598,2595,1729403444,112370496,base_link,-0.012172613100420643,0.005871857116685471,0.00883493407385037,-0.0004485384561121464,0.00034637970384210354,0.0002377563941990956
1729403444.214996,2596,1729403444,212369984,base_link,-0.015002989479740256,0.005456838148038363,0.006394058079917525,0.00037569599226117134,-0.0004924670793116094,-0.001120761502534151
1729403444.3143003,2597,1729403444,312369472,base_link,-0.017894222942838635,0.004481464925923527,0.0044821229946938115,-0.0007186834700405598,-0.00035147159360349184,-0.00023624974710401142
1729403444.415569,2598,1729403444,412368960,base_link,-0.01959559080970521,0.002636967869846976,0.0035704050997120164,-0.0002060839906334877,-0.0002874804195016622,0.0004627679008990527
1729403444.5154831,2599,1729403444,512368704,base_link,-0.020836933078515994,0.0008305320236941581,0.0030352488729854083,-0.001141241635195911,-9.943032637238604e-06,-0.0008241462637670338
1729403444.6144767,2600,1729403444,612368704,base_link,-0.02272002519400378,0.0006090521338393923,0.0019848545117537855,-0.0003893713001161814,-0.0006675757467746735,-0.0004038145998492836
1729403444.715603,2601,1729403444,712368704,base_link,-0.023827941310440207,0.0020485222277528614,0.0007782710133726486,-0.0007941480726003647,-0.0008280728943645955,-0.00047879223711788643
1729403444.8158681,2602,1729403444,812368448,base_link,-0.02530262887563782,0.0021106618405495377,-0.0024578188869476877,0.0005467893206514418,-0.00017520342953503135,-0.00027797260554507375
1729403444.9141407,2603,1729403444,912368192,base_link,-0.025635934323317917,0.002331484972659794,-0.006606837779983782,-0.0010913442820310593,0.0006853189552202821,-0.000337145058438182
1729403445.012141,2604,1729403445,10367936,base_link,-0.02677089535421799,0.002845266853886549,-0.009603784246318884,-0.00040739448741078377,-0.0002647449728101493,-0.0007093783933669329
1729403445.1143496,2605,1729403445,112367680,base_link,-0.028808620229559007,0.002970984260024324,-0.009264026598531587,-0.00021421222481876612,0.0007291114889085292,-0.000979396398179233
