Time,header.seq,header.stamp.secs,header.stamp.nsecs,header.frame_id,twist.linear.x,twist.linear.y,twist.linear.z,twist.angular.x,twist.angular.y,twist.angular.z
1729403412.220574,2309,1729403412,137574592,base_link,0.008726723132869757,0.026707569310100043,-0.004046247111290917,-0.0012175767915323377,-0.0009957168949767947,0.00029765762155875574
1729403412.245954,2310,1729403412,236569216,base_link,0.007685518919417259,0.02721492939137763,-0.003803255413755842,-0.00015192989667411894,-3.515863500069825e-05,0.0001732184027787298
1729403412.3342352,2311,1729403412,332563840,base_link,0.008833181324098232,0.02902638083577824,-0.0034115583563807403,0.0015585606452077627,-0.00043719937093555927,-5.5175136367324685e-05
1729403412.439072,2312,1729403412,437559232,base_link,0.01002021906161426,0.030359381134661845,-0.0035363587999878683,-0.00023084209533408284,0.0010704479645937681,0.00038699444849044074
1729403412.5367384,2313,1729403412,534556416,base_link,0.009728884724306545,0.028321374429549465,-0.0017416273592583734,0.0016791997477412224,0.000249216245720163,-0.00019685173174366358
1729403412.636097,2314,1729403412,634551040,base_link,0.00972935583678259,0.026021663954083073,-0.00046782341257602827,9.71405825112015e-05,0.0010255915112793446,0.00016060781490523355
1729403412.7361119,2315,1729403412,734546688,base_link,0.00900037592731293,0.024306780404865013,-0.00014389280863870576,-0.0004894948797300458,0.0007469163974747062,-6.351046613417575e-05
1729403412.8395164,2316,1729403412,837543616,base_link,0.007812029964710154,0.02262261408623446,0.0002499644288107587,-0.0001476399484090507,0.0009279147488996385,-0.0004702062869910152
1729403412.9364798,2317,1729403412,934539520,base_link,0.00680761000844011,0.02103937290233152,0.000364761297287154,0.0005732076824642718,0.00038673155358992506,-0.0007249063928611577
1729403413.0394075,2318,1729403413,36531584,base_link,0.0061378323862194,0.020029969835045156,-0.0006282848261135574,-0.0010205056751146913,0.0012542416807264087,-0.00108106154948473
1729403413.1410947,2319,1729403413,136526464,base_link,0.0033404770170935845,0.01981749750228069,-0.002477763713530222,-0.0007667628233321011,0.0008970739436335862,0.0002818636130541562
1729403413.2405357,2320,1729403413,237524160,base_link,0.0021527966430051055,0.020089905808035352,-0.002688746795060754,0.00027348549338057637,-0.0006618240149691701,-9.553309064358465e-05
1729403413.340649,2321,1729403413,336519040,base_link,0.00047158720744611425,0.020839449219346017,-0.003641198106641078,-0.0007648389437235892,0.0006277337670326232,-0.0012237251503393054
1729403413.4372742,2322,1729403413,434516480,base_link,-0.0007380395533854557,0.02152378968214169,-0.006612696281054124,-2.5278699467889965e-05,0.00021433965594042093,6.147478416096393e-06
1729403413.5370398,2323,1729403413,534511360,base_link,-0.002777579403569172,0.022115784254429706,-0.008748470198114807,0.0006056392448954284,0.00036884803557768475,0.0009847022593021393
1729403413.6341243,2324,1729403413,632506752,base_link,-0.003999060596534462,0.022042396520032377,-0.010945835592651876,0.00033318670466542244,0.0007691441569477321,0.0007975405897013842
1729403413.7400682,2325,1729403413,737503424,base_link,-0.004619950310294426,0.021801998681640337,-0.010694246353612906,-0.0008226534118875861,-0.00048580419388599683,0.0009284231928177179
1729403413.840153,2326,1729403413,837499840,base_link,-0.00452984744004346,0.020770103317280464,-0.007844012702446149,0.0002317122562089935,3.470852971076972e-05,0.0005599995492957532
1729403413.9368217,2327,1729403413,934496512,base_link,-0.004543502992869207,0.017638071337274772,-0.002345535313009504,0.0006881221779622138,-0.0002659983583725989,-8.49707284942269e-05
1729403414.041011,2328,1729403414,37492928,base_link,-0.004488607338703439,0.013710546601627103,0.002567092302672855,3.1633651815354824e-05,0.00028595438925549377,-0.0009140205220319331
1729403414.1407762,2329,1729403414,137489088,base_link,-0.004539567659631417,0.011624039995506256,0.007102391634598686,-0.00046888229553587735,0.00026849814457818866,-7.766608905512842e-05
1729403414.2401555,2330,1729403414,237485760,base_link,-0.0051078179444999285,0.00966987714491569,0.011589358155199314,-0.001184744294732809,-0.00033478118712082494,0.0010094953468069434
1729403414.3366964,2331,1729403414,334482176,base_link,-0.003956359882708638,0.009190699631870726,0.014349151470441376,0.00020525629224721342,0.00029181397985666985,-0.0002709557302296162
1729403414.4406028,2332,1729403414,437478848,base_link,-0.004238322726733477,0.0082369540668644,0.01692777810926571,0.0004019404877908528,-0.00038974225753918296,-0.0004226773744449019
1729403414.540437,2333,1729403414,537475776,base_link,-0.0030118413190314344,0.00891087114952195,0.017567009409069457,-0.0004149886080995202,-0.0004124654224142431,0.0007096991175785661
1729403414.639094,2334,1729403414,636472704,base_link,-0.002139946825305471,0.008944077289357652,0.016173319013373225,0.0009068181971088052,0.0007933009765110911,0.0008195923874154686
1729403414.7370844,2335,1729403414,734468608,base_link,-0.0021680595984158307,0.008879292037652463,0.017602390577561487,-0.0007828973466530442,0.0006355506484396756,0.000306974776322022
1729403414.836892,2336,1729403414,834464512,base_link,-0.003344626002050761,0.009405684661598513,0.017578956925626367,-0.0009444222669117153,-0.0003883078170474618,0.00042146869236603385
1729403414.9373212,2337,1729403414,934463232,base_link,-0.0041395160187610875,0.010456962880289598,0.018680526427858373,-0.00023786335077602416,0.0007745213806629182,0.0009861523285508156
1729403415.0391989,2338,1729403415,36458880,base_link,-0.005365385450506565,0.011530560860205765,0.020734315382324245,0.00018093865946866572,0.0012952197575941682,0.00038457184564322217
1729403415.1408777,2339,1729403415,136454784,base_link,-0.005033112035111568,0.009986249091483091,0.024994421075095308,0.0009445428149774671,-0.00017045853019226342,1.20147888083013e-06
1729403415.2364388,2340,1729403415,234453504,base_link,-0.0037635068847209708,0.008745880033085183,0.0279458866643692,0.0002206246426794678,0.0004211649938952178,0.00020098326785955573
1729403415.3392613,2341,1729403415,337449408,base_link,-0.003133035077159106,0.008272627033905546,0.028939370419620757,0.0007140840752981603,0.00015385939332190885,-0.001242165919393301
1729403415.439155,2342,1729403415,436445568,base_link,-0.0020648369493594383,0.0069553212276681755,0.029530900935674457,0.0006708895089104772,0.0011334790615364907,-0.0010324481409043076
1729403415.5391855,2343,1729403415,537442752,base_link,-0.0014483829592589,0.005249355175047854,0.03144524863509917,0.0020044187549501657,-0.0009402535506524145,0.0008430519956164063
1729403415.6372435,2344,1729403415,634437376,base_link,-0.0015924402785388147,0.003996995155096177,0.030143651470981737,-0.0001965556584764272,0.00021937376004643738,-8.290298865177006e-07
1729403415.7373638,2345,1729403415,734432256,base_link,-0.003427829310969189,0.004338557593462853,0.027314534682141216,0.0008214782574214041,9.831693023443217e-05,-0.00039166666101664305
1729403415.8395123,2346,1729403415,837427904,base_link,-0.004257185662430652,0.004664621311588298,0.025685656595775316,-0.0007192419725470245,-0.00020024461264256372,0.0014146349858492613
1729403415.93811,2347,1729403415,934423296,base_link,-0.005040872222093169,0.004618884405609244,0.026030581634675296,0.0007291497313417494,0.00032771890982985497,0.00017836398910731074
1729403416.0377905,2348,1729403416,34417920,base_link,-0.005461246452958418,0.0038455449086665797,0.025475902889080977,0.002424173755571246,-0.0005578264244832098,2.7344023692421683e-05
1729403416.1375413,2349,1729403416,134413824,base_link,-0.00637186604618201,0.0022254509391548454,0.02359392884834763,9.57822339842096e-05,0.00028812064556404954,0.0003012069500982761
1729403416.237684,2350,1729403416,234413824,base_link,-0.006191413574011286,0.002004777809948813,0.021521729775385155,5.263898492557928e-05,-0.00027107537607662374,0.0005842047394253314
1729403416.3384902,2351,1729403416,335409728,base_link,-0.004779334402933166,0.0019717690253948043,0.019630135628105262,-0.00012678677740041167,0.0004484841774683447,0.0007996378699317573
1729403416.4382508,2352,1729403416,435405888,base_link,-0.0034886268315114525,0.0013514849540691614,0.018519412722335343,-0.00037164916284382343,0.00030268169939517975,-9.623828373150904e-05
1729403416.537858,2353,1729403416,534401024,base_link,-0.003918489319389406,0.004117300429578001,0.016198493846469635,9.044332546181977e-05,-0.0004398573655635118,0.0005919008399359882
1729403416.6400878,2354,1729403416,636397440,base_link,-0.00412422667587488,0.006322745754934876,0.011754413704949831,-0.00012715757475234568,-1.919042915687897e-05,-5.079824404674582e-05
1729403416.737052,2355,1729403416,734394112,base_link,-0.004340653436242557,0.009799158059157645,0.009725254046928148,-0.00019792304374277592,-0.000344293046509847,0.0002736508613452316
1729403416.839385,2356,1729403416,836390016,base_link,-0.004690668786142061,0.011505629485626424,0.007978803623067465,-0.00022355715918820351,-0.00036092006484977896,0.000447567756054923
1729403416.9372396,2357,1729403416,934385152,base_link,-0.004821524784477689,0.011992747277898914,0.006055286638852683,-0.0008185468032024801,-0.00024887415929697443,0.0010476908646523952
1729403417.039362,2358,1729403417,36377216,base_link,-0.004295236036042029,0.012449573535958516,0.004901468751726842,0.0011628610081970692,-0.00015544108464382586,0.0002975615207105875
1729403417.1394238,2359,1729403417,136372608,base_link,-0.003434900947436016,0.011723028788982098,0.002142761170788424,-7.55818618927151e-05,0.001265346771106124,-0.00031361472792923467
1729403417.240157,2360,1729403417,236368000,base_link,-0.003419421789115468,0.012323232391506797,0.000986636198485948,-0.0007273444789461792,0.00010620715329423555,0.0006263387040235102
1729403417.3421316,2361,1729403417,340361856,base_link,-0.00415202525468253,0.011722641153155869,-0.00010573830508274387,0.0005882208934053779,-0.00011892523616552349,0.00036748789716511965
1729403417.439067,2362,1729403417,437358272,base_link,-0.0046900626668777215,0.010318635900741401,-0.00036794358352663524,-0.0002046585432253778,2.83580811810677e-05,-0.0022467034868896008
1729403417.5390515,2363,1729403417,537353920,base_link,-0.005291009441818966,0.009364716735736885,-0.0007157549578597157,-0.000500932103022933,-0.00034844694891944533,-0.0004761781892739236
1729403417.6387947,2364,1729403417,637349056,base_link,-0.004209126264407576,0.008657911490521161,-0.0021146828077645724,0.001990122254937887,-0.0005570088396780193,0.0002678676100913436
1729403417.7418332,2365,1729403417,740345728,base_link,-0.0026848961150895186,0.005867297542029722,-0.0024722582916672058,0.0002931408816948533,0.0009061006712727249,0.0003163955989293753
1729403417.8387074,2366,1729403417,837342400,base_link,-0.0020900849149823467,0.004379304311182817,-0.002463514700514127,0.00029411911964416504,-0.0006467342609539628,2.4208566173911173e-05
1729403417.9418812,2367,1729403417,940339328,base_link,-0.0009437312278247866,0.003817611889855141,-0.0021150671747522153,0.00046197837218642235,0.00014655443374067545,-5.26959775015712e-05
1729403418.0423775,2368,1729403418,39331392,base_link,-0.0004497948149439761,0.004025152544764436,-0.000636612451288041,0.0002208682126365602,-0.000417923438362777,0.0015577947488054633
1729403418.1393783,2369,1729403418,137327040,base_link,0.0009563862571345563,0.004723236377594973,0.0007702435940476317,-0.00021452335931826383,0.00022234269999898957,-0.0010222455020993948
1729403418.2437577,2370,1729403418,239322688,base_link,0.0032513260680818927,0.005530516266078368,0.0018737098478212796,7.221584382932633e-06,-2.075137672363764e-05,0.001355677843093872
1729403418.3396592,2371,1729403418,337318336,base_link,0.004888871614112779,0.005675811179162406,0.0015228255040218327,0.00010862487397389486,0.00024286325788125407,0.0008315563900396228
1729403418.4425516,2372,1729403418,440312704,base_link,0.006012438801249298,0.005378867038299118,0.001564661781426228,0.0001855925511335954,-0.00043780813575722266,0.0008887224248610437
1729403418.5396764,2373,1729403418,537305792,base_link,0.005579467413908283,0.005228184595713933,0.0027371813945174244,0.0007183656562119722,-0.00018230837304145084,0.0011225194903090596
1729403418.6395943,2374,1729403418,637303232,base_link,0.005140926331901451,0.004617777299944236,0.00501863204450726,0.0001075875261449255,0.00045539028360508393,0.0007461195345968007
1729403418.7418404,2375,1729403418,740298880,base_link,0.004930433320705355,0.004472703398934517,0.0054716979500772775,0.0009209067793563008,-0.00028904693317599584,0.0007191742770373821
1729403418.8430784,2376,1729403418,840294528,base_link,0.0038442618588435122,0.003996620350947423,0.006575089554230943,0.000751256535295397,0.0012548043159767985,0.0006989422254264354
1729403418.942244,2377,1729403418,939290176,base_link,0.0034929473340993937,0.0051094410380166586,0.0065694060979703435,-0.0003247074200771749,-0.0007311507361009717,0.0002978820702992381
1729403419.0397387,2378,1729403419,37286080,base_link,0.0033416723973142292,0.006339276010901375,0.005936526669710283,0.0007847617380321026,-0.0006851929938420651,0.0017138750990852714
1729403419.143119,2379,1729403419,140283264,base_link,0.004158692262015062,0.008044566754852052,0.00661982729078788,0.0009012960363179445,-0.00019301738939248015,0.0009009154164232314
1729403419.239554,2380,1729403419,237280960,base_link,0.005454012913622255,0.009273730146069963,0.007724815985896095,-0.0003740478423424065,-0.00025353999808430677,-0.0006100296159274876
1729403419.3397505,2381,1729403419,337275584,base_link,0.005551354846031687,0.009844494295236365,0.009410096489925765,-0.0012432578951120377,0.00043826812179759156,0.0010971288429573178
1729403419.4417148,2382,1729403419,440273280,base_link,0.005500750492473984,0.01047055188241465,0.0114712400450083,-0.000748129328712821,-3.066078716074116e-05,3.341079718666152e-05
1729403419.539828,2383,1729403419,537269184,base_link,0.004449478847622372,0.010678837195528599,0.01294394418677537,0.001289507606998086,-0.00036670643021352584,0.0005709597608074546
1729403419.639863,2384,1729403419,637264832,base_link,0.004286378173940812,0.010689364347859205,0.012961789943961877,0.00021703321544919163,-0.00022037257440388197,0.00037858120049349964
1729403419.7390587,2385,1729403419,737260736,base_link,0.0018013008891730946,0.009158360608899598,0.01183203866080056,-6.196266622282565e-05,5.6654611398698715e-05,-0.0003874818212352693
1729403419.8430562,2386,1729403419,840255360,base_link,7.483481458986526e-05,0.008496520615156003,0.011505584456891751,-8.536737004760653e-05,-0.0010384481865912674,0.0013072158908471467
1729403419.9414282,2387,1729403419,939248448,base_link,-0.0027378900931965917,0.005854665070868309,0.010290732842794541,-0.000908692367374897,-1.3296026736497738e-05,0.0011435160413384438
1729403420.0382886,2388,1729403420,37243328,base_link,-0.0041345574499969265,0.003986357822346005,0.009362789923408792,0.0005076074739918113,0.00011234771227464085,0.0004797900328412652
1729403420.1393144,2389,1729403420,137239744,base_link,-0.004935877088566473,0.0015344895960792662,0.00750218492771502,0.0006377599784173071,0.0004767239734064788,0.0006500235758721827
1729403420.2412162,2390,1729403420,239237952,base_link,-0.005001528496530422,5.426776263653827e-05,0.00649517299622583,0.0011233602417632937,-0.000436763046309352,-0.0005625743069685996
1729403420.341334,2391,1729403420,339234112,base_link,-0.0038342275406065577,-0.0016963698423593729,0.004959940477020103,0.001660434645600617,0.0005787136615253985,0.0003977269225288182
1729403420.442347,2392,1729403420,440230016,base_link,-0.00313588123956304,-0.0033546750096186103,0.0012155139004517725,0.0009249091963283718,-0.0006354338838718833,-0.0005266942316666244
1729403420.5382948,2393,1729403420,537224896,base_link,-0.003364440214634203,-0.003522342412925291,-0.0014626363731151469,-0.00040409713983535767,0.0003147838870063424,0.00017834237951319662
1729403420.64181,2394,1729403420,640222848,base_link,-0.003235423470325865,-0.004402028416754574,-0.0033258279198701015,0.00035379937617108226,-0.0008646349306218326,-1.5651596186216816e-05
1729403420.7420218,2395,1729403420,740220800,base_link,-0.0031248960320791963,-0.005748878638368673,-0.005107027648930049,-0.0004951028386130929,-1.691643410595126e-05,0.0006367351161316037
1729403420.8390672,2396,1729403420,837217216,base_link,-0.0023194371261210517,-0.005997806423771812,-0.0062236780224045225,-0.0005076955421827734,-0.00044083927059546097,0.0013717996189370751
1729403420.942329,2397,1729403420,939215424,base_link,-0.004186381219990529,-0.006124848439304507,-0.009047172308172858,-0.00038744014455005527,5.470569885801517e-05,-0.0005294180591590703
1729403421.0420537,2398,1729403421,40207232,base_link,-0.005108970368450122,-0.005948342624443259,-0.011112923210256115,5.8017201808979735e-05,0.0006953245610930027,0.0011936771916225553
1729403421.1392016,2399,1729403421,137203648,base_link,-0.0067644204197595415,-0.005526655598250024,-0.013551365281511256,0.0006081282626837492,0.0005138737033121288,0.00013419528841041023
1729403421.2419982,2400,1729403421,240209280,base_link,-0.008075008888254884,-0.005618247222784121,-0.01518029152455257,0.00028564853710122406,-0.00014906193246133617,0.0005922255804762244
1729403421.3420355,2401,1729403421,339207488,base_link,-0.009857150642676074,-0.004968849404768768,-0.015557962950366428,8.669075032230467e-05,-0.0004343048203736545,-0.001005609636195004
1729403421.442031,2402,1729403421,439205696,base_link,-0.011168055709251787,-0.00395547790010106,-0.016693942161377637,0.000473373947897926,0.0005889917956665159,0.0005300784250721334
1729403421.5390093,2403,1729403421,537202112,base_link,-0.010659598185816816,-0.0026679133131398245,-0.015911605201779984,-0.0005859769298695028,-0.0009823946747928858,-0.0001816947478801011
1729403421.642327,2404,1729403421,639198784,base_link,-0.009610404423500323,-0.0011728996183190906,-0.015429497241442132,-0.0002781161165330559,0.0005658419686369599,0.00046536111040040845
1729403421.742189,2405,1729403421,739195456,base_link,-0.009269001566077488,0.00028639563183860905,-0.013584964007227548,-0.0003703664115164429,0.0001640645496081562,0.0008220173185691237
1729403421.8393352,2406,1729403421,837190592,base_link,-0.008720838357102348,0.00013587958841893585,-0.010983305529329255,0.0002665604406502098,-0.0004643378779292107,-0.00046559888869523997
1729403421.9394693,2407,1729403421,937184448,base_link,-0.00943249107604313,-0.0005274257300541101,-0.008275151327945957,-0.0016108694253489375,-0.0002104469313053412,0.0016605426790192723
1729403422.0422142,2408,1729403422,39179840,base_link,-0.009543898955060803,-0.001118447114861264,-0.006369800036314254,-0.0003312394837848842,0.0003578169562388213,0.001163735636509955
1729403422.1421092,2409,1729403422,139172160,base_link,-0.010452916257116182,-0.001328179907661237,-0.006054140702387481,0.0005207852809689939,-0.0001942481030710043,-0.0010635948274284601
1729403422.2388854,2410,1729403422,237169088,base_link,-0.010533566543030762,-0.0028149488476059315,-0.005535684364049819,0.0003449929354246706,0.0007782722823321819,0.00023661194427404542
1729403422.3373733,2411,1729403422,334166016,base_link,-0.01062157006568618,-0.0021239708556686707,-0.005620982903138948,0.0001566192804602906,-3.628059130278411e-05,0.0003716093488037586
1729403422.4423602,2412,1729403422,440161408,base_link,-0.011016829752689607,-0.0013231652020134865,-0.006690877352956415,0.0006623265217058361,0.00015657146286685036,0.0013644960708916187
1729403422.5423985,2413,1729403422,540155776,base_link,-0.011606630557176855,-0.0032224107655859984,-0.008729002022945326,-0.0008154782699421048,0.00015194765001069752,-0.0003305009158793837
1729403422.6424248,2414,1729403422,640150144,base_link,-0.01165286298415463,-0.00493096429931502,-0.010985666001838252,0.0001388072269037366,0.0004777938593178987,-0.00047828513197600847
1729403422.7426481,2415,1729403422,740142464,base_link,-0.01229513805607494,-0.00765070631628576,-0.014652367987062905,-0.0015957632567733526,-0.00011396275658626093,0.0012752915499731898
1729403422.842628,2416,1729403422,839135040,base_link,-0.013030425184108041,-0.009516155226524804,-0.01789104749708081,-0.0008312417194247246,-0.0005951375933364032,0.0021116752177476883
1729403422.942374,2417,1729403422,940127616,base_link,-0.013630736224328564,-0.009541660405514038,-0.020372868530048754,-0.00039042046410031617,0.001144143636338413,0.0011981689603999255
1729403423.0392802,2418,1729403423,37119680,base_link,-0.014510395529103808,-0.009720025361729688,-0.0217764172595636,0.001561914337798953,0.0006177373579703272,0.000591395073570311
1729403423.1421826,2419,1729403423,140115328,base_link,-0.014932415281592322,-0.0104506301814349,-0.021350481201503804,-0.000514722487423569,0.0006170133710838854,1.4478275261353625e-05
1729403423.240522,2420,1729403423,237112000,base_link,-0.014351947728756038,-0.01076645456476711,-0.019903470373945176,0.0007910961285233498,9.657519694883379e-05,0.00023608535411767662
1729403423.342596,2421,1729403423,339108672,base_link,-0.01380920907401912,-0.012135535527523111,-0.01953325763548454,-0.001430434756912291,0.0006433717207983137,0.0009313955670222639
1729403423.4426668,2422,1729403423,439101504,base_link,-0.013983040380319056,-0.01264019590780576,-0.019456818570674942,-0.000520444824360311,0.001224977313540876,0.00021023269800934924
1729403423.5425737,2423,1729403423,540097408,base_link,-0.014156921828082153,-0.014032284356368406,-0.017628124897429712,6.833590305177495e-05,0.00011446935241110628,0.00044607691233977675
1729403423.6429625,2424,1729403423,639093056,base_link,-0.014468850838863926,-0.015491940416353066,-0.015515114017224402,0.0009501344757154584,-0.000850800483021885,0.0011011676397174597
1729403423.7427979,2425,1729403423,739088960,base_link,-0.015355337593791988,-0.016032581056251775,-0.014338082788288527,0.0013266107998788357,-0.00035492182360030716,-0.0005414006882347167
1729403423.842396,2426,1729403423,840084864,base_link,-0.015925623482530717,-0.01588765304522457,-0.01330035686922275,0.0010697335237637162,-0.00041119413799606264,9.972947009373462e-05
1729403423.9397264,2427,1729403423,937079744,base_link,-0.013997442047769029,-0.014236407130963304,-0.011598360798002206,2.8760152417817153e-05,3.5675948311109286e-05,0.0015254875179380178
1729403424.0394,2428,1729403424,37072832,base_link,-0.012488644158108415,-0.012749887393729169,-0.009052109781201668,-5.824730760650709e-05,0.00024759062216617167,-9.229130228050084e-06
1729403424.139747,2429,1729403424,137070784,base_link,-0.012078737896865876,-0.013874998688290851,-0.006932398915819925,0.0005210794042795897,-0.000472603365778923,0.000574032310396433
1729403424.2413156,2430,1729403424,240068480,base_link,-0.011221566961095913,-0.015152912075169712,-0.004798822267427777,-0.0003317168157082051,8.191737288143487e-05,9.534008131595327e-05
1729403424.3395083,2431,1729403424,337061824,base_link,-0.009777551789812116,-0.016859410420207575,-0.0026994608061340145,0.0008215417619794607,-0.0005892540211789309,0.0007092622108757497
1729403424.4397235,2432,1729403424,437057984,base_link,-0.008232923661363441,-0.018219093645876455,0.0005363879219490498,0.00024120984016917646,0.000493980827741325,0.0007561323000118135
1729403424.5421274,2433,1729403424,539054144,base_link,-0.007270949262017827,-0.017797174822116856,0.0029387277928007074,-0.0005332669243216515,0.0004556126368697734,0.0008455963106825947
1729403424.639484,2434,1729403424,637049024,base_link,-0.005724010063117561,-0.01791167262465142,0.005054730015269901,-6.194220623001456e-05,3.8715701521141516e-05,0.0004942496307194233
1729403424.7415376,2435,1729403424,739040832,base_link,-0.004041106388000932,-0.018123716738007382,0.007241483751549644,0.0009159069159068167,-1.022382639348507e-05,-5.590140062849968e-06
1729403424.8367565,2436,1729403424,834032640,base_link,-0.002777170998814438,-0.018800872398605967,0.009650397304161338,0.0007013590075075626,-0.0004812218830920756,-0.00015635642921552057
1729403424.9396214,2437,1729403424,937029056,base_link,-0.001524423221722156,-0.019257874076982623,0.009208013895498999,0.0004773505497723818,0.0007615720387548208,-5.814632822875874e-05
1729403425.040579,2438,1729403425,37021888,base_link,-0.0016493167011340285,-0.019421845367785566,0.009066812099162129,0.0013392858672887087,0.0008288866956718265,-0.000484893098473549
1729403425.142077,2439,1729403425,140017024,base_link,-0.002365281633727741,-0.018342674363438016,0.007079638940327457,0.0011129658669233322,0.0015757303917780519,0.00018276908667758088
1729403425.2391977,2440,1729403425,237013440,base_link,-0.003161340884146647,-0.01753093101053883,0.006075921374617737,0.0004228207399137318,0.0007128447759896517,-6.236696208361544e-05
1729403425.342093,2441,1729403425,340009088,base_link,-0.003915496794012746,-0.017007509001930092,0.004688115109262367,0.0012753225164487958,-0.0008406952838413417,8.608723874203872e-05
1729403425.4415357,2442,1729403425,439001152,base_link,-0.0038207031413856436,-0.0164378993106897,0.0024708455994187275,-0.0006581640336662531,0.0001790050737326965,0.00018467278277967122
1729403425.5392883,2443,1729403425,536994496,base_link,-0.0031710112431650715,-0.016441942222925516,0.001133282882468574,0.00070039281854406,0.0011945145670324564,0.0003677030617836861
1729403425.6434746,2444,1729403425,639991168,base_link,-0.0028419316594509043,-0.016823735182836107,0.0015488163449134972,-0.0001468595291953534,-0.000531000376213342,5.880582466488711e-05
1729403425.741762,2445,1729403425,739988096,base_link,-0.0010364948011955275,-0.01700825036185289,0.0045953685109613035,0.001557162613607943,-0.0008858919609338044,0.0009005620377138258
1729403425.8423197,2446,1729403425,839984768,base_link,0.00018969961888210576,-0.016816874895592332,0.00699747293673646,0.0010310200741514564,0.0003054475819226355,0.00040533501305617387
1729403425.9387894,2447,1729403425,936981440,base_link,0.0008305073829258386,-0.016865565220546865,0.009385588153814559,0.0001339927111985162,-0.0005730362026952207,6.61232479615144e-06
1729403426.039704,2448,1729403426,36972992,base_link,0.0017604463623570434,-0.015884619701350723,0.01127724551243543,0.0011924009304493666,-6.164698424981912e-05,-0.00047749635996297
1729403426.1423786,2449,1729403426,139965312,base_link,-0.00045787616460612785,-0.014384322688654938,0.011212152364676965,-0.0005607118946500123,0.0005096893291920424,0.00021386650041677052
1729403426.241373,2450,1729403426,238959936,base_link,-0.0015969098327390935,-0.013572511693710983,0.009196150171380367,-0.00011100768460892141,-0.0004909231211058795,0.00014191916852723813
1729403426.3415883,2451,1729403426,338956864,base_link,-0.0037055324378711236,-0.012456601185064465,0.006873203781215163,0.0001803156774258241,-0.0006665964028798043,0.0009755795472301544
1729403426.4388988,2452,1729403426,436948928,base_link,-0.0054539296893308985,-0.012955700816178844,0.0059510920630804634,-0.0001512801245553419,-0.00011383940727682773,0.0008870040182955563
1729403426.5389438,2453,1729403426,536944576,base_link,-0.005007662204791985,-0.012686231540778364,0.004946401464016476,0.00039131412631832063,0.0006247280980460347,0.0011606370098888874
1729403426.6419785,2454,1729403426,639941504,base_link,-0.003021126822660602,-0.013202436372246322,0.004827467033822931,-0.0005408179713413119,0.00013287446927279245,0.0009621583740226924
1729403426.741959,2455,1729403426,739938944,base_link,-0.002806223400189036,-0.013168657212042726,0.004390816985304997,-0.0003973398415837437,0.0001415040314896033,0.0006503897020593286
1729403426.8419144,2456,1729403426,839931264,base_link,-0.0032113806481383843,-0.013930073003986682,0.004042856991883845,0.0005908493767492473,0.00026834671734832227,0.00012839009286835787
1729403426.9417949,2457,1729403426,939923584,base_link,-0.0027862417349262376,-0.012147123354199048,0.0007825735008142815,0.00032078989897854626,0.0008780669886618853,-6.479574949480701e-06
1729403427.039017,2458,1729403427,36915904,base_link,-0.0019290828752633277,-0.011795236101543382,-0.0020395245795340484,-0.0004827678494621068,6.688408029731356e-05,-0.0005571036599576473
1729403427.1429722,2459,1729403427,139913088,base_link,-0.0030876561108031933,-0.009277708797879853,-0.005348928901421478,0.0005520036211237311,0.00044986305874772375,0.0006465209880843757
1729403427.2388587,2460,1729403427,236908992,base_link,-0.0037685524990617295,-0.009311157187317558,-0.0074159698509936,0.0005711564444936812,0.00012490290100686263,0.0008368211565539241
1729403427.341966,2461,1729403427,339904640,base_link,-0.005800641748051825,-0.010255955025513974,-0.009377982892918912,0.000223229915718548,-0.0003382237337063997,0.0008875242783688009
1729403427.4388015,2462,1729403427,436902080,base_link,-0.008524919509022566,-0.010683175908625905,-0.01068405425137764,-3.813643706962466e-05,-0.0009933458641171455,0.000157394853886217
1729403427.5388966,2463,1729403427,536894912,base_link,-0.011171722061636497,-0.009315419800987863,-0.012175213838824155,-0.0004664879525080323,0.0002847279829438776,-0.0001824172213673592
1729403427.6421607,2464,1729403427,639888000,base_link,-0.013254003646674721,-0.0076137506929425365,-0.012651629896933587,-0.0005656260764226317,0.0011175964027643204,-0.0003875155525747688
1729403427.739333,2465,1729403427,736880832,base_link,-0.015534375043036222,-0.007354006333500815,-0.013687213023647383,-0.0017610981594771147,-6.7166220105717415e-06,0.001146205817349255
1729403427.8422122,2466,1729403427,839876736,base_link,-0.01722217804667456,-0.006590375743214959,-0.015617432024948965,0.000489919853862375,-6.777827366022378e-05,0.0012495608534663916
1729403427.9417038,2467,1729403427,939872896,base_link,-0.01794444151006686,-0.007013524908384336,-0.01632554557091885,-4.7640052798669785e-05,0.000750486389733851,0.00023980696278158567
1729403428.0390923,2468,1729403428,36865216,base_link,-0.018500189719754263,-0.006987242358138969,-0.01628880539541374,0.0002717777679208666,0.0012579837348312137,-0.0009251078590750695
1729403428.1419394,2469,1729403428,139860096,base_link,-0.019320120917668538,-0.004959067961536534,-0.017389123634206343,0.0003184658708050847,0.0017538294196128845,0.0007134141051210461
1729403428.2387128,2470,1729403428,236855488,base_link,-0.02013441944151594,-0.0037303171989279144,-0.018061378220628234,-4.5254611904965714e-05,0.000769499456509948,0.001565673854202032
1729403428.3420565,2471,1729403428,339848576,base_link,-0.01956522884251364,-0.0017970383723975357,-0.01796166635184098,-0.0013562485110014677,-0.00031641064560972154,-0.00010383372864453118
1729403428.4424658,2472,1729403428,439841664,base_link,-0.018905090075825227,-0.0010055421395938433,-0.017698469662458374,0.000748594175092876,2.8035414288751747e-05,-0.00027331491583026946
1729403428.5358663,2473,1729403428,533837568,base_link,-0.01831235808738207,4.300793690668512e-05,-0.018313769696808327,-0.0017310349503532052,0.0010341149754822254,0.0006057539139874278
1729403428.6387968,2474,1729403428,636833728,base_link,-0.017689289766418394,0.0013933812193062049,-0.019506521888273527,0.00021308221039362252,-0.0009875138057395818,-0.0014416320482268927
1729403428.741963,2475,1729403428,739826560,base_link,-0.01376804128346727,0.002292290782528762,-0.01982828293745921,-0.0005189864314161241,0.00023886119015514848,-0.00033178078592754906
1729403428.8389041,2476,1729403428,836821696,base_link,-0.01175786937900591,0.0030965813768071447,-0.02059964205477977,-0.0004908333066850901,0.0004931808216497303,0.000656595395412296
1729403428.9410744,2477,1729403428,939814784,base_link,-0.009602507932467272,0.005347001510363238,-0.019873296096743574,-0.0007192798657342792,0.00018102818285115082,0.0016392021207138896
1729403429.0421338,2478,1729403429,39807616,base_link,-0.00804852384569861,0.007778198358225708,-0.017856540353238155,0.00048505215090699494,-0.00045822287211194645,-0.0008563665905967354
1729403429.139188,2479,1729403429,136800960,base_link,-0.006997269858669129,0.009380585633195332,-0.016687562796533655,-0.0001693723606877029,-0.0005801287479698657,0.0007950390572659672
1729403429.2416666,2480,1729403429,238797632,base_link,-0.005975443053150072,0.01057167950883531,-0.01328298321869172,-0.0009017595439217985,0.000939680787269026,0.0002886199508793651
1729403429.342323,2481,1729403429,339794304,base_link,-0.00440075344168949,0.010897110647285673,-0.00961905314865826,-0.00032513722544535995,0.0018345467979088426,0.0008581001893617211
1729403429.4425073,2482,1729403429,439797376,base_link,-0.003682967943788343,0.011552515062164441,-0.007770064892926048,-0.00045360246440395713,0.0006758944364264607,0.00013971565931569777
1729403429.54237,2483,1729403429,539790976,base_link,-0.0019366733118807529,0.010754773084881146,-0.004216444941373414,-0.001810263143852353,0.00044747340143658226,0.0004118276992812752
1729403429.6392817,2484,1729403429,636782784,base_link,-0.0005822267427538885,0.009696907648347993,-0.0019352579596186644,-0.00010653000208549201,0.0006899663130752743,0.0009495358099229633
1729403429.7416701,2485,1729403429,738778432,base_link,0.0017836940991671512,0.006481973639341568,0.004402500072323399,-0.0005287128151394427,4.4610198528971564e-05,0.0003351423947606236
1729403429.8414512,2486,1729403429,838771776,base_link,0.0030257307689437337,0.003918664688958636,0.009408949001608834,5.695589425158687e-05,-0.0006869480130262672,0.0007908123079687358
1729403429.9400878,2487,1729403429,936768448,base_link,0.0029880768185345623,0.003027212420546155,0.014534466064740507,-0.0006293311016634107,0.0010542524978518486,0.0006532662082463502
1729403430.0397775,2488,1729403430,36761792,base_link,0.0023911974608425016,0.0017391238044087752,0.016540491816214663,0.0008630420779809356,-0.0007241256535053254,-0.0010714477393776178
1729403430.1417625,2489,1729403430,139758976,base_link,0.0026588482455625604,0.0023697104289674984,0.019143408720067905,-0.0010347635252401233,0.00047793242265470337,0.0009706415585242211
1729403430.241812,2490,1729403430,238751040,base_link,0.003167011225176837,0.0028194997672507383,0.021728129559585304,-0.001363676507025957,-0.00027910168864764284,-0.0009939497103914618
1729403430.3394268,2491,1729403430,336746432,base_link,0.003389061792730765,0.003601299433564446,0.022189789636147976,0.0011441059177741408,0.0024957102723419666,0.0011589445639401672
1729403430.4411035,2492,1729403430,438738496,base_link,0.00368298763088672,0.0038981429666423693,0.02456480120630322,-0.0005404148250818253,0.000707496248651296,0.0008462318801321088
1729403430.5392225,2493,1729403430,536735424,base_link,0.004886620651601945,0.005994315795512278,0.02728705791764223,2.8625061531784013e-05,-0.00010370199015596879,0.00026752310805022717
1729403430.6392744,2494,1729403430,636732352,base_link,0.006020980383895068,0.007791850192908182,0.027378060934608272,-0.0011344541562721133,-0.0007993109757080673,0.0006797751411795617
1729403430.7416286,2495,1729403430,739729536,base_link,0.005925554458402933,0.007593133617867521,0.02896859777119913,0.00026140271802432835,0.0012851109495386481,-3.696171188494206e-05
1729403430.8429246,2496,1729403430,839725440,base_link,0.0058512051966614,0.007106017066399481,0.030594227614532225,0.0003515572170726955,0.0013582577230408788,0.00029191494104452415
1729403430.941673,2497,1729403430,938721344,base_link,0.0047326480488130195,0.006368707860194073,0.031728575816018685,0.0006167779210954905,-0.0005497570964507758,0.0013107440900057554
1729403431.0387564,2498,1729403431,36715456,base_link,0.003983082275426781,0.006563799822205039,0.031968937195335834,0.00042688800022006035,-0.0005400463123805821,0.0003745255526155234
1729403431.141767,2499,1729403431,139708032,base_link,0.004266223113690092,0.007988561246647843,0.0326279130411579,-0.0003826990141533315,2.6966012228513204e-05,0.0005506069865077734
1729403431.239454,2500,1729403431,236700864,base_link,0.004977727541089301,0.009615176683306012,0.03354137322792801,0.00018286387785337865,-0.0011613820679485798,5.809884169138982e-05
1729403431.3363218,2501,1729403431,333698048,base_link,0.0038543787099065896,0.011165369946775437,0.03325145234162318,0.0009519172599539161,0.0002043577696895227,0.00011702494521159676
1729403431.4411318,2502,1729403431,439694976,base_link,0.0019982757297500767,0.011560523154695093,0.03295382528532767,-0.0009008211782202125,0.0006744139827787877,0.0008884459384717046
1729403431.5414066,2503,1729403431,539691392,base_link,0.0017938864081827512,0.0113932262472537,0.03187498031619756,0.0002620154700707644,-0.0007973851170390843,0.0012241884833201766
1729403431.641555,2504,1729403431,639683968,base_link,0.0019173924643027434,0.011424684706540972,0.032385290251460835,0.000645389431156218,-0.0007848898530937731,-0.00011700810864567747
1729403431.7414796,2505,1729403431,739676544,base_link,0.0022280003196571475,0.011168979559592535,0.03604187411448127,0.0003627476398833096,0.0003994891594629735,4.784222983289505e-05
1729403431.8383555,2506,1729403431,836673984,base_link,0.00321181737385893,0.01085653015966155,0.03808338182069695,0.00028856631251983345,0.0005855883937329055,0.00100036826916039
1729403431.941564,2507,1729403431,938666816,base_link,0.0028152927298367996,0.009778899834139532,0.03779868305998195,0.0006432433146983385,-0.0009666279074735941,-0.0008728588582016527
1729403432.0417662,2508,1729403432,39659904,base_link,0.0027807594479256916,0.009941026852229563,0.03855135639770905,0.0006576774758286774,-0.0005221023457124827,0.0016225102590397
1729403432.1389232,2509,1729403432,136657088,base_link,0.0019695854471073106,0.008787987083582919,0.03773997639388013,0.00044487995910458267,-6.271075108088553e-05,1.6285703168250697e-06
1729403432.2416635,2510,1729403432,239652480,base_link,0.0007531252128364341,0.007065621395800104,0.03611090430047623,0.0006364098517224193,-0.0005614243564195931,0.00033224400249309843
1729403432.341183,2511,1729403432,338645312,base_link,-0.0010983892716321954,0.005085833668602365,0.03435850432254711,0.00026305526262149215,0.00011231950338697074,0.001068890211172402
1729403432.4415758,2512,1729403432,439638400,base_link,-0.002804738549129736,0.003659973035585903,0.033192813363301765,-0.0006932038231752813,-0.00043387908954173326,-3.570084663806478e-05
1729403432.5384989,2513,1729403432,536635840,base_link,-0.0037606626774479924,0.001249535863108664,0.030703585417522855,0.00016592082101851702,0.0007496620528399944,-0.0002620666928123684
1729403432.6385496,2514,1729403432,636633536,base_link,-0.003988697072513865,-0.0005309004016317016,0.02849113284589384,-0.0007077963091433048,-0.0005306303501129149,0.0006236854824237527
1729403432.7384448,2515,1729403432,736631232,base_link,-0.0037433600098799426,6.564450325522928e-05,0.024739257342416863,6.247972487471998e-05,-8.947266906034062e-06,0.0011347121326252818
1729403432.8386428,2516,1729403432,836627392,base_link,-0.0033049752265528936,0.0003266600314531197,0.023040449170484645,-0.0006782666896469891,0.00012100351887056615,0.0008371265139430761
1729403432.9385626,2517,1729403432,936623040,base_link,-0.0026778343289490256,0.0011684768048508527,0.020319229440425926,-0.0010204385034739971,-0.00017944911087397472,0.0010591374011710286
1729403433.0418203,2518,1729403433,39616640,base_link,-0.0016153823360088053,0.0007615700860225058,0.01861823055295015,0.00021456708782352507,-9.035065886564537e-05,0.0012880635913461447
1729403433.1416337,2519,1729403433,139611776,base_link,-0.001532910058069891,0.0006234983276278438,0.01812950522903824,-0.00015800345863681287,0.0009150816476903858,0.001422526082023978
1729403433.239377,2520,1729403433,236608960,base_link,-0.0013738862156648685,0.0012481880140034901,0.017419451886289565,-0.00022644725686404854,-0.0004087374545633791,0.0011993251973763108
1729403433.3415887,2521,1729403433,339602304,base_link,-0.001234722210811553,0.002109587850946792,0.015001440371187684,-0.0006061925669200718,-0.00035913684405386426,0.0018607397796586156
1729403433.4423354,2522,1729403433,439598720,base_link,-0.0022530377278258936,0.003040302242791857,0.012537807587179518,-4.374982381705195e-06,7.287939661182463e-05,1.2669130228459827e-05
1729403433.5417457,2523,1729403433,539593856,base_link,-0.0021899872915183967,0.004772444591021656,0.009509895397763474,0.00024698476772755384,-0.0003640751529019325,0.0010867894161492586
1729403433.639114,2524,1729403433,636588992,base_link,-0.0021999470098525084,0.006191314613258441,0.0077615858965955214,0.00025948684196919203,-0.0005830399459227921,-0.0008231241954490541
1729403433.7426198,2525,1729403433,739584128,base_link,-0.0011073126116209581,0.01005002335870075,0.006942905638066172,-0.001622765907086432,9.49402237893081e-05,-0.001016372931189835
1729403433.8424711,2526,1729403433,839577472,base_link,7.948424096605202e-05,0.01258504456218233,0.0069485058931683195,-0.0001538769283797592,0.0004363906919024884,-0.0002318467304576189
1729403433.9422433,2527,1729403433,939571072,base_link,0.0003293633807103407,0.012091406064923567,0.006522439573422375,0.00016406529175583273,9.953253902494903e-05,-0.00032415217719972134
1729403434.039012,2528,1729403434,36564416,base_link,-0.00012701938936413715,0.011311617381736652,0.006738798728329476,0.0015268330462276936,0.0002036378718912602,0.0005048929597251117
1729403434.1418462,2529,1729403434,139558016,base_link,0.0010187534371866535,0.010807116212079028,0.004862317450223892,3.881147858919576e-05,-8.16880274214781e-05,0.0006785577861592174
1729403434.2411177,2530,1729403434,239551360,base_link,0.0017860414863025613,0.010241486178247989,0.004174495853950268,0.0002096262905979529,-0.00039814488263800735,0.00043303769780322915
1729403434.340816,2531,1729403434,338543936,base_link,0.00252876865170666,0.008485844924090583,0.006203419175208372,-0.00025550066493451595,-3.598638795665447e-05,0.0014690544921904802
1729403434.4388459,2532,1729403434,436537280,base_link,0.003012420752765972,0.007416853985804692,0.005197643673749643,-7.816537981852889e-05,0.0017102574929594996,0.001152273151092231
1729403434.5397182,2533,1729403434,536532672,base_link,0.0025503522938497072,0.006460566972068496,0.00461587913808985,-0.0002783896343316883,0.0006573683349415661,0.0008407519781030713
1729403434.638895,2534,1729403434,636529344,base_link,0.00203694673044337,0.005815182093980784,0.0034630542748088785,-0.0006061778403818607,0.0008994678501039742,-0.0006871555815450848
1729403434.739447,2535,1729403434,736523200,base_link,0.002589152896672231,0.0032035560942852872,0.003538222526849975,0.0007252648938447237,0.0001838012103689834,-0.0003791578928939998
1729403434.840983,2536,1729403434,839519872,base_link,0.0020143270873148648,0.0010445306980020148,0.002170897148402463,0.00046442676102742553,5.931309715379012e-06,-0.0001457392645534128
1729403434.9391966,2537,1729403434,936515264,base_link,0.0026731863799879015,-0.0013633299465652916,0.0013766228617555574,0.0007516734185628593,0.0005822072271257638,-0.000582971377298236
1729403435.0421662,2538,1729403435,39509120,base_link,0.0028588693572504237,-0.003336027189028107,0.0016629439676031502,-0.000759332615416497,-0.0009734367486089469,-0.0006351814954541623
1729403435.1403396,2539,1729403435,136504512,base_link,0.0034144620159714473,-0.004064663613951282,0.0019366222606210987,-0.00026446866104379296,0.00010164364357478922,0.0004613277269527316
1729403435.242223,2540,1729403435,239498112,base_link,0.0035756385630870387,-0.005761406744527727,-0.0006039999848624109,0.0015695185866206884,4.397426528157663e-05,-0.00028246224974282086
1729403435.3411179,2541,1729403435,339490432,base_link,0.0036592566615080793,-0.004632204085954068,-0.0015508732909828063,0.00019215406791772693,0.00015739424270577737,0.0007297180127352476
1729403435.4389975,2542,1729403435,436484288,base_link,0.004016289681179192,-0.003657835837625249,-0.0009597804725817076,-0.00044492995948530734,0.0005133969825692476,0.0007162452675402163
1729403435.539075,2543,1729403435,536477120,base_link,0.005452968858424657,-0.0041493792199307974,-0.001992575149029857,0.0003024747420568019,0.0001788759836927056,-0.00032218225533142686
1729403435.638112,2544,1729403435,636473024,base_link,0.007455095917237841,-0.004143059659974837,-0.0015808850489514644,-0.0003467008355073631,4.5101325667928884e-05,-0.000166941768839024
1729403435.7417338,2545,1729403435,738465600,base_link,0.007666923464492765,-0.004971052302632252,0.0005204222271676394,-0.00031866770586930215,0.000680694472976029,0.0008458984666503965
1729403435.839527,2546,1729403435,836458176,base_link,0.008958894101583133,-0.005330487001569899,0.002501771044536781,-0.0008559403941035271,-0.0002299449115525931,1.155296922661367e-05
1729403435.939209,2547,1729403435,936454848,base_link,0.008917512697394778,-0.006467421484167427,0.005275666258368266,0.0006885742186568677,0.0006629189010709523,-0.0008183986647054554
1729403436.039431,2548,1729403436,36448960,base_link,0.007946754071005271,-0.007739813669753417,0.0078274687185254,0.0014724149368703365,2.103133010677996e-05,0.00022615285706706345
1729403436.1447535,2549,1729403436,141440768,base_link,0.007084557294458561,-0.009967704406022149,0.009416256065823733,0.0005599178257398307,-0.0001463400112697854,0.00034090643748641014
1729403436.2381563,2550,1729403436,236437696,base_link,0.006674496031549311,-0.01105224938875601,0.00794300774597489,0.00024874150403775275,0.00015716279449407017,0.00042731978464871645
1729403436.3387458,2551,1729403436,336434112,base_link,0.005699424069606088,-0.011936144958550948,0.0075964629865951745,-0.0006715022027492523,0.00014618862769566482,0.0003882093296851963
1729403436.4408917,2552,1729403436,439433088,base_link,0.005620652603582412,-0.013268907587517784,0.007493548041427582,-0.0003443906316533685,-0.00041509122820571054,0.0008795452304184437
1729403436.5383012,2553,1729403436,536429248,base_link,0.0060071027928385165,-0.011827304130885617,0.00565017098484922,-0.00012504091137088835,-0.0005518745747394861,-0.0004886700189672409
1729403436.6381438,2554,1729403436,636421824,base_link,0.006136472910152365,-0.011452515095870835,0.004246585596262949,-0.001048474689014256,-0.00035960596869699646,0.0009580624173395336
1729403436.7413626,2555,1729403436,738416192,base_link,0.007070675703571128,-0.0078923018508889,0.0023519575734852714,0.000793050043284893,-0.0007213033968582749,0.0003726599388755859
1729403436.8416214,2556,1729403436,838413120,base_link,0.008085678646185566,-0.005835582798519895,0.0014971355386383491,0.00026262790197506547,-9.637912444304686e-05,-0.0008550091879442334
1729403436.9413974,2557,1729403436,939406208,base_link,0.008476171474490504,-0.006574893319814314,0.0010408642925847098,-0.0008539953269064426,0.0009996541775763035,-0.0001223682338604705
1729403437.0382938,2558,1729403437,36400832,base_link,0.0085586403451372,-0.007700771697908052,0.0005925467520445064,0.0010390428360551596,-0.00037456120480783257,0.002039050916209817
1729403437.1421103,2559,1729403437,139394432,base_link,0.007544616103219814,-0.006218729921825128,-0.00038823457681680834,-0.00016578607028350234,-0.00014528806786984192,0.0011789730051532388
1729403437.2414138,2560,1729403437,238387520,base_link,0.006619990043143169,-0.005377475330382431,0.00020901242083334098,0.0009165715309791267,0.0003328575112391264,0.0005659944727085531
1729403437.34121,2561,1729403437,339380608,base_link,0.006043057965297778,-0.005553406301830433,-0.0008919918003678903,-0.00016681214037816972,0.00017824261158239107,0.000918433244805783
1729403437.4413846,2562,1729403437,439373696,base_link,0.0058784951890782314,-0.0064603869619573855,-0.0018608604277500242,-0.0006516678840853274,-0.0007331522647291421,0.0008992099319584669
1729403437.541257,2563,1729403437,539367040,base_link,0.004516063738360026,-0.006132854768331593,-0.004629915357737423,0.00020995833619963378,0.0007368592778220774,0.0006971838884055613
1729403437.6382306,2564,1729403437,636360128,base_link,0.003722911136858675,-0.006283396060272926,-0.005869449665804717,-0.0003889258950948715,0.0019176348578184843,0.0004850097175221888
1729403437.7417479,2565,1729403437,739352448,base_link,0.0003615155798701562,-0.00604412790415486,-0.009975144938473937,-0.000889619521331042,0.0011210138909518719,0.0008130896603688597
1729403437.8415432,2566,1729403437,839346048,base_link,-0.0017910191172434355,-0.005245555746255916,-0.012313951821136909,-0.000559342501219362,-0.0003382959985174238,0.0004704924649558962
1729403437.9387877,2567,1729403437,936339136,base_link,-0.0015219554059760904,-0.003944951996076524,-0.014110768075252708,0.00013539750943891704,0.0005286894156597555,0.00030472764046862716
1729403438.0416417,2568,1729403438,39332736,base_link,-0.0015459843931937168,-0.002532909469658622,-0.015633874126525494,0.0001834345457609743,-0.0007562179816886782,0.0006268287543207408
1729403438.1385808,2569,1729403438,136325824,base_link,-0.0020756831780809493,-0.001693155981277494,-0.01564385246582339,-2.3643173335585743e-05,0.0005433724727481604,0.000151288099004887
1729403438.2417338,2570,1729403438,239319168,base_link,-0.0018844201514392964,-0.0007746253800370286,-0.01567087820663675,-0.0003608346451073885,0.0012613330036401749,-4.92230683448726e-05
1729403438.3389482,2571,1729403438,336312512,base_link,-0.0023796988780819925,-0.0015497612190106909,-0.01619255369581372,0.0010473639704287052,0.0002765306853689255,0.001387852942571044
1729403438.4389648,2572,1729403438,436306112,base_link,-0.003753059994964149,-0.00223607943579081,-0.016388056975066793,0.0005444955313578248,0.0009511311072856188,0.0003504819469526409
1729403438.5412848,2573,1729403438,538301504,base_link,-0.004147473419320116,-0.0023499867938251303,-0.016225487908182547,1.8462162188370712e-05,0.00010452178685227408,-8.893512858776377e-05
1729403438.6421618,2574,1729403438,639295104,base_link,-0.004102323579246062,-0.002855340360072029,-0.01711395020862292,-0.0006943264743313193,0.0003691182646434756,0.0011921720579266548
1729403438.741394,2575,1729403438,738288704,base_link,-0.003290423617868324,-0.0034866119309795557,-0.01805961612559247,0.0005373210296966136,0.000603370019234717,0.0006841275026090442
1729403438.8368564,2576,1729403438,833282304,base_link,-0.0020203618831067275,-0.004240469476933892,-0.019393437575007232,0.001811906462535262,0.0012581516057252886,0.0012286655837669966
1729403438.9417984,2577,1729403438,939276160,base_link,0.0005007501600108623,-0.0047816939779419575,-0.019369395313960834,0.0008759360061958432,-0.0005231485120020807,0.0001901831128634513
1729403439.0416892,2578,1729403439,39269760,base_link,0.0016421318604229688,-0.0061183530181868305,-0.02044338434124021,0.00010266840399708599,-0.0009448890341445803,0.0011370675638318064
1729403439.1416864,2579,1729403439,138265152,base_link,0.0022241058052811817,-0.005271377868869311,-0.02048779122656001,0.0012658183695748448,0.0003288929874543101,0.00023951672483235595
1729403439.2416701,2580,1729403439,239259008,base_link,0.002207155169647835,-0.003642378036239284,-0.021821272663117675,-0.0001718592830002308,0.00047491074656136334,0.0001470506540499627
1729403439.341903,2581,1729403439,339252608,base_link,0.0032668675636552368,-0.002077295648194635,-0.022678312287332348,-0.0004144419217482209,-0.0005117937689647079,2.1782419935334535e-05
1729403439.4420576,2582,1729403439,439246464,base_link,0.004102554393803047,-0.0017766318685467253,-0.024009541797200062,0.0002566782059147954,0.0007801397587172687,-0.0001451154676033185
1729403439.5387099,2583,1729403439,536240064,base_link,0.004756445652259231,-9.920084130761366e-05,-0.024190932944676835,-0.00034830489312298596,-0.00035836666938848804,-0.000699245254509151
1729403439.6387358,2584,1729403439,636234176,base_link,0.006430234041947011,0.0005491973974849954,-0.025821684380530546,0.00017366744577884674,0.0007139992085285485,-0.0001970420416910202
1729403439.7415938,2585,1729403439,739228032,base_link,0.008557783028548309,0.0016051757851891404,-0.023860473252315845,0.0010454587172716856,0.00022010551765561104,7.425424701068548e-05
1729403439.8385954,2586,1729403439,836222144,base_link,0.010280692998136174,0.0023299190607802677,-0.022855005618157787,-0.0012700323713943362,-0.0006159223848953842,0.0006960396422073246
1729403439.9407408,2587,1729403439,938216256,base_link,0.012480415285634391,0.002217667759672554,-0.020006036778024105,0.0004177302762400359,-0.00032286709756590415,0.0008844718686304986
1729403440.0408692,2588,1729403440,39210368,base_link,0.014483154305882203,0.0015749502600997851,-0.018558426759789505,0.0008733048452995718,0.0012665506219491363,-0.0006137138116173447
1729403440.1406786,2589,1729403440,138204480,base_link,0.01637540025013713,0.001530986037569182,-0.01593575533612611,0.001504909829236567,0.0013993370812386274,0.00038052967283874734
1729403440.242492,2590,1729403440,239202176,base_link,0.018357122343924944,0.003047719664875599,-0.013506498941768898,0.0010175210190936923,0.00018777897639665755,0.000297708174912259
1729403440.3388085,2591,1729403440,336196288,base_link,0.017963885268297765,0.002619037701919106,-0.010428554470095719,0.000244495808146894,-0.0004966469132341444,0.0002611696254462004
1729403440.4437954,2592,1729403440,441189120,base_link,0.018202454784099157,0.0016969986043582782,-0.0061783150532248666,0.0009782119886949658,0.0010357151040807364,-0.0014770739944651725
1729403440.5409524,2593,1729403440,539181952,base_link,0.017577758389399088,0.0028430321693702896,-0.0024365198469436886,0.0007370978128165007,0.0007728483760729431,-0.0008292426937259735
1729403440.6392512,2594,1729403440,636174528,base_link,0.016624994781415714,0.003128123210244345,-7.03527097357453e-05,0.0003718793159350753,0.0008070857147686183,-0.0002467477461323143
1729403440.7387474,2595,1729403440,736170944,base_link,0.016595968129519155,0.003618726175378339,0.0003765817195214775,0.00026359231560491025,-0.0007583164842799307,-0.0006807105382904409
1729403440.8388777,2596,1729403440,836165568,base_link,0.01603535654522683,0.00424360917246067,-0.0007478454267737392,0.0010960027575492859,-0.0005588580970652401,0.00026264664484187966
1729403440.938987,2597,1729403440,936158656,base_link,0.013848163885780165,0.005879544111529369,-0.0021902626312979238,0.0006621296633966267,0.0011122949654236436,0.0007944053504616021
1729403441.0409176,2598,1729403441,38153280,base_link,0.01269738383529674,0.005956638757752152,-0.002162722576614711,0.000663305982016027,-0.00038046645931899553,-0.0003970288089476525
1729403441.1440756,2599,1729403441,141147136,base_link,0.011253595044957229,0.0048241837985661794,-0.001992647520863892,2.5615892809582874e-05,-0.00041734476690180594,0.0006438269047066569
1729403441.2408245,2600,1729403441,238144832,base_link,0.009549865605716662,0.00461840411926934,-0.001957975986059307,-0.00042926662717945874,0.00026448286371305585,0.00016390581731684503
1729403441.3407092,2601,1729403441,339137920,base_link,0.008851921219620022,0.004179412946694209,0.000993605356006931,-0.0016763738822191954,-4.2469575419090634e-05,0.0004507731646299362
1729403441.4411821,2602,1729403441,438131008,base_link,0.008000868902341791,0.003196871882876124,0.003032448155170871,0.00042584622860886157,0.0010836779838427903,0.001433762372471392
1729403441.5385427,2603,1729403441,536124096,base_link,0.005056674796132076,0.00429768703603186,0.0015119175986699322,-0.0013580361846834421,0.001155316364020109,-0.001050157239660621
1729403441.639132,2604,1729403441,636117696,base_link,0.003589950912502706,0.00559520351727186,0.0006393190831654658,-0.0015992089174687862,-0.0011774516897276044,0.0008835273329168559
1729403441.74162,2605,1729403441,738111552,base_link,0.002223362428724947,0.0073288419612229285,-0.0009866190053202466,0.0003890823863912374,0.0006251751910895109,1.197455276269458e-05
1729403441.8394496,2606,1729403441,836108224,base_link,0.0014810213106057556,0.006731455952679987,-0.0008059217613529633,0.00013507518451660872,-0.0005510086193680762,0.0008845647098496557
1729403441.9410586,2607,1729403441,938101824,base_link,0.002891861303168282,0.006059677003055904,0.0008830295480270088,-6.843086157459766e-05,0.0008645702037028968,0.000338226876920089
1729403442.0379248,2608,1729403442,36094912,base_link,0.0038631813711200672,0.005534778700439411,0.003395465371563205,-0.0003094826824963093,-0.00032411832944490016,0.00010076703620143239
1729403442.1410227,2609,1729403442,139088512,base_link,0.005039432380864483,0.004007316203899585,0.005790822760790591,0.0011536282254382968,-0.0003308007144369184,0.0007691023056395352
1729403442.2395542,2610,1729403442,236085952,base_link,0.005602636358300092,0.0034160904494730353,0.008308536392941266,0.0003321868134662509,6.512826075777477e-06,0.0005327746039256454
1729403442.3415885,2611,1729403442,339078784,base_link,0.006524920074113137,0.00047508095424343753,0.009589140009625668,0.0014858937356621027,-0.0014314773725345729,0.0013979600043967368
1729403442.438314,2612,1729403442,436072384,base_link,0.007858781240957593,-0.0010096759458326106,0.011464034655880308,0.0004958598874509335,0.0007110704900696875,0.000563653593417257
1729403442.5409634,2613,1729403442,539065728,base_link,0.008327590295203073,-0.003006122376706639,0.012065012111224176,-0.0008483058772981167,-0.0005566762411035597,0.00031695788493379956
1729403442.6384761,2614,1729403442,636059840,base_link,0.008323442971226537,-0.0046103026819562035,0.012525469172590703,0.0004866037343163043,0.0007694689556956292,0.000806552416179329
1729403442.7415442,2615,1729403442,739053184,base_link,0.007850398025230727,-0.0059757749264521005,0.011190060381496544,-0.0003965077339671552,-0.00011542898573679843,0.0005440915701910853
1729403442.8392591,2616,1729403442,836046528,base_link,0.007997836523029577,-0.008310559481489566,0.01140864215152697,-0.00034455719287507236,0.0010072500444948673,0.0006809922633692621
1729403442.941046,2617,1729403442,939039872,base_link,0.008309069873180898,-0.009439975378107882,0.01022202158878789,0.0010103217791765928,0.001039082882925868,0.0002606079215183853
1729403443.0382314,2618,1729403443,36033728,base_link,0.008579028751612833,-0.009786992611106677,0.00991829703772957,-0.0001270340580958873,-0.0003931458340957762,-0.0006884345784783363
1729403443.1413121,2619,1729403443,139026560,base_link,0.008701296592482758,-0.010019648227306463,0.006706068964193024,0.000906903762370348,0.0006537447916343809,0.0007274921517819165
1729403443.2422996,2620,1729403443,239020416,base_link,0.00903315180328856,-0.010277650218517408,0.005005616787731934,-0.000852659170050174,0.0012517055729404092,6.988170207478091e-05
1729403443.340628,2621,1729403443,338013760,base_link,0.009936896662344378,-0.010631923115339434,0.001619131210828248,0.0007607874576933682,0.0005894926143810152,-0.001124405418522656
1729403443.4415574,2622,1729403443,438007616,base_link,0.01098155935455784,-0.011873337997522224,-0.0005134995049299847,0.00026073711342178285,0.0006454028189182281,0.00036184466443955893
1729403443.5382452,2623,1729403443,536001216,base_link,0.012910988163224614,-0.012030161100890769,-0.001703156495673515,-0.0007464000955224037,-0.0001389905664836989,-0.0009438685956411064
1729403443.6412902,2624,1729403443,637994816,base_link,0.014396000611597425,-0.011632036973163411,-0.0034232338424633932,0.0010843289783224463,0.0006031449884176254,8.750194683670991e-05
1729403443.7414377,2625,1729403443,738988160,base_link,0.015848875899948798,-0.01043677447447277,-0.004222196338591901,-0.0006414692034013569,-0.0007169519667513667,0.001145474729128182
1729403443.841434,2626,1729403443,838981760,base_link,0.01719260660444192,-0.00948700440894388,-0.005054360384978001,-0.0006992039852775633,-0.0005950633203610779,-0.0007354096742346882
1729403443.935561,2627,1729403443,932975616,base_link,0.018879537893109078,-0.00851196139385725,-0.006186737642207287,-0.0006588339456357062,0.0002736333408392965,-0.000300819636322558
1729403444.0384083,2628,1729403444,35969728,base_link,0.01937077850109828,-0.007691157688485533,-0.006502612963661084,0.0013653513742610812,-0.00039187117363326246,0.00035928838769905275
