Time,header.seq,header.stamp.secs,header.stamp.nsecs,header.frame_id,child_frame_id,pose.pose.position.x,pose.pose.position.y,pose.pose.position.z,pose.pose.orientation.x,pose.pose.orientation.y,pose.pose.orientation.z,pose.pose.orientation.w,pose.covariance,twist.twist.linear.x,twist.twist.linear.y,twist.twist.linear.z,twist.twist.angular.x,twist.twist.angular.y,twist.twist.angular.z,twist.covariance
1729403412.2196999,2307,1729403411,924585344,map,base_link,0.22252325739158046,-0.255129543664296,0.364,-0.03911818815216495,0.0181567030666892,-0.3582940729065306,-0.9326121695589703,"(0.8464, 0.0, 0.0, 0.0, 0.0, 0.0, 0.0, 0.8464, 0.0, 0.0, 0.0, 0.0, 0.0, 0.0, 2.5536040000000004, 0.0, 0.0, 0.0, 0.0, 0.0, 0.0, 99999.0, 0.0, 0.0, 0.0, 0.0, 0.0, 0.0, 99999.0, 0.0, 0.0, 0.0, 0.0, 0.0, 0.0, 99999.0)",0.0,0.02,0.0,0.0,0.0,0.0,"(-1.0, 0.0, 0.0, 0.0, 0.0, 0.0, 0.0, 0.0, 0.0, 0.0, 0.0, 0.0, 0.0, 0.0, 0.0, 0.0, 0.0, 0.0, 0.0, 0.0, 0.0, 0.0, 0.0, 0.0, 0.0, 0.0, 0.0, 0.0, 0.0, 0.0, 0.0, 0.0, 0.0, 0.0, 0.0, 0.0)"
1729403412.2199922,2308,1729403412,24579968,map,base_link,0.22252325739158046,-0.255129543664296,0.366,-0.039097245506112016,0.018165682450067194,-0.35831090507008334,-0.932606406091453,"(0.8464, 0.0, 0.0, 0.0, 0.0, 0.0, 0.0, 0.8464, 0.0, 0.0, 0.0, 0.0, 0.0, 0.0, 2.556801, 0.0, 0.0, 0.0, 0.0, 0.0, 0.0, 99999.0, 0.0, 0.0, 0.0, 0.0, 0.0, 0.0, 99999.0, 0.0, 0.0, 0.0, 0.0, 0.0, 0.0, 99999.0)",0.0,0.02,0.0,0.0,0.0,0.0,"(-1.0, 0.0, 0.0, 0.0, 0.0, 0.0, 0.0, 0.0, 0.0, 0.0, 0.0, 0.0, 0.0, 0.0, 0.0, 0.0, 0.0, 0.0, 0.0, 0.0, 0.0, 0.0, 0.0, 0.0, 0.0, 0.0, 0.0, 0.0, 0.0, 0.0, 0.0, 0.0, 0.0, 0.0, 0.0, 0.0)"
1729403412.220277,2309,1729403412,124574592,map,base_link,0.2132514554856174,-0.25512954416884037,0.364,-0.039089822299160366,0.018192331622598985,-0.3583070915405557,-0.9326076629614948,"(0.8464, 0.0, 0.0, 0.0, 0.0, 0.0, 0.0, 0.8464, 0.0, 0.0, 0.0, 0.0, 0.0, 0.0, 2.556801, 0.0, 0.0, 0.0, 0.0, 0.0, 0.0, 99999.0, 0.0, 0.0, 0.0, 0.0, 0.0, 0.0, 99999.0, 0.0, 0.0, 0.0, 0.0, 0.0, 0.0, 99999.0)",-0.01,0.02,0.0,0.0,0.0,0.0,"(-1.0, 0.0, 0.0, 0.0, 0.0, 0.0, 0.0, 0.0, 0.0, 0.0, 0.0, 0.0, 0.0, 0.0, 0.0, 0.0, 0.0, 0.0, 0.0, 0.0, 0.0, 0.0, 0.0, 0.0, 0.0, 0.0, 0.0, 0.0, 0.0, 0.0, 0.0, 0.0, 0.0, 0.0, 0.0, 0.0)"
1729403412.2264788,2310,1729403412,224569216,map,base_link,0.21325145553034872,-0.24403695423283525,0.365,-0.03908393902347966,0.018213071487711688,-0.35831707043226596,-0.9326036707917416,"(0.848241, 0.0, 0.0, 0.0, 0.0, 0.0, 0.0, 0.848241, 0.0, 0.0, 0.0, 0.0, 0.0, 0.0, 2.5600000000000005, 0.0, 0.0, 0.0, 0.0, 0.0, 0.0, 99999.0, 0.0, 0.0, 0.0, 0.0, 0.0, 0.0, 99999.0, 0.0, 0.0, 0.0, 0.0, 0.0, 0.0, 99999.0)",-0.01,0.02,0.0,0.0,0.0,0.0,"(-1.0, 0.0, 0.0, 0.0, 0.0, 0.0, 0.0, 0.0, 0.0, 0.0, 0.0, 0.0, 0.0, 0.0, 0.0, 0.0, 0.0, 0.0, 0.0, 0.0, 0.0, 0.0, 0.0, 0.0, 0.0, 0.0, 0.0, 0.0, 0.0, 0.0, 0.0, 0.0, 0.0, 0.0, 0.0, 0.0)"
1729403412.3273973,2311,1729403412,324563840,map,base_link,0.20397965371460514,-0.2440369545492233,0.371,-0.03904711130023393,0.018206988441789917,-0.35832266688378533,-0.9326031819955791,"(0.848241, 0.0, 0.0, 0.0, 0.0, 0.0, 0.0, 0.848241, 0.0, 0.0, 0.0, 0.0, 0.0, 0.0, 2.5600000000000005, 0.0, 0.0, 0.0, 0.0, 0.0, 0.0, 99999.0, 0.0, 0.0, 0.0, 0.0, 0.0, 0.0, 99999.0, 0.0, 0.0, 0.0, 0.0, 0.0, 0.0, 99999.0)",-0.01,0.02,0.0,0.0,0.0,0.0,"(-1.0, 0.0, 0.0, 0.0, 0.0, 0.0, 0.0, 0.0, 0.0, 0.0, 0.0, 0.0, 0.0, 0.0, 0.0, 0.0, 0.0, 0.0, 0.0, 0.0, 0.0, 0.0, 0.0, 0.0, 0.0, 0.0, 0.0, 0.0, 0.0, 0.0, 0.0, 0.0, 0.0, 0.0, 0.0, 0.0)"
1729403412.426467,2312,1729403412,424559232,map,base_link,0.20397965348730157,-0.23294436605613417,0.375,-0.039033125570904735,0.01817680437301784,-0.3583122256411849,-0.9326083678838677,"(0.851929, 0.0, 0.0, 0.0, 0.0, 0.0, 0.0, 0.851929, 0.0, 0.0, 0.0, 0.0, 0.0, 0.0, 2.5728160000000004, 0.0, 0.0, 0.0, 0.0, 0.0, 0.0, 99999.0, 0.0, 0.0, 0.0, 0.0, 0.0, 0.0, 99999.0, 0.0, 0.0, 0.0, 0.0, 0.0, 0.0, 99999.0)",-0.01,0.02,0.0,0.0,0.0,0.0,"(-1.0, 0.0, 0.0, 0.0, 0.0, 0.0, 0.0, 0.0, 0.0, 0.0, 0.0, 0.0, 0.0, 0.0, 0.0, 0.0, 0.0, 0.0, 0.0, 0.0, 0.0, 0.0, 0.0, 0.0, 0.0, 0.0, 0.0, 0.0, 0.0, 0.0, 0.0, 0.0, 0.0, 0.0, 0.0, 0.0)"
1729403412.526638,2313,1729403412,524556416,map,base_link,0.20397965348730157,-0.23294436605613417,0.379,-0.03907634291460099,0.01816283332024069,-0.3583033092782171,-0.9326102559324985,"(0.851929, 0.0, 0.0, 0.0, 0.0, 0.0, 0.0, 0.851929, 0.0, 0.0, 0.0, 0.0, 0.0, 0.0, 2.5728160000000004, 0.0, 0.0, 0.0, 0.0, 0.0, 0.0, 99999.0, 0.0, 0.0, 0.0, 0.0, 0.0, 0.0, 99999.0, 0.0, 0.0, 0.0, 0.0, 0.0, 0.0, 99999.0)",-0.01,0.02,0.0,0.0,0.0,0.0,"(-1.0, 0.0, 0.0, 0.0, 0.0, 0.0, 0.0, 0.0, 0.0, 0.0, 0.0, 0.0, 0.0, 0.0, 0.0, 0.0, 0.0, 0.0, 0.0, 0.0, 0.0, 0.0, 0.0, 0.0, 0.0, 0.0, 0.0, 0.0, 0.0, 0.0, 0.0, 0.0, 0.0, 0.0, 0.0, 0.0)"
1729403412.6263201,2314,1729403412,624551040,map,base_link,0.2039796538989141,-0.2329443668940625,0.386,-0.03915028177872635,0.018136423325919738,-0.35828450620807334,-0.9326148927595068,"(0.8611840000000001, 0.0, 0.0, 0.0, 0.0, 0.0, 0.0, 0.8611840000000001, 0.0, 0.0, 0.0, 0.0, 0.0, 0.0, 2.5921000000000003, 0.0, 0.0, 0.0, 0.0, 0.0, 0.0, 99999.0, 0.0, 0.0, 0.0, 0.0, 0.0, 0.0, 99999.0, 0.0, 0.0, 0.0, 0.0, 0.0, 0.0, 99999.0)",-0.01,0.02,0.0,0.0,0.0,0.0,"(-1.0, 0.0, 0.0, 0.0, 0.0, 0.0, 0.0, 0.0, 0.0, 0.0, 0.0, 0.0, 0.0, 0.0, 0.0, 0.0, 0.0, 0.0, 0.0, 0.0, 0.0, 0.0, 0.0, 0.0, 0.0, 0.0, 0.0, 0.0, 0.0, 0.0, 0.0, 0.0, 0.0, 0.0, 0.0, 0.0)"
1729403412.7266781,2315,1729403412,724546688,map,base_link,0.20397965426116843,-0.23294436720008252,0.39,-0.03919594896030582,0.018124419623019073,-0.3582804158185578,-0.9326147793378095,"(0.8611840000000001, 0.0, 0.0, 0.0, 0.0, 0.0, 0.0, 0.8611840000000001, 0.0, 0.0, 0.0, 0.0, 0.0, 0.0, 2.5921000000000003, 0.0, 0.0, 0.0, 0.0, 0.0, 0.0, 99999.0, 0.0, 0.0, 0.0, 0.0, 0.0, 0.0, 99999.0, 0.0, 0.0, 0.0, 0.0, 0.0, 0.0, 99999.0)",0.0,0.02,0.0,0.0,0.0,0.0,"(-1.0, 0.0, 0.0, 0.0, 0.0, 0.0, 0.0, 0.0, 0.0, 0.0, 0.0, 0.0, 0.0, 0.0, 0.0, 0.0, 0.0, 0.0, 0.0, 0.0, 0.0, 0.0, 0.0, 0.0, 0.0, 0.0, 0.0, 0.0, 0.0, 0.0, 0.0, 0.0, 0.0, 0.0, 0.0, 0.0)"
1729403412.8265152,2316,1729403412,824543616,map,base_link,0.20397965426116843,-0.23294436720008252,0.392,-0.039222620336646495,0.018155690531790704,-0.35831203770253467,-0.9326009010250302,"(0.8723560000000001, 0.0, 0.0, 0.0, 0.0, 0.0, 0.0, 0.8723560000000001, 0.0, 0.0, 0.0, 0.0, 0.0, 0.0, 2.6114560000000004, 0.0, 0.0, 0.0, 0.0, 0.0, 0.0, 99999.0, 0.0, 0.0, 0.0, 0.0, 0.0, 0.0, 99999.0, 0.0, 0.0, 0.0, 0.0, 0.0, 0.0, 99999.0)",0.0,0.02,0.0,0.0,0.0,0.0,"(-1.0, 0.0, 0.0, 0.0, 0.0, 0.0, 0.0, 0.0, 0.0, 0.0, 0.0, 0.0, 0.0, 0.0, 0.0, 0.0, 0.0, 0.0, 0.0, 0.0, 0.0, 0.0, 0.0, 0.0, 0.0, 0.0, 0.0, 0.0, 0.0, 0.0, 0.0, 0.0, 0.0, 0.0, 0.0, 0.0)"
1729403412.9280934,2317,1729403412,924539520,map,base_link,0.20397965426116843,-0.23294436720008252,0.392,-0.03923380978349131,0.018164297488117487,-0.35832482834652185,-0.9325953483998682,"(0.8723560000000001, 0.0, 0.0, 0.0, 0.0, 0.0, 0.0, 0.8723560000000001, 0.0, 0.0, 0.0, 0.0, 0.0, 0.0, 2.6114560000000004, 0.0, 0.0, 0.0, 0.0, 0.0, 0.0, 99999.0, 0.0, 0.0, 0.0, 0.0, 0.0, 0.0, 99999.0, 0.0, 0.0, 0.0, 0.0, 0.0, 0.0, 99999.0)",0.0,0.02,0.0,0.0,0.0,0.0,"(-1.0, 0.0, 0.0, 0.0, 0.0, 0.0, 0.0, 0.0, 0.0, 0.0, 0.0, 0.0, 0.0, 0.0, 0.0, 0.0, 0.0, 0.0, 0.0, 0.0, 0.0, 0.0, 0.0, 0.0, 0.0, 0.0, 0.0, 0.0, 0.0, 0.0, 0.0, 0.0, 0.0, 0.0, 0.0, 0.0)"
1729403413.028352,2318,1729403413,24531584,map,base_link,0.20397965426116843,-0.23294436720008252,0.392,-0.039234578470342625,0.018165252243541815,-0.35834058536486785,-0.9325892430987754,"(0.8779690000000001, 0.0, 0.0, 0.0, 0.0, 0.0, 0.0, 0.8779690000000001, 0.0, 0.0, 0.0, 0.0, 0.0, 0.0, 2.6244000000000005, 0.0, 0.0, 0.0, 0.0, 0.0, 0.0, 99999.0, 0.0, 0.0, 0.0, 0.0, 0.0, 0.0, 99999.0, 0.0, 0.0, 0.0, 0.0, 0.0, 0.0, 99999.0)",0.0,0.01,0.0,0.0,0.0,0.0,"(-1.0, 0.0, 0.0, 0.0, 0.0, 0.0, 0.0, 0.0, 0.0, 0.0, 0.0, 0.0, 0.0, 0.0, 0.0, 0.0, 0.0, 0.0, 0.0, 0.0, 0.0, 0.0, 0.0, 0.0, 0.0, 0.0, 0.0, 0.0, 0.0, 0.0, 0.0, 0.0, 0.0, 0.0, 0.0, 0.0)"
1729403413.1283946,2319,1729403413,124526464,map,base_link,0.2039796538989141,-0.2329443668940625,0.389,-0.03924263691011256,0.018190344029508497,-0.3583569329279504,-0.9325821333560393,"(0.8779690000000001, 0.0, 0.0, 0.0, 0.0, 0.0, 0.0, 0.8779690000000001, 0.0, 0.0, 0.0, 0.0, 0.0, 0.0, 2.6244000000000005, 0.0, 0.0, 0.0, 0.0, 0.0, 0.0, 99999.0, 0.0, 0.0, 0.0, 0.0, 0.0, 0.0, 99999.0, 0.0, 0.0, 0.0, 0.0, 0.0, 0.0, 99999.0)",-0.01,0.01,0.0,0.0,0.0,0.0,"(-1.0, 0.0, 0.0, 0.0, 0.0, 0.0, 0.0, 0.0, 0.0, 0.0, 0.0, 0.0, 0.0, 0.0, 0.0, 0.0, 0.0, 0.0, 0.0, 0.0, 0.0, 0.0, 0.0, 0.0, 0.0, 0.0, 0.0, 0.0, 0.0, 0.0, 0.0, 0.0, 0.0, 0.0, 0.0, 0.0)"
1729403413.2283401,2320,1729403413,224524160,map,base_link,0.2039796538989141,-0.2329443668940625,0.388,-0.03925342153064239,0.01821104668014316,-0.3583652422981229,-0.9325780824089527,"(0.8817209999999999, 0.0, 0.0, 0.0, 0.0, 0.0, 0.0, 0.8817209999999999, 0.0, 0.0, 0.0, 0.0, 0.0, 0.0, 2.637376, 0.0, 0.0, 0.0, 0.0, 0.0, 0.0, 99999.0, 0.0, 0.0, 0.0, 0.0, 0.0, 0.0, 99999.0, 0.0, 0.0, 0.0, 0.0, 0.0, 0.0, 99999.0)",-0.01,0.01,0.0,0.0,0.0,0.0,"(-1.0, 0.0, 0.0, 0.0, 0.0, 0.0, 0.0, 0.0, 0.0, 0.0, 0.0, 0.0, 0.0, 0.0, 0.0, 0.0, 0.0, 0.0, 0.0, 0.0, 0.0, 0.0, 0.0, 0.0, 0.0, 0.0, 0.0, 0.0, 0.0, 0.0, 0.0, 0.0, 0.0, 0.0, 0.0, 0.0)"
1729403413.3277676,2321,1729403413,324519040,map,base_link,0.19470785060753257,-0.23294436670567298,0.382,-0.039246513976428185,0.018244051090141614,-0.3583776759563184,-0.9325729500241073,"(0.8817209999999999, 0.0, 0.0, 0.0, 0.0, 0.0, 0.0, 0.8817209999999999, 0.0, 0.0, 0.0, 0.0, 0.0, 0.0, 2.637376, 0.0, 0.0, 0.0, 0.0, 0.0, 0.0, 99999.0, 0.0, 0.0, 0.0, 0.0, 0.0, 0.0, 99999.0, 0.0, 0.0, 0.0, 0.0, 0.0, 0.0, 99999.0)",-0.01,0.01,0.0,0.0,0.0,0.0,"(-1.0, 0.0, 0.0, 0.0, 0.0, 0.0, 0.0, 0.0, 0.0, 0.0, 0.0, 0.0, 0.0, 0.0, 0.0, 0.0, 0.0, 0.0, 0.0, 0.0, 0.0, 0.0, 0.0, 0.0, 0.0, 0.0, 0.0, 0.0, 0.0, 0.0, 0.0, 0.0, 0.0, 0.0, 0.0, 0.0)"
1729403413.4283571,2322,1729403413,424516480,map,base_link,0.19470785046795494,-0.2329443667493393,0.374,-0.039241554833596676,0.018270987280974114,-0.35838170373686123,-0.9325710835237628,"(0.8854809999999999, 0.0, 0.0, 0.0, 0.0, 0.0, 0.0, 0.8854809999999999, 0.0, 0.0, 0.0, 0.0, 0.0, 0.0, 2.650384, 0.0, 0.0, 0.0, 0.0, 0.0, 0.0, 99999.0, 0.0, 0.0, 0.0, 0.0, 0.0, 0.0, 99999.0, 0.0, 0.0, 0.0, 0.0, 0.0, 0.0, 99999.0)",-0.01,0.01,0.0,0.0,0.0,0.0,"(-1.0, 0.0, 0.0, 0.0, 0.0, 0.0, 0.0, 0.0, 0.0, 0.0, 0.0, 0.0, 0.0, 0.0, 0.0, 0.0, 0.0, 0.0, 0.0, 0.0, 0.0, 0.0, 0.0, 0.0, 0.0, 0.0, 0.0, 0.0, 0.0, 0.0, 0.0, 0.0, 0.0, 0.0, 0.0, 0.0)"
1729403413.5269063,2323,1729403413,524511360,map,base_link,0.18543604802641897,-0.2329443667426673,0.366,-0.03923424692554949,0.018299193810793785,-0.3583899955287814,-0.9325676514221048,"(0.8854809999999999, 0.0, 0.0, 0.0, 0.0, 0.0, 0.0, 0.8854809999999999, 0.0, 0.0, 0.0, 0.0, 0.0, 0.0, 2.650384, 0.0, 0.0, 0.0, 0.0, 0.0, 0.0, 99999.0, 0.0, 0.0, 0.0, 0.0, 0.0, 0.0, 99999.0, 0.0, 0.0, 0.0, 0.0, 0.0, 0.0, 99999.0)",-0.01,0.01,0.0,0.0,0.0,0.0,"(-1.0, 0.0, 0.0, 0.0, 0.0, 0.0, 0.0, 0.0, 0.0, 0.0, 0.0, 0.0, 0.0, 0.0, 0.0, 0.0, 0.0, 0.0, 0.0, 0.0, 0.0, 0.0, 0.0, 0.0, 0.0, 0.0, 0.0, 0.0, 0.0, 0.0, 0.0, 0.0, 0.0, 0.0, 0.0, 0.0)"
1729403413.6275082,2324,1729403413,624506752,map,base_link,0.18543604766416463,-0.23294436643664734,0.352,-0.03922563863702035,0.01831314364298505,-0.3583913149996669,-0.9325672326305694,"(0.8873639999999999, 0.0, 0.0, 0.0, 0.0, 0.0, 0.0, 0.8873639999999999, 0.0, 0.0, 0.0, 0.0, 0.0, 0.0, 2.660161, 0.0, 0.0, 0.0, 0.0, 0.0, 0.0, 99999.0, 0.0, 0.0, 0.0, 0.0, 0.0, 0.0, 99999.0, 0.0, 0.0, 0.0, 0.0, 0.0, 0.0, 99999.0)",-0.01,0.01,0.0,0.0,0.0,0.0,"(-1.0, 0.0, 0.0, 0.0, 0.0, 0.0, 0.0, 0.0, 0.0, 0.0, 0.0, 0.0, 0.0, 0.0, 0.0, 0.0, 0.0, 0.0, 0.0, 0.0, 0.0, 0.0, 0.0, 0.0, 0.0, 0.0, 0.0, 0.0, 0.0, 0.0, 0.0, 0.0, 0.0, 0.0, 0.0, 0.0)"
1729403413.7278411,2325,1729403413,724503424,map,base_link,0.18543604730191027,-0.23294436574320893,0.346,-0.039255042957568584,0.01831220627777378,-0.35840202120565573,-0.9325618992320781,"(0.8873639999999999, 0.0, 0.0, 0.0, 0.0, 0.0, 0.0, 0.8873639999999999, 0.0, 0.0, 0.0, 0.0, 0.0, 0.0, 2.660161, 0.0, 0.0, 0.0, 0.0, 0.0, 0.0, 99999.0, 0.0, 0.0, 0.0, 0.0, 0.0, 0.0, 99999.0, 0.0, 0.0, 0.0, 0.0, 0.0, 0.0, 99999.0)",-0.01,0.01,0.0,0.0,0.0,0.0,"(-1.0, 0.0, 0.0, 0.0, 0.0, 0.0, 0.0, 0.0, 0.0, 0.0, 0.0, 0.0, 0.0, 0.0, 0.0, 0.0, 0.0, 0.0, 0.0, 0.0, 0.0, 0.0, 0.0, 0.0, 0.0, 0.0, 0.0, 0.0, 0.0, 0.0, 0.0, 0.0, 0.0, 0.0, 0.0, 0.0)"
1729403413.8274062,2326,1729403413,824499840,map,base_link,0.18543604730191027,-0.23294436574320893,0.345,-0.039294992374052554,0.01828403369925645,-0.35841260672383435,-0.9325567012398943,"(0.8911359999999999, 0.0, 0.0, 0.0, 0.0, 0.0, 0.0, 0.8911359999999999, 0.0, 0.0, 0.0, 0.0, 0.0, 0.0, 2.673225, 0.0, 0.0, 0.0, 0.0, 0.0, 0.0, 99999.0, 0.0, 0.0, 0.0, 0.0, 0.0, 0.0, 99999.0, 0.0, 0.0, 0.0, 0.0, 0.0, 0.0, 99999.0)",-0.01,0.01,0.0,0.0,0.0,0.0,"(-1.0, 0.0, 0.0, 0.0, 0.0, 0.0, 0.0, 0.0, 0.0, 0.0, 0.0, 0.0, 0.0, 0.0, 0.0, 0.0, 0.0, 0.0, 0.0, 0.0, 0.0, 0.0, 0.0, 0.0, 0.0, 0.0, 0.0, 0.0, 0.0, 0.0, 0.0, 0.0, 0.0, 0.0, 0.0, 0.0)"
1729403413.9279609,2327,1729403413,924496512,map,base_link,0.18543604766416463,-0.23294436643664734,0.356,-0.039355183476736465,0.018250619697929158,-0.35842586148582567,-0.9325497231956577,"(0.8911359999999999, 0.0, 0.0, 0.0, 0.0, 0.0, 0.0, 0.8911359999999999, 0.0, 0.0, 0.0, 0.0, 0.0, 0.0, 2.673225, 0.0, 0.0, 0.0, 0.0, 0.0, 0.0, 99999.0, 0.0, 0.0, 0.0, 0.0, 0.0, 0.0, 99999.0, 0.0, 0.0, 0.0, 0.0, 0.0, 0.0, 99999.0)",-0.01,0.01,0.0,0.0,0.0,0.0,"(-1.0, 0.0, 0.0, 0.0, 0.0, 0.0, 0.0, 0.0, 0.0, 0.0, 0.0, 0.0, 0.0, 0.0, 0.0, 0.0, 0.0, 0.0, 0.0, 0.0, 0.0, 0.0, 0.0, 0.0, 0.0, 0.0, 0.0, 0.0, 0.0, 0.0, 0.0, 0.0, 0.0, 0.0, 0.0, 0.0)"
1729403414.027563,2328,1729403414,25492928,map,base_link,0.18543604802641897,-0.2329443667426673,0.367,-0.03943978007722318,0.018215230194145438,-0.35843407462086413,-0.9325436843854122,"(0.8949159999999999, 0.0, 0.0, 0.0, 0.0, 0.0, 0.0, 0.8949159999999999, 0.0, 0.0, 0.0, 0.0, 0.0, 0.0, 2.686321, 0.0, 0.0, 0.0, 0.0, 0.0, 0.0, 99999.0, 0.0, 0.0, 0.0, 0.0, 0.0, 0.0, 99999.0, 0.0, 0.0, 0.0, 0.0, 0.0, 0.0, 99999.0)",-0.01,0.0,0.0,0.0,0.0,0.0,"(-1.0, 0.0, 0.0, 0.0, 0.0, 0.0, 0.0, 0.0, 0.0, 0.0, 0.0, 0.0, 0.0, 0.0, 0.0, 0.0, 0.0, 0.0, 0.0, 0.0, 0.0, 0.0, 0.0, 0.0, 0.0, 0.0, 0.0, 0.0, 0.0, 0.0, 0.0, 0.0, 0.0, 0.0, 0.0, 0.0)"
1729403414.1279144,2329,1729403414,124489088,map,base_link,0.1854360483886733,-0.2329443670486873,0.378,-0.03947657605231235,0.018210013388351234,-0.3584318214470137,-0.9325430953740197,"(0.8949159999999999, 0.0, 0.0, 0.0, 0.0, 0.0, 0.0, 0.8949159999999999, 0.0, 0.0, 0.0, 0.0, 0.0, 0.0, 2.686321, 0.0, 0.0, 0.0, 0.0, 0.0, 0.0, 99999.0, 0.0, 0.0, 0.0, 0.0, 0.0, 0.0, 99999.0, 0.0, 0.0, 0.0, 0.0, 0.0, 0.0, 99999.0)",-0.01,0.0,0.0,0.0,0.0,0.0,"(-1.0, 0.0, 0.0, 0.0, 0.0, 0.0, 0.0, 0.0, 0.0, 0.0, 0.0, 0.0, 0.0, 0.0, 0.0, 0.0, 0.0, 0.0, 0.0, 0.0, 0.0, 0.0, 0.0, 0.0, 0.0, 0.0, 0.0, 0.0, 0.0, 0.0, 0.0, 0.0, 0.0, 0.0, 0.0, 0.0)"
1729403414.2291818,2330,1729403414,224485760,map,base_link,0.18543604847889278,-0.23294436686053105,0.389,-0.039471863306718306,0.018203273626643368,-0.3584406518496567,-0.9325400323514066,"(0.898704, 0.0, 0.0, 0.0, 0.0, 0.0, 0.0, 0.898704, 0.0, 0.0, 0.0, 0.0, 0.0, 0.0, 2.6961639999999996, 0.0, 0.0, 0.0, 0.0, 0.0, 0.0, 99999.0, 0.0, 0.0, 0.0, 0.0, 0.0, 0.0, 99999.0, 0.0, 0.0, 0.0, 0.0, 0.0, 0.0, 99999.0)",-0.01,0.0,-0.01,0.0,0.0,0.0,"(-1.0, 0.0, 0.0, 0.0, 0.0, 0.0, 0.0, 0.0, 0.0, 0.0, 0.0, 0.0, 0.0, 0.0, 0.0, 0.0, 0.0, 0.0, 0.0, 0.0, 0.0, 0.0, 0.0, 0.0, 0.0, 0.0, 0.0, 0.0, 0.0, 0.0, 0.0, 0.0, 0.0, 0.0, 0.0, 0.0)"
1729403414.327288,2331,1729403414,324482176,map,base_link,0.18543604884114714,-0.23294436755396947,0.398,-0.03944255580922319,0.01819087845416452,-0.35844368899021545,-0.9325403468780253,"(0.898704, 0.0, 0.0, 0.0, 0.0, 0.0, 0.0, 0.898704, 0.0, 0.0, 0.0, 0.0, 0.0, 0.0, 2.6961639999999996, 0.0, 0.0, 0.0, 0.0, 0.0, 0.0, 99999.0, 0.0, 0.0, 0.0, 0.0, 0.0, 0.0, 99999.0, 0.0, 0.0, 0.0, 0.0, 0.0, 0.0, 99999.0)",0.0,0.0,-0.01,0.0,0.0,0.0,"(-1.0, 0.0, 0.0, 0.0, 0.0, 0.0, 0.0, 0.0, 0.0, 0.0, 0.0, 0.0, 0.0, 0.0, 0.0, 0.0, 0.0, 0.0, 0.0, 0.0, 0.0, 0.0, 0.0, 0.0, 0.0, 0.0, 0.0, 0.0, 0.0, 0.0, 0.0, 0.0, 0.0, 0.0, 0.0, 0.0)"
1729403414.427227,2332,1729403414,424478848,map,base_link,0.1854360492034015,-0.2329443682474079,0.405,-0.03942126365122598,0.01818367872426502,-0.3584604125386666,-0.932534959367638,"(0.9006009999999999, 0.0, 0.0, 0.0, 0.0, 0.0, 0.0, 0.9006009999999999, 0.0, 0.0, 0.0, 0.0, 0.0, 0.0, 2.709316, 0.0, 0.0, 0.0, 0.0, 0.0, 0.0, 99999.0, 0.0, 0.0, 0.0, 0.0, 0.0, 0.0, 99999.0, 0.0, 0.0, 0.0, 0.0, 0.0, 0.0, 99999.0)",0.0,0.0,-0.01,0.0,0.0,0.0,"(-1.0, 0.0, 0.0, 0.0, 0.0, 0.0, 0.0, 0.0, 0.0, 0.0, 0.0, 0.0, 0.0, 0.0, 0.0, 0.0, 0.0, 0.0, 0.0, 0.0, 0.0, 0.0, 0.0, 0.0, 0.0, 0.0, 0.0, 0.0, 0.0, 0.0, 0.0, 0.0, 0.0, 0.0, 0.0, 0.0)"
1729403414.527691,2333,1729403414,524475776,map,base_link,0.1854360495162977,-0.2329443680215195,0.411,-0.03938368168624469,0.018163757321581715,-0.3584767768903115,-0.9325306450552351,"(0.9006009999999999, 0.0, 0.0, 0.0, 0.0, 0.0, 0.0, 0.9006009999999999, 0.0, 0.0, 0.0, 0.0, 0.0, 0.0, 2.709316, 0.0, 0.0, 0.0, 0.0, 0.0, 0.0, 99999.0, 0.0, 0.0, 0.0, 0.0, 0.0, 0.0, 99999.0, 0.0, 0.0, 0.0, 0.0, 0.0, 0.0, 99999.0)",0.0,0.0,-0.01,0.0,0.0,0.0,"(-1.0, 0.0, 0.0, 0.0, 0.0, 0.0, 0.0, 0.0, 0.0, 0.0, 0.0, 0.0, 0.0, 0.0, 0.0, 0.0, 0.0, 0.0, 0.0, 0.0, 0.0, 0.0, 0.0, 0.0, 0.0, 0.0, 0.0, 0.0, 0.0, 0.0, 0.0, 0.0, 0.0, 0.0, 0.0, 0.0)"
1729403414.6269944,2334,1729403414,624472704,map,base_link,0.1854360495162977,-0.2329443680215195,0.413,-0.03937454657298703,0.018135334077114422,-0.35848996714397785,-0.9325265134017331,"(0.9044009999999999, 0.0, 0.0, 0.0, 0.0, 0.0, 0.0, 0.9044009999999999, 0.0, 0.0, 0.0, 0.0, 0.0, 0.0, 2.719201, 0.0, 0.0, 0.0, 0.0, 0.0, 0.0, 99999.0, 0.0, 0.0, 0.0, 0.0, 0.0, 0.0, 99999.0, 0.0, 0.0, 0.0, 0.0, 0.0, 0.0, 99999.0)",0.0,0.0,-0.01,0.0,0.0,0.0,"(-1.0, 0.0, 0.0, 0.0, 0.0, 0.0, 0.0, 0.0, 0.0, 0.0, 0.0, 0.0, 0.0, 0.0, 0.0, 0.0, 0.0, 0.0, 0.0, 0.0, 0.0, 0.0, 0.0, 0.0, 0.0, 0.0, 0.0, 0.0, 0.0, 0.0, 0.0, 0.0, 0.0, 0.0, 0.0, 0.0)"
1729403414.72826,2335,1729403414,724468608,map,base_link,0.18543604911567554,-0.22185177932323397,0.418,-0.0393785554881852,0.018152170774732884,-0.3585188442201551,-0.9325149148420486,"(0.9044009999999999, 0.0, 0.0, 0.0, 0.0, 0.0, 0.0, 0.9044009999999999, 0.0, 0.0, 0.0, 0.0, 0.0, 0.0, 2.719201, 0.0, 0.0, 0.0, 0.0, 0.0, 0.0, 99999.0, 0.0, 0.0, 0.0, 0.0, 0.0, 0.0, 99999.0, 0.0, 0.0, 0.0, 0.0, 0.0, 0.0, 99999.0)",0.0,0.0,-0.01,0.0,0.0,0.0,"(-1.0, 0.0, 0.0, 0.0, 0.0, 0.0, 0.0, 0.0, 0.0, 0.0, 0.0, 0.0, 0.0, 0.0, 0.0, 0.0, 0.0, 0.0, 0.0, 0.0, 0.0, 0.0, 0.0, 0.0, 0.0, 0.0, 0.0, 0.0, 0.0, 0.0, 0.0, 0.0, 0.0, 0.0, 0.0, 0.0)"
1729403414.8284729,2336,1729403414,824464512,map,base_link,0.17616424663190183,-0.22185177975281856,0.422,-0.03938246997285239,0.01816203120601681,-0.3585309227623879,-0.9325099136762351,"(0.9082089999999999, 0.0, 0.0, 0.0, 0.0, 0.0, 0.0, 0.9082089999999999, 0.0, 0.0, 0.0, 0.0, 0.0, 0.0, 2.732409, 0.0, 0.0, 0.0, 0.0, 0.0, 0.0, 99999.0, 0.0, 0.0, 0.0, 0.0, 0.0, 0.0, 99999.0, 0.0, 0.0, 0.0, 0.0, 0.0, 0.0, 99999.0)",0.0,0.0,-0.01,0.0,0.0,0.0,"(-1.0, 0.0, 0.0, 0.0, 0.0, 0.0, 0.0, 0.0, 0.0, 0.0, 0.0, 0.0, 0.0, 0.0, 0.0, 0.0, 0.0, 0.0, 0.0, 0.0, 0.0, 0.0, 0.0, 0.0, 0.0, 0.0, 0.0, 0.0, 0.0, 0.0, 0.0, 0.0, 0.0, 0.0, 0.0, 0.0)"
1729403414.9280248,2337,1729403414,924463232,map,base_link,0.17616424663190183,-0.22185177975281856,0.425,-0.03938512468293737,0.018163095627949336,-0.3585378305701507,-0.9325071248848286,"(0.9082089999999999, 0.0, 0.0, 0.0, 0.0, 0.0, 0.0, 0.9082089999999999, 0.0, 0.0, 0.0, 0.0, 0.0, 0.0, 2.732409, 0.0, 0.0, 0.0, 0.0, 0.0, 0.0, 99999.0, 0.0, 0.0, 0.0, 0.0, 0.0, 0.0, 99999.0, 0.0, 0.0, 0.0, 0.0, 0.0, 0.0, 99999.0)",0.0,0.0,-0.01,0.0,0.0,0.0,"(-1.0, 0.0, 0.0, 0.0, 0.0, 0.0, 0.0, 0.0, 0.0, 0.0, 0.0, 0.0, 0.0, 0.0, 0.0, 0.0, 0.0, 0.0, 0.0, 0.0, 0.0, 0.0, 0.0, 0.0, 0.0, 0.0, 0.0, 0.0, 0.0, 0.0, 0.0, 0.0, 0.0, 0.0, 0.0, 0.0)"
1729403415.0273042,2338,1729403415,24458880,map,base_link,0.16689244469219783,-0.22185178078333717,0.433,-0.039376350950080664,0.018177086222873867,-0.3585454305517865,-0.9325043006617914,"(0.9101159999999999, 0.0, 0.0, 0.0, 0.0, 0.0, 0.0, 0.9101159999999999, 0.0, 0.0, 0.0, 0.0, 0.0, 0.0, 2.742336, 0.0, 0.0, 0.0, 0.0, 0.0, 0.0, 99999.0, 0.0, 0.0, 0.0, 0.0, 0.0, 0.0, 99999.0, 0.0, 0.0, 0.0, 0.0, 0.0, 0.0, 99999.0)",-0.01,0.0,-0.02,0.0,0.0,0.0,"(-1.0, 0.0, 0.0, 0.0, 0.0, 0.0, 0.0, 0.0, 0.0, 0.0, 0.0, 0.0, 0.0, 0.0, 0.0, 0.0, 0.0, 0.0, 0.0, 0.0, 0.0, 0.0, 0.0, 0.0, 0.0, 0.0, 0.0, 0.0, 0.0, 0.0, 0.0, 0.0, 0.0, 0.0, 0.0, 0.0)"
1729403415.1283193,2339,1729403415,124454784,map,base_link,0.16689244473305917,-0.22185178045069098,0.446,-0.039373785654006156,0.01814695799815456,-0.3585717343363195,-0.9324948816233415,"(0.9101159999999999, 0.0, 0.0, 0.0, 0.0, 0.0, 0.0, 0.9101159999999999, 0.0, 0.0, 0.0, 0.0, 0.0, 0.0, 2.742336, 0.0, 0.0, 0.0, 0.0, 0.0, 0.0, 99999.0, 0.0, 0.0, 0.0, 0.0, 0.0, 0.0, 99999.0, 0.0, 0.0, 0.0, 0.0, 0.0, 0.0, 99999.0)",-0.01,0.0,-0.02,0.0,0.0,0.0,"(-1.0, 0.0, 0.0, 0.0, 0.0, 0.0, 0.0, 0.0, 0.0, 0.0, 0.0, 0.0, 0.0, 0.0, 0.0, 0.0, 0.0, 0.0, 0.0, 0.0, 0.0, 0.0, 0.0, 0.0, 0.0, 0.0, 0.0, 0.0, 0.0, 0.0, 0.0, 0.0, 0.0, 0.0, 0.0, 0.0)"
1729403415.2280598,2340,1729403415,224453504,map,base_link,0.1668924450953135,-0.22185178075671097,0.455,-0.03941138434632276,0.018101338079572055,-0.3585962323889268,-0.9324847593714884,"(0.913936, 0.0, 0.0, 0.0, 0.0, 0.0, 0.0, 0.913936, 0.0, 0.0, 0.0, 0.0, 0.0, 0.0, 2.7556, 0.0, 0.0, 0.0, 0.0, 0.0, 0.0, 99999.0, 0.0, 0.0, 0.0, 0.0, 0.0, 0.0, 99999.0, 0.0, 0.0, 0.0, 0.0, 0.0, 0.0, 99999.0)",0.0,0.0,-0.02,0.0,0.0,0.0,"(-1.0, 0.0, 0.0, 0.0, 0.0, 0.0, 0.0, 0.0, 0.0, 0.0, 0.0, 0.0, 0.0, 0.0, 0.0, 0.0, 0.0, 0.0, 0.0, 0.0, 0.0, 0.0, 0.0, 0.0, 0.0, 0.0, 0.0, 0.0, 0.0, 0.0, 0.0, 0.0, 0.0, 0.0, 0.0, 0.0)"
1729403415.3293357,2341,1729403415,324449408,map,base_link,0.16689244545756785,-0.22185178145014936,0.462,-0.03943465309220461,0.018092423315862,-0.3586048820429876,-0.9324806222806948,"(0.913936, 0.0, 0.0, 0.0, 0.0, 0.0, 0.0, 0.913936, 0.0, 0.0, 0.0, 0.0, 0.0, 0.0, 2.7556, 0.0, 0.0, 0.0, 0.0, 0.0, 0.0, 99999.0, 0.0, 0.0, 0.0, 0.0, 0.0, 0.0, 99999.0, 0.0, 0.0, 0.0, 0.0, 0.0, 0.0, 99999.0)",0.0,0.0,-0.02,0.0,0.0,0.0,"(-1.0, 0.0, 0.0, 0.0, 0.0, 0.0, 0.0, 0.0, 0.0, 0.0, 0.0, 0.0, 0.0, 0.0, 0.0, 0.0, 0.0, 0.0, 0.0, 0.0, 0.0, 0.0, 0.0, 0.0, 0.0, 0.0, 0.0, 0.0, 0.0, 0.0, 0.0, 0.0, 0.0, 0.0, 0.0, 0.0)"
1729403415.4284356,2342,1729403415,424445568,map,base_link,0.16689244545756785,-0.22185178145014936,0.469,-0.03944988770418898,0.018078421094743245,-0.35859929114068323,-0.9324823995359093,"(0.9177639999999999, 0.0, 0.0, 0.0, 0.0, 0.0, 0.0, 0.9177639999999999, 0.0, 0.0, 0.0, 0.0, 0.0, 0.0, 2.765569, 0.0, 0.0, 0.0, 0.0, 0.0, 0.0, 99999.0, 0.0, 0.0, 0.0, 0.0, 0.0, 0.0, 99999.0, 0.0, 0.0, 0.0, 0.0, 0.0, 0.0, 99999.0)",0.0,0.0,-0.02,0.0,0.0,0.0,"(-1.0, 0.0, 0.0, 0.0, 0.0, 0.0, 0.0, 0.0, 0.0, 0.0, 0.0, 0.0, 0.0, 0.0, 0.0, 0.0, 0.0, 0.0, 0.0, 0.0, 0.0, 0.0, 0.0, 0.0, 0.0, 0.0, 0.0, 0.0, 0.0, 0.0, 0.0, 0.0, 0.0, 0.0, 0.0, 0.0)"
1729403415.5279057,2343,1729403415,524442752,map,base_link,0.16689244564650363,-0.22185178232580988,0.475,-0.039480688913977054,0.01808752455982695,-0.35858625175677783,-0.9324859337862423,"(0.9177639999999999, 0.0, 0.0, 0.0, 0.0, 0.0, 0.0, 0.9177639999999999, 0.0, 0.0, 0.0, 0.0, 0.0, 0.0, 2.765569, 0.0, 0.0, 0.0, 0.0, 0.0, 0.0, 99999.0, 0.0, 0.0, 0.0, 0.0, 0.0, 0.0, 99999.0, 0.0, 0.0, 0.0, 0.0, 0.0, 0.0, 99999.0)",0.0,0.0,-0.03,0.0,0.0,0.0,"(-1.0, 0.0, 0.0, 0.0, 0.0, 0.0, 0.0, 0.0, 0.0, 0.0, 0.0, 0.0, 0.0, 0.0, 0.0, 0.0, 0.0, 0.0, 0.0, 0.0, 0.0, 0.0, 0.0, 0.0, 0.0, 0.0, 0.0, 0.0, 0.0, 0.0, 0.0, 0.0, 0.0, 0.0, 0.0, 0.0)"
1729403415.6276937,2344,1729403415,624437376,map,base_link,0.16689244564650363,-0.22185178232580988,0.475,-0.03949421621322303,0.01808914886096613,-0.3585780766557433,-0.9324884731303956,"(0.919681, 0.0, 0.0, 0.0, 0.0, 0.0, 0.0, 0.919681, 0.0, 0.0, 0.0, 0.0, 0.0, 0.0, 2.778889, 0.0, 0.0, 0.0, 0.0, 0.0, 0.0, 99999.0, 0.0, 0.0, 0.0, 0.0, 0.0, 0.0, 99999.0, 0.0, 0.0, 0.0, 0.0, 0.0, 0.0, 99999.0)",0.0,0.0,-0.03,0.0,0.0,0.0,"(-1.0, 0.0, 0.0, 0.0, 0.0, 0.0, 0.0, 0.0, 0.0, 0.0, 0.0, 0.0, 0.0, 0.0, 0.0, 0.0, 0.0, 0.0, 0.0, 0.0, 0.0, 0.0, 0.0, 0.0, 0.0, 0.0, 0.0, 0.0, 0.0, 0.0, 0.0, 0.0, 0.0, 0.0, 0.0, 0.0)"
1729403415.7274487,2345,1729403415,724432256,map,base_link,0.16689244545756785,-0.22185178145014936,0.468,-0.039508523397882245,0.018102061091864942,-0.3585732246278258,-0.9324894822694507,"(0.919681, 0.0, 0.0, 0.0, 0.0, 0.0, 0.0, 0.919681, 0.0, 0.0, 0.0, 0.0, 0.0, 0.0, 2.778889, 0.0, 0.0, 0.0, 0.0, 0.0, 0.0, 99999.0, 0.0, 0.0, 0.0, 0.0, 0.0, 0.0, 99999.0, 0.0, 0.0, 0.0, 0.0, 0.0, 0.0, 99999.0)",0.0,0.0,-0.02,0.0,0.0,0.0,"(-1.0, 0.0, 0.0, 0.0, 0.0, 0.0, 0.0, 0.0, 0.0, 0.0, 0.0, 0.0, 0.0, 0.0, 0.0, 0.0, 0.0, 0.0, 0.0, 0.0, 0.0, 0.0, 0.0, 0.0, 0.0, 0.0, 0.0, 0.0, 0.0, 0.0, 0.0, 0.0, 0.0, 0.0, 0.0, 0.0)"
1729403415.8278847,2346,1729403415,824427904,map,base_link,0.16689244545756785,-0.22185178145014936,0.464,-0.039500229457850894,0.018128378495579453,-0.3585873758586049,-0.9324838806331923,"(0.9235209999999999, 0.0, 0.0, 0.0, 0.0, 0.0, 0.0, 0.9235209999999999, 0.0, 0.0, 0.0, 0.0, 0.0, 0.0, 2.7889, 0.0, 0.0, 0.0, 0.0, 0.0, 0.0, 99999.0, 0.0, 0.0, 0.0, 0.0, 0.0, 0.0, 99999.0, 0.0, 0.0, 0.0, 0.0, 0.0, 0.0, 99999.0)",0.0,0.0,-0.02,0.0,0.0,0.0,"(-1.0, 0.0, 0.0, 0.0, 0.0, 0.0, 0.0, 0.0, 0.0, 0.0, 0.0, 0.0, 0.0, 0.0, 0.0, 0.0, 0.0, 0.0, 0.0, 0.0, 0.0, 0.0, 0.0, 0.0, 0.0, 0.0, 0.0, 0.0, 0.0, 0.0, 0.0, 0.0, 0.0, 0.0, 0.0, 0.0)"
1729403415.9274554,2347,1729403415,924423296,map,base_link,0.15762064238886306,-0.2218517812240277,0.464,-0.03951034721795784,0.018128771635127817,-0.35860231420208954,-0.9324776996532536,"(0.9235209999999999, 0.0, 0.0, 0.0, 0.0, 0.0, 0.0, 0.9235209999999999, 0.0, 0.0, 0.0, 0.0, 0.0, 0.0, 2.7889, 0.0, 0.0, 0.0, 0.0, 0.0, 0.0, 99999.0, 0.0, 0.0, 0.0, 0.0, 0.0, 0.0, 99999.0, 0.0, 0.0, 0.0, 0.0, 0.0, 0.0, 99999.0)",0.0,0.0,-0.02,0.0,0.0,0.0,"(-1.0, 0.0, 0.0, 0.0, 0.0, 0.0, 0.0, 0.0, 0.0, 0.0, 0.0, 0.0, 0.0, 0.0, 0.0, 0.0, 0.0, 0.0, 0.0, 0.0, 0.0, 0.0, 0.0, 0.0, 0.0, 0.0, 0.0, 0.0, 0.0, 0.0, 0.0, 0.0, 0.0, 0.0, 0.0, 0.0)"
1729403416.028398,2348,1729403416,24417920,map,base_link,0.15762064238886306,-0.2218517812240277,0.463,-0.03953219876273471,0.018120628390549814,-0.3586174417067482,-0.9324711140788341,"(0.9273689999999999, 0.0, 0.0, 0.0, 0.0, 0.0, 0.0, 0.9273689999999999, 0.0, 0.0, 0.0, 0.0, 0.0, 0.0, 2.7989290000000002, 0.0, 0.0, 0.0, 0.0, 0.0, 0.0, 99999.0, 0.0, 0.0, 0.0, 0.0, 0.0, 0.0, 99999.0, 0.0, 0.0, 0.0, 0.0, 0.0, 0.0, 99999.0)",0.0,0.0,-0.02,0.0,0.0,0.0,"(-1.0, 0.0, 0.0, 0.0, 0.0, 0.0, 0.0, 0.0, 0.0, 0.0, 0.0, 0.0, 0.0, 0.0, 0.0, 0.0, 0.0, 0.0, 0.0, 0.0, 0.0, 0.0, 0.0, 0.0, 0.0, 0.0, 0.0, 0.0, 0.0, 0.0, 0.0, 0.0, 0.0, 0.0, 0.0, 0.0)"
1729403416.1288304,2349,1729403416,124413824,map,base_link,0.1576206422986436,-0.22185178141218392,0.458,-0.03955476435533812,0.018114226617112802,-0.358626349918665,-0.9324668554725538,"(0.9273689999999999, 0.0, 0.0, 0.0, 0.0, 0.0, 0.0, 0.9273689999999999, 0.0, 0.0, 0.0, 0.0, 0.0, 0.0, 2.7989290000000002, 0.0, 0.0, 0.0, 0.0, 0.0, 0.0, 99999.0, 0.0, 0.0, 0.0, 0.0, 0.0, 0.0, 99999.0, 0.0, 0.0, 0.0, 0.0, 0.0, 0.0, 99999.0)",0.0,0.0,-0.02,0.0,0.0,0.0,"(-1.0, 0.0, 0.0, 0.0, 0.0, 0.0, 0.0, 0.0, 0.0, 0.0, 0.0, 0.0, 0.0, 0.0, 0.0, 0.0, 0.0, 0.0, 0.0, 0.0, 0.0, 0.0, 0.0, 0.0, 0.0, 0.0, 0.0, 0.0, 0.0, 0.0, 0.0, 0.0, 0.0, 0.0, 0.0, 0.0)"
1729403416.229156,2350,1729403416,224413824,map,base_link,0.1576206422986436,-0.22185178141218392,0.451,-0.03955507086565655,0.01810442755608912,-0.3586571628176272,-0.9324551815670763,"(0.9292959999999999, 0.0, 0.0, 0.0, 0.0, 0.0, 0.0, 0.9292959999999999, 0.0, 0.0, 0.0, 0.0, 0.0, 0.0, 2.808976, 0.0, 0.0, 0.0, 0.0, 0.0, 0.0, 99999.0, 0.0, 0.0, 0.0, 0.0, 0.0, 0.0, 99999.0, 0.0, 0.0, 0.0, 0.0, 0.0, 0.0, 99999.0)",0.0,0.0,-0.02,0.0,0.0,0.0,"(-1.0, 0.0, 0.0, 0.0, 0.0, 0.0, 0.0, 0.0, 0.0, 0.0, 0.0, 0.0, 0.0, 0.0, 0.0, 0.0, 0.0, 0.0, 0.0, 0.0, 0.0, 0.0, 0.0, 0.0, 0.0, 0.0, 0.0, 0.0, 0.0, 0.0, 0.0, 0.0, 0.0, 0.0, 0.0, 0.0)"
1729403416.328722,2351,1729403416,324409728,map,base_link,0.15762064198574738,-0.22185178125065386,0.442,-0.03954537884821948,0.01809245803419089,-0.35867366219054275,-0.9324494785375004,"(0.9292959999999999, 0.0, 0.0, 0.0, 0.0, 0.0, 0.0, 0.9292959999999999, 0.0, 0.0, 0.0, 0.0, 0.0, 0.0, 2.808976, 0.0, 0.0, 0.0, 0.0, 0.0, 0.0, 99999.0, 0.0, 0.0, 0.0, 0.0, 0.0, 0.0, 99999.0, 0.0, 0.0, 0.0, 0.0, 0.0, 0.0, 99999.0)",0.0,0.0,-0.02,0.0,0.0,0.0,"(-1.0, 0.0, 0.0, 0.0, 0.0, 0.0, 0.0, 0.0, 0.0, 0.0, 0.0, 0.0, 0.0, 0.0, 0.0, 0.0, 0.0, 0.0, 0.0, 0.0, 0.0, 0.0, 0.0, 0.0, 0.0, 0.0, 0.0, 0.0, 0.0, 0.0, 0.0, 0.0, 0.0, 0.0, 0.0, 0.0)"
1729403416.4280572,2352,1729403416,424405888,map,base_link,0.15762064184616975,-0.22185178090690175,0.436,-0.039514644432797376,0.018060820916976295,-0.35867328397428333,-0.9324515402884259,"(0.931225, 0.0, 0.0, 0.0, 0.0, 0.0, 0.0, 0.931225, 0.0, 0.0, 0.0, 0.0, 0.0, 0.0, 2.812329, 0.0, 0.0, 0.0, 0.0, 0.0, 0.0, 99999.0, 0.0, 0.0, 0.0, 0.0, 0.0, 0.0, 99999.0, 0.0, 0.0, 0.0, 0.0, 0.0, 0.0, 99999.0)",0.0,0.0,-0.01,0.0,0.0,0.0,"(-1.0, 0.0, 0.0, 0.0, 0.0, 0.0, 0.0, 0.0, 0.0, 0.0, 0.0, 0.0, 0.0, 0.0, 0.0, 0.0, 0.0, 0.0, 0.0, 0.0, 0.0, 0.0, 0.0, 0.0, 0.0, 0.0, 0.0, 0.0, 0.0, 0.0, 0.0, 0.0, 0.0, 0.0, 0.0, 0.0)"
1729403416.527072,2353,1729403416,524401024,map,base_link,0.1483488399402067,-0.22185178102402764,0.43,-0.039461592834404334,0.01807756989054431,-0.35870084220826487,-0.9324428614971029,"(0.931225, 0.0, 0.0, 0.0, 0.0, 0.0, 0.0, 0.931225, 0.0, 0.0, 0.0, 0.0, 0.0, 0.0, 2.812329, 0.0, 0.0, 0.0, 0.0, 0.0, 0.0, 99999.0, 0.0, 0.0, 0.0, 0.0, 0.0, 0.0, 99999.0, 0.0, 0.0, 0.0, 0.0, 0.0, 0.0, 99999.0)",0.0,0.0,-0.01,0.0,0.0,0.0,"(-1.0, 0.0, 0.0, 0.0, 0.0, 0.0, 0.0, 0.0, 0.0, 0.0, 0.0, 0.0, 0.0, 0.0, 0.0, 0.0, 0.0, 0.0, 0.0, 0.0, 0.0, 0.0, 0.0, 0.0, 0.0, 0.0, 0.0, 0.0, 0.0, 0.0, 0.0, 0.0, 0.0, 0.0, 0.0, 0.0)"
1729403416.626669,2354,1729403416,624397440,map,base_link,0.14834883930129064,-0.2107591916930101,0.423,-0.039419610954492736,0.018101270408885352,-0.3587187181734929,-0.9324373005804449,"(0.933156, 0.0, 0.0, 0.0, 0.0, 0.0, 0.0, 0.933156, 0.0, 0.0, 0.0, 0.0, 0.0, 0.0, 2.8190410000000004, 0.0, 0.0, 0.0, 0.0, 0.0, 0.0, 99999.0, 0.0, 0.0, 0.0, 0.0, 0.0, 0.0, 99999.0, 0.0, 0.0, 0.0, 0.0, 0.0, 0.0, 99999.0)",0.0,0.0,-0.01,0.0,0.0,0.0,"(-1.0, 0.0, 0.0, 0.0, 0.0, 0.0, 0.0, 0.0, 0.0, 0.0, 0.0, 0.0, 0.0, 0.0, 0.0, 0.0, 0.0, 0.0, 0.0, 0.0, 0.0, 0.0, 0.0, 0.0, 0.0, 0.0, 0.0, 0.0, 0.0, 0.0, 0.0, 0.0, 0.0, 0.0, 0.0, 0.0)"
1729403416.7280943,2355,1729403416,724394112,map,base_link,0.13907703725575,-0.21075919146638392,0.417,-0.03939567348455206,0.018110889711207334,-0.358724231610784,-0.9324360043669591,"(0.933156, 0.0, 0.0, 0.0, 0.0, 0.0, 0.0, 0.933156, 0.0, 0.0, 0.0, 0.0, 0.0, 0.0, 2.8190410000000004, 0.0, 0.0, 0.0, 0.0, 0.0, 0.0, 99999.0, 0.0, 0.0, 0.0, 0.0, 0.0, 0.0, 99999.0, 0.0, 0.0, 0.0, 0.0, 0.0, 0.0, 99999.0)",0.0,0.0,-0.01,0.0,0.0,0.0,"(-1.0, 0.0, 0.0, 0.0, 0.0, 0.0, 0.0, 0.0, 0.0, 0.0, 0.0, 0.0, 0.0, 0.0, 0.0, 0.0, 0.0, 0.0, 0.0, 0.0, 0.0, 0.0, 0.0, 0.0, 0.0, 0.0, 0.0, 0.0, 0.0, 0.0, 0.0, 0.0, 0.0, 0.0, 0.0, 0.0)"
1729403416.8265343,2356,1729403416,824390016,map,base_link,0.13907703725575,-0.21075919146638392,0.418,-0.039391806816022036,0.01812411391934504,-0.3587349112504559,-0.9324318020641162,"(0.935089, 0.0, 0.0, 0.0, 0.0, 0.0, 0.0, 0.935089, 0.0, 0.0, 0.0, 0.0, 0.0, 0.0, 2.8223999999999996, 0.0, 0.0, 0.0, 0.0, 0.0, 0.0, 99999.0, 0.0, 0.0, 0.0, 0.0, 0.0, 0.0, 99999.0, 0.0, 0.0, 0.0, 0.0, 0.0, 0.0, 99999.0)",-0.01,0.0,0.0,0.0,0.0,0.0,"(-1.0, 0.0, 0.0, 0.0, 0.0, 0.0, 0.0, 0.0, 0.0, 0.0, 0.0, 0.0, 0.0, 0.0, 0.0, 0.0, 0.0, 0.0, 0.0, 0.0, 0.0, 0.0, 0.0, 0.0, 0.0, 0.0, 0.0, 0.0, 0.0, 0.0, 0.0, 0.0, 0.0, 0.0, 0.0, 0.0)"
1729403416.9264746,2357,1729403416,924385152,map,base_link,0.1298052339597416,-0.19966660158491775,0.418,-0.03939497066535266,0.018114475126110273,-0.3587679590208361,-0.9324191405463559,"(0.935089, 0.0, 0.0, 0.0, 0.0, 0.0, 0.0, 0.935089, 0.0, 0.0, 0.0, 0.0, 0.0, 0.0, 2.8223999999999996, 0.0, 0.0, 0.0, 0.0, 0.0, 0.0, 99999.0, 0.0, 0.0, 0.0, 0.0, 0.0, 0.0, 99999.0, 0.0, 0.0, 0.0, 0.0, 0.0, 0.0, 99999.0)",-0.01,0.0,0.0,0.0,0.0,0.0,"(-1.0, 0.0, 0.0, 0.0, 0.0, 0.0, 0.0, 0.0, 0.0, 0.0, 0.0, 0.0, 0.0, 0.0, 0.0, 0.0, 0.0, 0.0, 0.0, 0.0, 0.0, 0.0, 0.0, 0.0, 0.0, 0.0, 0.0, 0.0, 0.0, 0.0, 0.0, 0.0, 0.0, 0.0, 0.0, 0.0)"
1729403417.026831,2358,1729403417,24377216,map,base_link,0.1298052339597416,-0.19966660158491775,0.416,-0.03940910216780125,0.018100009748556647,-0.35876200610840286,-0.9324211147794242,"(0.935089, 0.0, 0.0, 0.0, 0.0, 0.0, 0.0, 0.935089, 0.0, 0.0, 0.0, 0.0, 0.0, 0.0, 2.8223999999999996, 0.0, 0.0, 0.0, 0.0, 0.0, 0.0, 99999.0, 0.0, 0.0, 0.0, 0.0, 0.0, 0.0, 99999.0, 0.0, 0.0, 0.0, 0.0, 0.0, 0.0, 99999.0)",-0.01,0.0,0.0,0.0,0.0,0.0,"(-1.0, 0.0, 0.0, 0.0, 0.0, 0.0, 0.0, 0.0, 0.0, 0.0, 0.0, 0.0, 0.0, 0.0, 0.0, 0.0, 0.0, 0.0, 0.0, 0.0, 0.0, 0.0, 0.0, 0.0, 0.0, 0.0, 0.0, 0.0, 0.0, 0.0, 0.0, 0.0, 0.0, 0.0, 0.0, 0.0)"
1729403417.1274617,2359,1729403417,124372608,map,base_link,0.1298052339597416,-0.19966660158491775,0.412,-0.03941700077042765,0.018081200432297787,-0.35876425880426255,-0.9324202790833217,"(0.935089, 0.0, 0.0, 0.0, 0.0, 0.0, 0.0, 0.935089, 0.0, 0.0, 0.0, 0.0, 0.0, 0.0, 2.8223999999999996, 0.0, 0.0, 0.0, 0.0, 0.0, 0.0, 99999.0, 0.0, 0.0, 0.0, 0.0, 0.0, 0.0, 99999.0, 0.0, 0.0, 0.0, 0.0, 0.0, 0.0, 99999.0)",-0.01,0.0,0.0,0.0,0.0,0.0,"(-1.0, 0.0, 0.0, 0.0, 0.0, 0.0, 0.0, 0.0, 0.0, 0.0, 0.0, 0.0, 0.0, 0.0, 0.0, 0.0, 0.0, 0.0, 0.0, 0.0, 0.0, 0.0, 0.0, 0.0, 0.0, 0.0, 0.0, 0.0, 0.0, 0.0, 0.0, 0.0, 0.0, 0.0, 0.0, 0.0)"
1729403417.2327998,2360,1729403417,224368000,map,base_link,0.1298052339597416,-0.19966660158491775,0.413,-0.039421163168900465,0.018053852767498747,-0.3587697325457641,-0.9324185268985711,"(0.937024, 0.0, 0.0, 0.0, 0.0, 0.0, 0.0, 0.937024, 0.0, 0.0, 0.0, 0.0, 0.0, 0.0, 2.825761, 0.0, 0.0, 0.0, 0.0, 0.0, 0.0, 99999.0, 0.0, 0.0, 0.0, 0.0, 0.0, 0.0, 99999.0, 0.0, 0.0, 0.0, 0.0, 0.0, 0.0, 99999.0)",-0.01,0.0,0.0,0.0,0.0,0.0,"(-1.0, 0.0, 0.0, 0.0, 0.0, 0.0, 0.0, 0.0, 0.0, 0.0, 0.0, 0.0, 0.0, 0.0, 0.0, 0.0, 0.0, 0.0, 0.0, 0.0, 0.0, 0.0, 0.0, 0.0, 0.0, 0.0, 0.0, 0.0, 0.0, 0.0, 0.0, 0.0, 0.0, 0.0, 0.0, 0.0)"
1729403417.3265657,2361,1729403417,324361856,map,base_link,0.12053343210313673,-0.19966660223395202,0.417,-0.03944739605250798,0.018053616892305793,-0.3587938433488464,-0.9324081444500288,"(0.937024, 0.0, 0.0, 0.0, 0.0, 0.0, 0.0, 0.937024, 0.0, 0.0, 0.0, 0.0, 0.0, 0.0, 2.825761, 0.0, 0.0, 0.0, 0.0, 0.0, 0.0, 99999.0, 0.0, 0.0, 0.0, 0.0, 0.0, 0.0, 99999.0, 0.0, 0.0, 0.0, 0.0, 0.0, 0.0, 99999.0)",-0.01,0.0,0.0,0.0,0.0,0.0,"(-1.0, 0.0, 0.0, 0.0, 0.0, 0.0, 0.0, 0.0, 0.0, 0.0, 0.0, 0.0, 0.0, 0.0, 0.0, 0.0, 0.0, 0.0, 0.0, 0.0, 0.0, 0.0, 0.0, 0.0, 0.0, 0.0, 0.0, 0.0, 0.0, 0.0, 0.0, 0.0, 0.0, 0.0, 0.0, 0.0)"
1729403417.4279065,2362,1729403417,424358272,map,base_link,0.12053343241603293,-0.1996666023954821,0.421,-0.03946512776128276,0.01805918249949945,-0.35880789406654384,-0.9324018794349178,"(0.937024, 0.0, 0.0, 0.0, 0.0, 0.0, 0.0, 0.937024, 0.0, 0.0, 0.0, 0.0, 0.0, 0.0, 2.825761, 0.0, 0.0, 0.0, 0.0, 0.0, 0.0, 99999.0, 0.0, 0.0, 0.0, 0.0, 0.0, 0.0, 99999.0, 0.0, 0.0, 0.0, 0.0, 0.0, 0.0, 99999.0)",-0.01,0.0,0.0,0.0,0.0,0.0,"(-1.0, 0.0, 0.0, 0.0, 0.0, 0.0, 0.0, 0.0, 0.0, 0.0, 0.0, 0.0, 0.0, 0.0, 0.0, 0.0, 0.0, 0.0, 0.0, 0.0, 0.0, 0.0, 0.0, 0.0, 0.0, 0.0, 0.0, 0.0, 0.0, 0.0, 0.0, 0.0, 0.0, 0.0, 0.0, 0.0)"
1729403417.5266588,2363,1729403417,524353920,map,base_link,0.12053343241603293,-0.1996666023954821,0.425,-0.03947985369714503,0.018056390803610406,-0.3588333538564289,-0.9323915122218489,"(0.937024, 0.0, 0.0, 0.0, 0.0, 0.0, 0.0, 0.937024, 0.0, 0.0, 0.0, 0.0, 0.0, 0.0, 2.825761, 0.0, 0.0, 0.0, 0.0, 0.0, 0.0, 99999.0, 0.0, 0.0, 0.0, 0.0, 0.0, 0.0, 99999.0, 0.0, 0.0, 0.0, 0.0, 0.0, 0.0, 99999.0)",-0.01,0.0,0.0,0.0,0.0,0.0,"(-1.0, 0.0, 0.0, 0.0, 0.0, 0.0, 0.0, 0.0, 0.0, 0.0, 0.0, 0.0, 0.0, 0.0, 0.0, 0.0, 0.0, 0.0, 0.0, 0.0, 0.0, 0.0, 0.0, 0.0, 0.0, 0.0, 0.0, 0.0, 0.0, 0.0, 0.0, 0.0, 0.0, 0.0, 0.0, 0.0)"
1729403417.6264455,2364,1729403417,624349056,map,base_link,0.12053343241603293,-0.1996666023954821,0.429,-0.039497421188178984,0.018055258196165637,-0.35883108100682454,-0.9323916648460704,"(0.937024, 0.0, 0.0, 0.0, 0.0, 0.0, 0.0, 0.937024, 0.0, 0.0, 0.0, 0.0, 0.0, 0.0, 2.825761, 0.0, 0.0, 0.0, 0.0, 0.0, 0.0, 99999.0, 0.0, 0.0, 0.0, 0.0, 0.0, 0.0, 99999.0, 0.0, 0.0, 0.0, 0.0, 0.0, 0.0, 99999.0)",0.0,0.0,0.0,0.0,0.0,0.0,"(-1.0, 0.0, 0.0, 0.0, 0.0, 0.0, 0.0, 0.0, 0.0, 0.0, 0.0, 0.0, 0.0, 0.0, 0.0, 0.0, 0.0, 0.0, 0.0, 0.0, 0.0, 0.0, 0.0, 0.0, 0.0, 0.0, 0.0, 0.0, 0.0, 0.0, 0.0, 0.0, 0.0, 0.0, 0.0, 0.0)"
1729403417.7261949,2365,1729403417,724345728,map,base_link,0.12053343250625241,-0.19966660220732585,0.433,-0.03950143477983361,0.01800258639957228,-0.35880882192535424,-0.9324010793868696,"(0.937024, 0.0, 0.0, 0.0, 0.0, 0.0, 0.0, 0.937024, 0.0, 0.0, 0.0, 0.0, 0.0, 0.0, 2.825761, 0.0, 0.0, 0.0, 0.0, 0.0, 0.0, 99999.0, 0.0, 0.0, 0.0, 0.0, 0.0, 0.0, 99999.0, 0.0, 0.0, 0.0, 0.0, 0.0, 0.0, 99999.0)",0.0,0.0,0.0,0.0,0.0,0.0,"(-1.0, 0.0, 0.0, 0.0, 0.0, 0.0, 0.0, 0.0, 0.0, 0.0, 0.0, 0.0, 0.0, 0.0, 0.0, 0.0, 0.0, 0.0, 0.0, 0.0, 0.0, 0.0, 0.0, 0.0, 0.0, 0.0, 0.0, 0.0, 0.0, 0.0, 0.0, 0.0, 0.0, 0.0, 0.0, 0.0)"
1729403417.8261533,2366,1729403417,824342400,map,base_link,0.12053343250625241,-0.19966660220732585,0.431,-0.039524654361278534,0.017967632273530366,-0.35878906471017835,-0.9324083724058359,"(0.937024, 0.0, 0.0, 0.0, 0.0, 0.0, 0.0, 0.937024, 0.0, 0.0, 0.0, 0.0, 0.0, 0.0, 2.8291239999999998, 0.0, 0.0, 0.0, 0.0, 0.0, 0.0, 99999.0, 0.0, 0.0, 0.0, 0.0, 0.0, 0.0, 99999.0, 0.0, 0.0, 0.0, 0.0, 0.0, 0.0, 99999.0)",0.0,0.0,0.0,0.0,0.0,0.0,"(-1.0, 0.0, 0.0, 0.0, 0.0, 0.0, 0.0, 0.0, 0.0, 0.0, 0.0, 0.0, 0.0, 0.0, 0.0, 0.0, 0.0, 0.0, 0.0, 0.0, 0.0, 0.0, 0.0, 0.0, 0.0, 0.0, 0.0, 0.0, 0.0, 0.0, 0.0, 0.0, 0.0, 0.0, 0.0, 0.0)"
1729403417.9264367,2367,1729403417,924339328,map,base_link,0.12053343250625241,-0.19966660220732585,0.43,-0.03951821526842674,0.017961124803733616,-0.3587836842573821,-0.9324108410826647,"(0.937024, 0.0, 0.0, 0.0, 0.0, 0.0, 0.0, 0.937024, 0.0, 0.0, 0.0, 0.0, 0.0, 0.0, 2.8291239999999998, 0.0, 0.0, 0.0, 0.0, 0.0, 0.0, 99999.0, 0.0, 0.0, 0.0, 0.0, 0.0, 0.0, 99999.0, 0.0, 0.0, 0.0, 0.0, 0.0, 0.0, 99999.0)",0.0,0.0,0.0,0.0,0.0,0.0,"(-1.0, 0.0, 0.0, 0.0, 0.0, 0.0, 0.0, 0.0, 0.0, 0.0, 0.0, 0.0, 0.0, 0.0, 0.0, 0.0, 0.0, 0.0, 0.0, 0.0, 0.0, 0.0, 0.0, 0.0, 0.0, 0.0, 0.0, 0.0, 0.0, 0.0, 0.0, 0.0, 0.0, 0.0, 0.0, 0.0)"
1729403418.0263975,2368,1729403418,24331392,map,base_link,0.12053343250625241,-0.19966660220732585,0.433,-0.03951386721133415,0.017972354849777893,-0.35881328716407973,-0.9323994174781891,"(0.9389609999999999, 0.0, 0.0, 0.0, 0.0, 0.0, 0.0, 0.9389609999999999, 0.0, 0.0, 0.0, 0.0, 0.0, 0.0, 2.8324890000000003, 0.0, 0.0, 0.0, 0.0, 0.0, 0.0, 99999.0, 0.0, 0.0, 0.0, 0.0, 0.0, 0.0, 99999.0, 0.0, 0.0, 0.0, 0.0, 0.0, 0.0, 99999.0)",0.0,0.0,0.0,0.0,0.0,0.0,"(-1.0, 0.0, 0.0, 0.0, 0.0, 0.0, 0.0, 0.0, 0.0, 0.0, 0.0, 0.0, 0.0, 0.0, 0.0, 0.0, 0.0, 0.0, 0.0, 0.0, 0.0, 0.0, 0.0, 0.0, 0.0, 0.0, 0.0, 0.0, 0.0, 0.0, 0.0, 0.0, 0.0, 0.0, 0.0, 0.0)"
1729403418.1269884,2369,1729403418,124327040,map,base_link,0.12053343246788462,-0.18857401420247874,0.44,-0.03947527244180361,0.017960300569667548,-0.3588283970040726,-0.9323954697297602,"(0.9389609999999999, 0.0, 0.0, 0.0, 0.0, 0.0, 0.0, 0.9389609999999999, 0.0, 0.0, 0.0, 0.0, 0.0, 0.0, 2.8324890000000003, 0.0, 0.0, 0.0, 0.0, 0.0, 0.0, 99999.0, 0.0, 0.0, 0.0, 0.0, 0.0, 0.0, 99999.0, 0.0, 0.0, 0.0, 0.0, 0.0, 0.0, 99999.0)",0.0,0.0,0.0,0.0,0.0,0.0,"(-1.0, 0.0, 0.0, 0.0, 0.0, 0.0, 0.0, 0.0, 0.0, 0.0, 0.0, 0.0, 0.0, 0.0, 0.0, 0.0, 0.0, 0.0, 0.0, 0.0, 0.0, 0.0, 0.0, 0.0, 0.0, 0.0, 0.0, 0.0, 0.0, 0.0, 0.0, 0.0, 0.0, 0.0, 0.0, 0.0)"
1729403418.2278185,2370,1729403418,224322688,map,base_link,0.12053343246788462,-0.18857401420247874,0.447,-0.03944469685244926,0.01793759854435442,-0.3588492289750927,-0.9323891833953575,"(0.9409, 0.0, 0.0, 0.0, 0.0, 0.0, 0.0, 0.9409, 0.0, 0.0, 0.0, 0.0, 0.0, 0.0, 2.8358559999999997, 0.0, 0.0, 0.0, 0.0, 0.0, 0.0, 99999.0, 0.0, 0.0, 0.0, 0.0, 0.0, 0.0, 99999.0, 0.0, 0.0, 0.0, 0.0, 0.0, 0.0, 99999.0)",0.0,0.0,0.0,0.0,0.0,0.0,"(-1.0, 0.0, 0.0, 0.0, 0.0, 0.0, 0.0, 0.0, 0.0, 0.0, 0.0, 0.0, 0.0, 0.0, 0.0, 0.0, 0.0, 0.0, 0.0, 0.0, 0.0, 0.0, 0.0, 0.0, 0.0, 0.0, 0.0, 0.0, 0.0, 0.0, 0.0, 0.0, 0.0, 0.0, 0.0, 0.0)"
1729403418.3277774,2371,1729403418,324318336,map,base_link,0.12053343260746223,-0.18857401493364928,0.452,-0.03942409473407493,0.01792662732982822,-0.35887304485238924,-0.9323810993715773,"(0.9409, 0.0, 0.0, 0.0, 0.0, 0.0, 0.0, 0.9409, 0.0, 0.0, 0.0, 0.0, 0.0, 0.0, 2.8358559999999997, 0.0, 0.0, 0.0, 0.0, 0.0, 0.0, 99999.0, 0.0, 0.0, 0.0, 0.0, 0.0, 0.0, 99999.0, 0.0, 0.0, 0.0, 0.0, 0.0, 0.0, 99999.0)",0.0,0.0,0.0,0.0,0.0,0.0,"(-1.0, 0.0, 0.0, 0.0, 0.0, 0.0, 0.0, 0.0, 0.0, 0.0, 0.0, 0.0, 0.0, 0.0, 0.0, 0.0, 0.0, 0.0, 0.0, 0.0, 0.0, 0.0, 0.0, 0.0, 0.0, 0.0, 0.0, 0.0, 0.0, 0.0, 0.0, 0.0, 0.0, 0.0, 0.0, 0.0)"
1729403418.4277391,2372,1729403418,424312704,map,base_link,0.11126162981079231,-0.18857401520170383,0.457,-0.039425382891874826,0.017929609325428544,-0.35889041433051105,-0.9323743018739528,"(0.9409, 0.0, 0.0, 0.0, 0.0, 0.0, 0.0, 0.9409, 0.0, 0.0, 0.0, 0.0, 0.0, 0.0, 2.8358559999999997, 0.0, 0.0, 0.0, 0.0, 0.0, 0.0, 99999.0, 0.0, 0.0, 0.0, 0.0, 0.0, 0.0, 99999.0, 0.0, 0.0, 0.0, 0.0, 0.0, 0.0, 99999.0)",0.0,0.0,0.0,0.0,0.0,0.0,"(-1.0, 0.0, 0.0, 0.0, 0.0, 0.0, 0.0, 0.0, 0.0, 0.0, 0.0, 0.0, 0.0, 0.0, 0.0, 0.0, 0.0, 0.0, 0.0, 0.0, 0.0, 0.0, 0.0, 0.0, 0.0, 0.0, 0.0, 0.0, 0.0, 0.0, 0.0, 0.0, 0.0, 0.0, 0.0, 0.0)"
1729403418.5275707,2373,1729403418,524305792,map,base_link,0.1112616297276932,-0.1885740151957697,0.461,-0.03943904981909343,0.017946559555818704,-0.358893755659679,-0.9323721116045713,"(0.9409, 0.0, 0.0, 0.0, 0.0, 0.0, 0.0, 0.9409, 0.0, 0.0, 0.0, 0.0, 0.0, 0.0, 2.8358559999999997, 0.0, 0.0, 0.0, 0.0, 0.0, 0.0, 99999.0, 0.0, 0.0, 0.0, 0.0, 0.0, 0.0, 99999.0, 0.0, 0.0, 0.0, 0.0, 0.0, 0.0, 99999.0)",0.0,0.0,0.0,0.0,0.0,0.0,"(-1.0, 0.0, 0.0, 0.0, 0.0, 0.0, 0.0, 0.0, 0.0, 0.0, 0.0, 0.0, 0.0, 0.0, 0.0, 0.0, 0.0, 0.0, 0.0, 0.0, 0.0, 0.0, 0.0, 0.0, 0.0, 0.0, 0.0, 0.0, 0.0, 0.0, 0.0, 0.0, 0.0, 0.0, 0.0, 0.0)"
1729403418.6274018,2374,1729403418,624303232,map,base_link,0.1112616297276932,-0.1885740151957697,0.468,-0.03946495773545225,0.01794691771927065,-0.35892119617826973,-0.9323604454229473,"(0.9409, 0.0, 0.0, 0.0, 0.0, 0.0, 0.0, 0.9409, 0.0, 0.0, 0.0, 0.0, 0.0, 0.0, 2.8392250000000003, 0.0, 0.0, 0.0, 0.0, 0.0, 0.0, 99999.0, 0.0, 0.0, 0.0, 0.0, 0.0, 0.0, 99999.0, 0.0, 0.0, 0.0, 0.0, 0.0, 0.0, 99999.0)",0.0,0.0,0.0,0.0,0.0,0.0,"(-1.0, 0.0, 0.0, 0.0, 0.0, 0.0, 0.0, 0.0, 0.0, 0.0, 0.0, 0.0, 0.0, 0.0, 0.0, 0.0, 0.0, 0.0, 0.0, 0.0, 0.0, 0.0, 0.0, 0.0, 0.0, 0.0, 0.0, 0.0, 0.0, 0.0, 0.0, 0.0, 0.0, 0.0, 0.0, 0.0)"
1729403418.7272208,2375,1729403418,724298880,map,base_link,0.11126163003596257,-0.17748142605164152,0.476,-0.03947027386029023,0.017962342976932853,-0.35894441971213886,-0.9323509828780623,"(0.9409, 0.0, 0.0, 0.0, 0.0, 0.0, 0.0, 0.9409, 0.0, 0.0, 0.0, 0.0, 0.0, 0.0, 2.8392250000000003, 0.0, 0.0, 0.0, 0.0, 0.0, 0.0, 99999.0, 0.0, 0.0, 0.0, 0.0, 0.0, 0.0, 99999.0, 0.0, 0.0, 0.0, 0.0, 0.0, 0.0, 99999.0)",0.0,0.0,0.0,0.0,0.0,0.0,"(-1.0, 0.0, 0.0, 0.0, 0.0, 0.0, 0.0, 0.0, 0.0, 0.0, 0.0, 0.0, 0.0, 0.0, 0.0, 0.0, 0.0, 0.0, 0.0, 0.0, 0.0, 0.0, 0.0, 0.0, 0.0, 0.0, 0.0, 0.0, 0.0, 0.0, 0.0, 0.0, 0.0, 0.0, 0.0, 0.0)"
1729403418.8269022,2376,1729403418,824294528,map,base_link,0.11126162990350531,-0.177481425513799,0.483,-0.039476775456127045,0.017963495244936213,-0.358970837604803,-0.9323405143977592,"(0.9428409999999999, 0.0, 0.0, 0.0, 0.0, 0.0, 0.0, 0.9428409999999999, 0.0, 0.0, 0.0, 0.0, 0.0, 0.0, 2.842596, 0.0, 0.0, 0.0, 0.0, 0.0, 0.0, 99999.0, 0.0, 0.0, 0.0, 0.0, 0.0, 0.0, 99999.0, 0.0, 0.0, 0.0, 0.0, 0.0, 0.0, 99999.0)",0.0,0.0,0.0,0.0,0.0,0.0,"(-1.0, 0.0, 0.0, 0.0, 0.0, 0.0, 0.0, 0.0, 0.0, 0.0, 0.0, 0.0, 0.0, 0.0, 0.0, 0.0, 0.0, 0.0, 0.0, 0.0, 0.0, 0.0, 0.0, 0.0, 0.0, 0.0, 0.0, 0.0, 0.0, 0.0, 0.0, 0.0, 0.0, 0.0, 0.0, 0.0)"
1729403418.9269516,2377,1729403418,924290176,map,base_link,0.10198982799754228,-0.17748142563092495,0.486,-0.039464947279620036,0.01799607508540039,-0.35900455710655066,-0.9323274034342588,"(0.9428409999999999, 0.0, 0.0, 0.0, 0.0, 0.0, 0.0, 0.9428409999999999, 0.0, 0.0, 0.0, 0.0, 0.0, 0.0, 2.842596, 0.0, 0.0, 0.0, 0.0, 0.0, 0.0, 99999.0, 0.0, 0.0, 0.0, 0.0, 0.0, 0.0, 99999.0, 0.0, 0.0, 0.0, 0.0, 0.0, 0.0, 99999.0)",0.0,0.0,0.0,0.0,0.0,0.0,"(-1.0, 0.0, 0.0, 0.0, 0.0, 0.0, 0.0, 0.0, 0.0, 0.0, 0.0, 0.0, 0.0, 0.0, 0.0, 0.0, 0.0, 0.0, 0.0, 0.0, 0.0, 0.0, 0.0, 0.0, 0.0, 0.0, 0.0, 0.0, 0.0, 0.0, 0.0, 0.0, 0.0, 0.0, 0.0, 0.0)"
1729403419.0269458,2378,1729403419,24286080,map,base_link,0.10198982786508504,-0.17748142586791932,0.49,-0.03945731718919516,0.018006883277491573,-0.3590428561992732,-0.9323127692395563,"(0.9428409999999999, 0.0, 0.0, 0.0, 0.0, 0.0, 0.0, 0.9428409999999999, 0.0, 0.0, 0.0, 0.0, 0.0, 0.0, 2.845969, 0.0, 0.0, 0.0, 0.0, 0.0, 0.0, 99999.0, 0.0, 0.0, 0.0, 0.0, 0.0, 0.0, 99999.0, 0.0, 0.0, 0.0, 0.0, 0.0, 0.0, 99999.0)",0.0,0.0,0.0,0.0,0.0,0.0,"(-1.0, 0.0, 0.0, 0.0, 0.0, 0.0, 0.0, 0.0, 0.0, 0.0, 0.0, 0.0, 0.0, 0.0, 0.0, 0.0, 0.0, 0.0, 0.0, 0.0, 0.0, 0.0, 0.0, 0.0, 0.0, 0.0, 0.0, 0.0, 0.0, 0.0, 0.0, 0.0, 0.0, 0.0, 0.0, 0.0)"
1729403419.1276588,2379,1729403419,124283264,map,base_link,0.10198982786508504,-0.17748142586791932,0.495,-0.03943357956184392,0.017994418609108106,-0.3590782801585266,-0.9323003713504863,"(0.9428409999999999, 0.0, 0.0, 0.0, 0.0, 0.0, 0.0, 0.9428409999999999, 0.0, 0.0, 0.0, 0.0, 0.0, 0.0, 2.845969, 0.0, 0.0, 0.0, 0.0, 0.0, 0.0, 99999.0, 0.0, 0.0, 0.0, 0.0, 0.0, 0.0, 99999.0, 0.0, 0.0, 0.0, 0.0, 0.0, 0.0, 99999.0)",0.0,0.0,0.0,0.0,0.0,0.0,"(-1.0, 0.0, 0.0, 0.0, 0.0, 0.0, 0.0, 0.0, 0.0, 0.0, 0.0, 0.0, 0.0, 0.0, 0.0, 0.0, 0.0, 0.0, 0.0, 0.0, 0.0, 0.0, 0.0, 0.0, 0.0, 0.0, 0.0, 0.0, 0.0, 0.0, 0.0, 0.0, 0.0, 0.0, 0.0, 0.0)"
1729403419.2287467,2380,1729403419,224280960,map,base_link,0.10198982822733937,-0.17748142617393928,0.502,-0.03941061698720631,0.017967297965372074,-0.3590964377998528,-0.9322948717181532,"(0.9428409999999999, 0.0, 0.0, 0.0, 0.0, 0.0, 0.0, 0.9428409999999999, 0.0, 0.0, 0.0, 0.0, 0.0, 0.0, 2.845969, 0.0, 0.0, 0.0, 0.0, 0.0, 0.0, 99999.0, 0.0, 0.0, 0.0, 0.0, 0.0, 0.0, 99999.0, 0.0, 0.0, 0.0, 0.0, 0.0, 0.0, 99999.0)",0.0,0.0,0.0,0.0,0.0,0.0,"(-1.0, 0.0, 0.0, 0.0, 0.0, 0.0, 0.0, 0.0, 0.0, 0.0, 0.0, 0.0, 0.0, 0.0, 0.0, 0.0, 0.0, 0.0, 0.0, 0.0, 0.0, 0.0, 0.0, 0.0, 0.0, 0.0, 0.0, 0.0, 0.0, 0.0, 0.0, 0.0, 0.0, 0.0, 0.0, 0.0)"
1729403419.3270762,2381,1729403419,324275584,map,base_link,0.10198982822733937,-0.17748142617393928,0.509,-0.039385897828894685,0.017953932298422872,-0.35912510725573993,-0.9322851305828003,"(0.9428409999999999, 0.0, 0.0, 0.0, 0.0, 0.0, 0.0, 0.9428409999999999, 0.0, 0.0, 0.0, 0.0, 0.0, 0.0, 2.845969, 0.0, 0.0, 0.0, 0.0, 0.0, 0.0, 99999.0, 0.0, 0.0, 0.0, 0.0, 0.0, 0.0, 99999.0, 0.0, 0.0, 0.0, 0.0, 0.0, 0.0, 99999.0)",0.0,0.01,-0.01,0.0,0.0,0.0,"(-1.0, 0.0, 0.0, 0.0, 0.0, 0.0, 0.0, 0.0, 0.0, 0.0, 0.0, 0.0, 0.0, 0.0, 0.0, 0.0, 0.0, 0.0, 0.0, 0.0, 0.0, 0.0, 0.0, 0.0, 0.0, 0.0, 0.0, 0.0, 0.0, 0.0, 0.0, 0.0, 0.0, 0.0, 0.0, 0.0)"
1729403419.4274428,2382,1729403419,424273280,map,base_link,0.0927180262336504,-0.1663888377543097,0.513,-0.03941197393143828,0.017963543013847727,-0.35913041177543703,-0.9322818000858015,"(0.9428409999999999, 0.0, 0.0, 0.0, 0.0, 0.0, 0.0, 0.9428409999999999, 0.0, 0.0, 0.0, 0.0, 0.0, 0.0, 2.845969, 0.0, 0.0, 0.0, 0.0, 0.0, 0.0, 99999.0, 0.0, 0.0, 0.0, 0.0, 0.0, 0.0, 99999.0, 0.0, 0.0, 0.0, 0.0, 0.0, 0.0, 99999.0)",0.0,0.01,-0.01,0.0,0.0,0.0,"(-1.0, 0.0, 0.0, 0.0, 0.0, 0.0, 0.0, 0.0, 0.0, 0.0, 0.0, 0.0, 0.0, 0.0, 0.0, 0.0, 0.0, 0.0, 0.0, 0.0, 0.0, 0.0, 0.0, 0.0, 0.0, 0.0, 0.0, 0.0, 0.0, 0.0, 0.0, 0.0, 0.0, 0.0, 0.0, 0.0)"
1729403419.526981,2383,1729403419,524269184,map,base_link,0.0927180262336504,-0.1663888377543097,0.516,-0.039443421141691366,0.017983135005240097,-0.3591465223358235,-0.9322738861933795,"(0.9428409999999999, 0.0, 0.0, 0.0, 0.0, 0.0, 0.0, 0.9428409999999999, 0.0, 0.0, 0.0, 0.0, 0.0, 0.0, 2.845969, 0.0, 0.0, 0.0, 0.0, 0.0, 0.0, 99999.0, 0.0, 0.0, 0.0, 0.0, 0.0, 0.0, 99999.0, 0.0, 0.0, 0.0, 0.0, 0.0, 0.0, 99999.0)",0.0,0.0,-0.01,0.0,0.0,0.0,"(-1.0, 0.0, 0.0, 0.0, 0.0, 0.0, 0.0, 0.0, 0.0, 0.0, 0.0, 0.0, 0.0, 0.0, 0.0, 0.0, 0.0, 0.0, 0.0, 0.0, 0.0, 0.0, 0.0, 0.0, 0.0, 0.0, 0.0, 0.0, 0.0, 0.0, 0.0, 0.0, 0.0, 0.0, 0.0, 0.0)"
1729403419.6270366,2384,1729403419,624264832,map,base_link,0.0927180262336504,-0.1663888377543097,0.514,-0.03948397949755039,0.01799744748139897,-0.3591713493039025,-0.9322623284711258,"(0.9428409999999999, 0.0, 0.0, 0.0, 0.0, 0.0, 0.0, 0.9428409999999999, 0.0, 0.0, 0.0, 0.0, 0.0, 0.0, 2.845969, 0.0, 0.0, 0.0, 0.0, 0.0, 0.0, 99999.0, 0.0, 0.0, 0.0, 0.0, 0.0, 0.0, 99999.0, 0.0, 0.0, 0.0, 0.0, 0.0, 0.0, 99999.0)",0.0,0.0,-0.01,0.0,0.0,0.0,"(-1.0, 0.0, 0.0, 0.0, 0.0, 0.0, 0.0, 0.0, 0.0, 0.0, 0.0, 0.0, 0.0, 0.0, 0.0, 0.0, 0.0, 0.0, 0.0, 0.0, 0.0, 0.0, 0.0, 0.0, 0.0, 0.0, 0.0, 0.0, 0.0, 0.0, 0.0, 0.0, 0.0, 0.0, 0.0, 0.0)"
1729403419.7275846,2385,1729403419,724260736,map,base_link,0.08344622302999483,-0.17748142649009413,0.507,-0.039498957245717656,0.018015193458349146,-0.35919834309425996,-0.9322509509244266,"(0.9428409999999999, 0.0, 0.0, 0.0, 0.0, 0.0, 0.0, 0.9428409999999999, 0.0, 0.0, 0.0, 0.0, 0.0, 0.0, 2.845969, 0.0, 0.0, 0.0, 0.0, 0.0, 0.0, 99999.0, 0.0, 0.0, 0.0, 0.0, 0.0, 0.0, 99999.0, 0.0, 0.0, 0.0, 0.0, 0.0, 0.0, 99999.0)",0.0,0.0,-0.01,0.0,0.0,0.0,"(-1.0, 0.0, 0.0, 0.0, 0.0, 0.0, 0.0, 0.0, 0.0, 0.0, 0.0, 0.0, 0.0, 0.0, 0.0, 0.0, 0.0, 0.0, 0.0, 0.0, 0.0, 0.0, 0.0, 0.0, 0.0, 0.0, 0.0, 0.0, 0.0, 0.0, 0.0, 0.0, 0.0, 0.0, 0.0, 0.0)"
1729403419.8296406,2386,1729403419,824255360,map,base_link,0.08344622302999483,-0.17748142649009413,0.501,-0.03951277293419766,0.018024078309118605,-0.3592322806393821,-0.9322371167909941,"(0.9428409999999999, 0.0, 0.0, 0.0, 0.0, 0.0, 0.0, 0.9428409999999999, 0.0, 0.0, 0.0, 0.0, 0.0, 0.0, 2.845969, 0.0, 0.0, 0.0, 0.0, 0.0, 0.0, 99999.0, 0.0, 0.0, 0.0, 0.0, 0.0, 0.0, 99999.0, 0.0, 0.0, 0.0, 0.0, 0.0, 0.0, 99999.0)",0.0,0.0,-0.01,0.0,0.0,0.0,"(-1.0, 0.0, 0.0, 0.0, 0.0, 0.0, 0.0, 0.0, 0.0, 0.0, 0.0, 0.0, 0.0, 0.0, 0.0, 0.0, 0.0, 0.0, 0.0, 0.0, 0.0, 0.0, 0.0, 0.0, 0.0, 0.0, 0.0, 0.0, 0.0, 0.0, 0.0, 0.0, 0.0, 0.0, 0.0, 0.0)"
1729403419.9272244,2387,1729403419,924248448,map,base_link,0.08344622266774047,-0.17748142579665568,0.491,-0.0395442642007218,0.018047035462370808,-0.35924723154228894,-0.9322295759677679,"(0.9428409999999999, 0.0, 0.0, 0.0, 0.0, 0.0, 0.0, 0.9428409999999999, 0.0, 0.0, 0.0, 0.0, 0.0, 0.0, 2.845969, 0.0, 0.0, 0.0, 0.0, 0.0, 0.0, 99999.0, 0.0, 0.0, 0.0, 0.0, 0.0, 0.0, 99999.0, 0.0, 0.0, 0.0, 0.0, 0.0, 0.0, 99999.0)",0.0,0.0,-0.01,0.0,0.0,0.0,"(-1.0, 0.0, 0.0, 0.0, 0.0, 0.0, 0.0, 0.0, 0.0, 0.0, 0.0, 0.0, 0.0, 0.0, 0.0, 0.0, 0.0, 0.0, 0.0, 0.0, 0.0, 0.0, 0.0, 0.0, 0.0, 0.0, 0.0, 0.0, 0.0, 0.0, 0.0, 0.0, 0.0, 0.0, 0.0, 0.0)"
1729403420.0272386,2388,1729403420,24243328,map,base_link,0.08344622257752099,-0.17748142598481195,0.483,-0.03958149984670679,0.01804178252470186,-0.35923623325589893,-0.9322323356703144,"(0.9428409999999999, 0.0, 0.0, 0.0, 0.0, 0.0, 0.0, 0.9428409999999999, 0.0, 0.0, 0.0, 0.0, 0.0, 0.0, 2.849344, 0.0, 0.0, 0.0, 0.0, 0.0, 0.0, 99999.0, 0.0, 0.0, 0.0, 0.0, 0.0, 0.0, 99999.0, 0.0, 0.0, 0.0, 0.0, 0.0, 0.0, 99999.0)",0.0,0.0,0.0,0.0,0.0,0.0,"(-1.0, 0.0, 0.0, 0.0, 0.0, 0.0, 0.0, 0.0, 0.0, 0.0, 0.0, 0.0, 0.0, 0.0, 0.0, 0.0, 0.0, 0.0, 0.0, 0.0, 0.0, 0.0, 0.0, 0.0, 0.0, 0.0, 0.0, 0.0, 0.0, 0.0, 0.0, 0.0, 0.0, 0.0, 0.0, 0.0)"
1729403420.1275816,2389,1729403420,124239744,map,base_link,0.07417442053198033,-0.1774814257581857,0.476,-0.03958605002753171,0.0180304396444878,-0.3592418400110713,-0.9322302013316798,"(0.9428409999999999, 0.0, 0.0, 0.0, 0.0, 0.0, 0.0, 0.9428409999999999, 0.0, 0.0, 0.0, 0.0, 0.0, 0.0, 2.849344, 0.0, 0.0, 0.0, 0.0, 0.0, 0.0, 99999.0, 0.0, 0.0, 0.0, 0.0, 0.0, 0.0, 99999.0, 0.0, 0.0, 0.0, 0.0, 0.0, 0.0, 99999.0)",0.0,0.0,0.0,0.0,0.0,0.0,"(-1.0, 0.0, 0.0, 0.0, 0.0, 0.0, 0.0, 0.0, 0.0, 0.0, 0.0, 0.0, 0.0, 0.0, 0.0, 0.0, 0.0, 0.0, 0.0, 0.0, 0.0, 0.0, 0.0, 0.0, 0.0, 0.0, 0.0, 0.0, 0.0, 0.0, 0.0, 0.0, 0.0, 0.0, 0.0, 0.0)"
1729403420.226394,2390,1729403420,224237952,map,base_link,0.07417442053198033,-0.1774814257581857,0.471,-0.03959298198394269,0.018017138988614713,-0.3592385089862019,-0.932231447732619,"(0.9428409999999999, 0.0, 0.0, 0.0, 0.0, 0.0, 0.0, 0.9428409999999999, 0.0, 0.0, 0.0, 0.0, 0.0, 0.0, 2.849344, 0.0, 0.0, 0.0, 0.0, 0.0, 0.0, 99999.0, 0.0, 0.0, 0.0, 0.0, 0.0, 0.0, 99999.0, 0.0, 0.0, 0.0, 0.0, 0.0, 0.0, 99999.0)",0.0,0.0,0.0,0.0,0.0,0.0,"(-1.0, 0.0, 0.0, 0.0, 0.0, 0.0, 0.0, 0.0, 0.0, 0.0, 0.0, 0.0, 0.0, 0.0, 0.0, 0.0, 0.0, 0.0, 0.0, 0.0, 0.0, 0.0, 0.0, 0.0, 0.0, 0.0, 0.0, 0.0, 0.0, 0.0, 0.0, 0.0, 0.0, 0.0, 0.0, 0.0)"
1729403420.3263025,2391,1729403420,324234112,map,base_link,0.07417442034304456,-0.17748142488252522,0.463,-0.039594565895906396,0.017978735590910795,-0.3592643410206535,-0.9322221670230024,"(0.9428409999999999, 0.0, 0.0, 0.0, 0.0, 0.0, 0.0, 0.9428409999999999, 0.0, 0.0, 0.0, 0.0, 0.0, 0.0, 2.849344, 0.0, 0.0, 0.0, 0.0, 0.0, 0.0, 99999.0, 0.0, 0.0, 0.0, 0.0, 0.0, 0.0, 99999.0, 0.0, 0.0, 0.0, 0.0, 0.0, 0.0, 99999.0)",0.0,0.0,0.0,0.0,0.0,0.0,"(-1.0, 0.0, 0.0, 0.0, 0.0, 0.0, 0.0, 0.0, 0.0, 0.0, 0.0, 0.0, 0.0, 0.0, 0.0, 0.0, 0.0, 0.0, 0.0, 0.0, 0.0, 0.0, 0.0, 0.0, 0.0, 0.0, 0.0, 0.0, 0.0, 0.0, 0.0, 0.0, 0.0, 0.0, 0.0, 0.0)"
1729403420.426475,2392,1729403420,424230016,map,base_link,0.07417442003014836,-0.17748142510841358,0.45,-0.03960666305570686,0.01793764020760115,-0.3592804135731474,-0.9322162505170581,"(0.9428409999999999, 0.0, 0.0, 0.0, 0.0, 0.0, 0.0, 0.9428409999999999, 0.0, 0.0, 0.0, 0.0, 0.0, 0.0, 2.8527210000000003, 0.0, 0.0, 0.0, 0.0, 0.0, 0.0, 99999.0, 0.0, 0.0, 0.0, 0.0, 0.0, 0.0, 99999.0, 0.0, 0.0, 0.0, 0.0, 0.0, 0.0, 99999.0)",0.0,0.0,0.0,0.0,0.0,0.0,"(-1.0, 0.0, 0.0, 0.0, 0.0, 0.0, 0.0, 0.0, 0.0, 0.0, 0.0, 0.0, 0.0, 0.0, 0.0, 0.0, 0.0, 0.0, 0.0, 0.0, 0.0, 0.0, 0.0, 0.0, 0.0, 0.0, 0.0, 0.0, 0.0, 0.0, 0.0, 0.0, 0.0, 0.0, 0.0, 0.0)"
1729403420.5267267,2393,1729403420,524224896,map,base_link,0.07417442002302797,-0.1774814245276671,0.435,-0.03962490394630784,0.01793808242095163,-0.3593189817085515,-0.932200601571483,"(0.9428409999999999, 0.0, 0.0, 0.0, 0.0, 0.0, 0.0, 0.9428409999999999, 0.0, 0.0, 0.0, 0.0, 0.0, 0.0, 2.8527210000000003, 0.0, 0.0, 0.0, 0.0, 0.0, 0.0, 99999.0, 0.0, 0.0, 0.0, 0.0, 0.0, 0.0, 99999.0, 0.0, 0.0, 0.0, 0.0, 0.0, 0.0, 99999.0)",0.0,0.0,0.0,0.0,0.0,0.0,"(-1.0, 0.0, 0.0, 0.0, 0.0, 0.0, 0.0, 0.0, 0.0, 0.0, 0.0, 0.0, 0.0, 0.0, 0.0, 0.0, 0.0, 0.0, 0.0, 0.0, 0.0, 0.0, 0.0, 0.0, 0.0, 0.0, 0.0, 0.0, 0.0, 0.0, 0.0, 0.0, 0.0, 0.0, 0.0, 0.0)"
1729403420.6277885,2394,1729403420,624222848,map,base_link,0.0741744198340922,-0.17748142403942505,0.424,-0.03959885271829441,0.017954400705745305,-0.35933712722531186,-0.9321943999811155,"(0.944784, 0.0, 0.0, 0.0, 0.0, 0.0, 0.0, 0.944784, 0.0, 0.0, 0.0, 0.0, 0.0, 0.0, 2.8560999999999996, 0.0, 0.0, 0.0, 0.0, 0.0, 0.0, 99999.0, 0.0, 0.0, 0.0, 0.0, 0.0, 0.0, 99999.0, 0.0, 0.0, 0.0, 0.0, 0.0, 0.0, 99999.0)",0.0,0.0,0.0,0.0,0.0,0.0,"(-1.0, 0.0, 0.0, 0.0, 0.0, 0.0, 0.0, 0.0, 0.0, 0.0, 0.0, 0.0, 0.0, 0.0, 0.0, 0.0, 0.0, 0.0, 0.0, 0.0, 0.0, 0.0, 0.0, 0.0, 0.0, 0.0, 0.0, 0.0, 0.0, 0.0, 0.0, 0.0, 0.0, 0.0, 0.0, 0.0)"
1729403420.7281568,2395,1729403420,724220800,map,base_link,0.07417441979785772,-0.1885740136777294,0.414,-0.03958595736417058,0.017958236815854848,-0.3593427850201805,-0.9321926928290996,"(0.944784, 0.0, 0.0, 0.0, 0.0, 0.0, 0.0, 0.944784, 0.0, 0.0, 0.0, 0.0, 0.0, 0.0, 2.8560999999999996, 0.0, 0.0, 0.0, 0.0, 0.0, 0.0, 99999.0, 0.0, 0.0, 0.0, 0.0, 0.0, 0.0, 99999.0, 0.0, 0.0, 0.0, 0.0, 0.0, 0.0, 99999.0)",0.0,0.0,0.0,0.0,0.0,0.0,"(-1.0, 0.0, 0.0, 0.0, 0.0, 0.0, 0.0, 0.0, 0.0, 0.0, 0.0, 0.0, 0.0, 0.0, 0.0, 0.0, 0.0, 0.0, 0.0, 0.0, 0.0, 0.0, 0.0, 0.0, 0.0, 0.0, 0.0, 0.0, 0.0, 0.0, 0.0, 0.0, 0.0, 0.0, 0.0, 0.0)"
1729403420.82782,2396,1729403420,824217216,map,base_link,0.07417441965828009,-0.1885740137213957,0.409,-0.03959930087814898,0.017957907498052903,-0.35935020105552834,-0.9321892736615267,"(0.9467289999999999, 0.0, 0.0, 0.0, 0.0, 0.0, 0.0, 0.9467289999999999, 0.0, 0.0, 0.0, 0.0, 0.0, 0.0, 2.859481, 0.0, 0.0, 0.0, 0.0, 0.0, 0.0, 99999.0, 0.0, 0.0, 0.0, 0.0, 0.0, 0.0, 99999.0, 0.0, 0.0, 0.0, 0.0, 0.0, 0.0, 99999.0)",0.0,0.0,0.0,0.0,0.0,0.0,"(-1.0, 0.0, 0.0, 0.0, 0.0, 0.0, 0.0, 0.0, 0.0, 0.0, 0.0, 0.0, 0.0, 0.0, 0.0, 0.0, 0.0, 0.0, 0.0, 0.0, 0.0, 0.0, 0.0, 0.0, 0.0, 0.0, 0.0, 0.0, 0.0, 0.0, 0.0, 0.0, 0.0, 0.0, 0.0, 0.0)"
1729403420.9276505,2397,1729403420,924215424,map,base_link,0.06490261708428688,-0.18857401395171808,0.404,-0.03960917498355778,0.01796707741754436,-0.3593708537006594,-0.9321807157931628,"(0.9467289999999999, 0.0, 0.0, 0.0, 0.0, 0.0, 0.0, 0.9467289999999999, 0.0, 0.0, 0.0, 0.0, 0.0, 0.0, 2.859481, 0.0, 0.0, 0.0, 0.0, 0.0, 0.0, 99999.0, 0.0, 0.0, 0.0, 0.0, 0.0, 0.0, 99999.0, 0.0, 0.0, 0.0, 0.0, 0.0, 0.0, 99999.0)",0.0,0.0,0.0,0.0,0.0,0.0,"(-1.0, 0.0, 0.0, 0.0, 0.0, 0.0, 0.0, 0.0, 0.0, 0.0, 0.0, 0.0, 0.0, 0.0, 0.0, 0.0, 0.0, 0.0, 0.0, 0.0, 0.0, 0.0, 0.0, 0.0, 0.0, 0.0, 0.0, 0.0, 0.0, 0.0, 0.0, 0.0, 0.0, 0.0, 0.0, 0.0)"
1729403421.0276577,2398,1729403421,24207232,map,base_link,0.06490261694470925,-0.18857401360796594,0.398,-0.039585746862650574,0.01797025556762577,-0.35939898624441174,-0.9321708036870975,"(0.9467289999999999, 0.0, 0.0, 0.0, 0.0, 0.0, 0.0, 0.9467289999999999, 0.0, 0.0, 0.0, 0.0, 0.0, 0.0, 2.8628639999999996, 0.0, 0.0, 0.0, 0.0, 0.0, 0.0, 99999.0, 0.0, 0.0, 0.0, 0.0, 0.0, 0.0, 99999.0, 0.0, 0.0, 0.0, 0.0, 0.0, 0.0, 99999.0)",0.0,0.0,0.01,0.0,0.0,0.0,"(-1.0, 0.0, 0.0, 0.0, 0.0, 0.0, 0.0, 0.0, 0.0, 0.0, 0.0, 0.0, 0.0, 0.0, 0.0, 0.0, 0.0, 0.0, 0.0, 0.0, 0.0, 0.0, 0.0, 0.0, 0.0, 0.0, 0.0, 0.0, 0.0, 0.0, 0.0, 0.0, 0.0, 0.0, 0.0, 0.0)"
1729403421.1271784,2399,1729403421,124203648,map,base_link,0.06490261680513164,-0.18857401287679537,0.389,-0.03958792223085136,0.017999803243740627,-0.35942415971397434,-0.9321604351776223,"(0.9467289999999999, 0.0, 0.0, 0.0, 0.0, 0.0, 0.0, 0.9467289999999999, 0.0, 0.0, 0.0, 0.0, 0.0, 0.0, 2.8628639999999996, 0.0, 0.0, 0.0, 0.0, 0.0, 0.0, 99999.0, 0.0, 0.0, 0.0, 0.0, 0.0, 0.0, 99999.0, 0.0, 0.0, 0.0, 0.0, 0.0, 0.0, 99999.0)",0.0,0.0,0.01,0.0,0.0,0.0,"(-1.0, 0.0, 0.0, 0.0, 0.0, 0.0, 0.0, 0.0, 0.0, 0.0, 0.0, 0.0, 0.0, 0.0, 0.0, 0.0, 0.0, 0.0, 0.0, 0.0, 0.0, 0.0, 0.0, 0.0, 0.0, 0.0, 0.0, 0.0, 0.0, 0.0, 0.0, 0.0, 0.0, 0.0, 0.0, 0.0)"
1729403421.230076,2400,1729403421,224209280,map,base_link,0.05563081467649186,-0.18857401303165344,0.381,-0.03958137593724534,0.018011249783875208,-0.3594560942102769,-0.9321481780785872,"(0.948676, 0.0, 0.0, 0.0, 0.0, 0.0, 0.0, 0.948676, 0.0, 0.0, 0.0, 0.0, 0.0, 0.0, 2.8662490000000003, 0.0, 0.0, 0.0, 0.0, 0.0, 0.0, 99999.0, 0.0, 0.0, 0.0, 0.0, 0.0, 0.0, 99999.0, 0.0, 0.0, 0.0, 0.0, 0.0, 0.0, 99999.0)",0.0,0.0,0.01,0.0,0.0,0.0,"(-1.0, 0.0, 0.0, 0.0, 0.0, 0.0, 0.0, 0.0, 0.0, 0.0, 0.0, 0.0, 0.0, 0.0, 0.0, 0.0, 0.0, 0.0, 0.0, 0.0, 0.0, 0.0, 0.0, 0.0, 0.0, 0.0, 0.0, 0.0, 0.0, 0.0, 0.0, 0.0, 0.0, 0.0, 0.0, 0.0)"
1729403421.3273976,2401,1729403421,324207488,map,base_link,0.05563081480894912,-0.1885740131820775,0.376,-0.03958570961383834,0.018029315858847685,-0.3594678146409357,-0.9321431250625092,"(0.948676, 0.0, 0.0, 0.0, 0.0, 0.0, 0.0, 0.948676, 0.0, 0.0, 0.0, 0.0, 0.0, 0.0, 2.8662490000000003, 0.0, 0.0, 0.0, 0.0, 0.0, 0.0, 99999.0, 0.0, 0.0, 0.0, 0.0, 0.0, 0.0, 99999.0, 0.0, 0.0, 0.0, 0.0, 0.0, 0.0, 99999.0)",0.0,0.0,0.01,0.0,0.0,0.0,"(-1.0, 0.0, 0.0, 0.0, 0.0, 0.0, 0.0, 0.0, 0.0, 0.0, 0.0, 0.0, 0.0, 0.0, 0.0, 0.0, 0.0, 0.0, 0.0, 0.0, 0.0, 0.0, 0.0, 0.0, 0.0, 0.0, 0.0, 0.0, 0.0, 0.0, 0.0, 0.0, 0.0, 0.0, 0.0, 0.0)"
