Time,header.seq,header.stamp.secs,header.stamp.nsecs,header.frame_id,twist.linear.x,twist.linear.y,twist.linear.z,twist.angular.x,twist.angular.y,twist.angular.z
1729403412.2197864,2307,1729403411,829585344,map,-0.0006735696945822645,0.019988654378585376,0.0,0.0,0.0,0.0
1729403412.2201588,2308,1729403411,829579968,map,-0.0006735696945822645,0.019988654378585376,0.0,0.0,0.0,0.0
1729403412.2203214,2309,1729403412,29574592,map,-0.0016839242364556613,0.04997163594646345,0.0,0.0,0.0,0.0
1729403412.2379556,2310,1729403412,29569216,map,-0.0016839242364556613,0.04997163594646345,0.0,0.0,0.0,0.0
1729403412.332974,2311,1729403412,229563840,map,-0.00303106362562019,0.0899489447036342,0.0,0.0,0.0,0.0
1729403412.434312,2312,1729403412,229559232,map,-0.00303106362562019,0.0899489447036342,0.0,0.0,0.0,0.0
1729403412.5315237,2313,1729403412,429556416,map,-0.004378203014784719,0.12992625346080497,0.0,0.0,0.0,0.0
1729403412.6324723,2314,1729403412,429551040,map,-0.004378203014784719,0.12992625346080497,0.0,0.0,0.0,0.0
1729403412.7312448,2315,1729403412,629546688,map,-0.001347139389164529,0.03997730875717075,0.0,0.0,0.0,0.0
1729403412.8344545,2316,1729403412,629543616,map,-0.001347139389164529,0.03997730875717075,0.0,0.0,0.0,0.0
1729403412.9314497,2317,1729403412,829539520,map,-0.0006735696945822645,0.019988654378585376,0.0,0.0,0.0,0.0
1729403413.0331786,2318,1729403412,829531584,map,-0.0006735696945822645,0.019988654378585376,0.0,0.0,0.0,0.0
1729403413.1381867,2319,1729403413,29526464,map,-0.001347139389164529,0.03997730875717075,0.0,0.0,0.0,0.0
1729403413.23311,2320,1729403413,29524160,map,-0.001347139389164529,0.03997730875717075,0.0,0.0,0.0,0.0
1729403413.3337831,2321,1729403413,229519040,map,-0.0010103545418733966,0.029982981567878066,0.0,0.0,0.0,0.0
1729403413.434231,2322,1729403413,229516480,map,-0.0010103545418733966,0.029982981567878066,0.0,0.0,0.0,0.0
1729403413.5326717,2323,1729403413,429511360,map,-0.0010103545418733966,0.029982981567878066,0.0,0.0,0.0,0.0
1729403413.632006,2324,1729403413,429506752,map,-0.0010103545418733966,0.029982981567878066,0.0,0.0,0.0,0.0
1729403413.7320051,2325,1729403413,629503424,map,-0.0016839242364556613,0.04997163594646345,0.0,0.0,0.0,0.0
1729403413.833127,2326,1729403413,629499840,map,-0.0016839242364556613,0.04997163594646345,0.0,0.0,0.0,0.0
1729403413.93219,2327,1729403413,829496512,map,-0.002357493931037926,0.06996029032504883,0.0,0.0,0.0,0.0
1729403414.0345128,2328,1729403413,829492928,map,-0.002357493931037926,0.06996029032504883,0.0,0.0,0.0,0.0
1729403414.1344492,2329,1729403414,29489088,map,-0.00033678484729113224,0.009994327189292688,0.0,0.0,0.0,0.0
1729403414.236652,2330,1729403414,29485760,map,-0.00033678484729113224,0.009994327189292688,0.0,0.0,0.0,0.0
1729403414.3319,2331,1729403414,229482176,map,-0.0010103545418733966,0.029982981567878066,0.0,0.0,0.0,0.0
1729403414.4335394,2332,1729403414,229478848,map,-0.0010103545418733966,0.029982981567878066,0.0,0.0,0.0,0.0
1729403414.535019,2333,1729403414,429475776,map,-0.0010103545418733966,0.029982981567878066,0.0,0.0,0.0,0.0
1729403414.6348724,2334,1729403414,429472704,map,-0.0010103545418733966,0.029982981567878066,0.0,0.0,0.0,0.0
1729403414.732597,2335,1729403414,629468608,map,-0.0006735696945822645,0.019988654378585376,0.0,0.0,0.0,0.0
1729403414.8328364,2336,1729403414,629464512,map,-0.0006735696945822645,0.019988654378585376,0.0,0.0,0.0,0.0
1729403414.934278,2337,1729403414,829463232,map,-0.0006735696945822645,0.019988654378585376,0.0,0.0,0.0,0.0
1729403415.0340555,2338,1729403414,829458880,map,-0.0006735696945822645,0.019988654378585376,0.0,0.0,0.0,0.0
1729403415.1339645,2339,1729403415,29454784,map,-0.0020207090837467932,0.05996596313575613,0.0,0.0,0.0,0.0
1729403415.2329535,2340,1729403415,29453504,map,-0.0020207090837467932,0.05996596313575613,0.0,0.0,0.0,0.0
1729403415.3326592,2341,1729403415,229449408,map,-0.00033678484729113224,0.009994327189292688,0.0,0.0,0.0,0.0
1729403415.4329188,2342,1729403415,229445568,map,-0.00033678484729113224,0.009994327189292688,0.0,0.0,0.0,0.0
1729403415.5345185,2343,1729403415,429442752,map,-0.0006735696945822645,0.019988654378585376,0.0,0.0,0.0,0.0
1729403415.634782,2344,1729403415,429437376,map,-0.0006735696945822645,0.019988654378585376,0.0,0.0,0.0,0.0
1729403415.732649,2345,1729403415,629432256,map,-0.001347139389164529,0.03997730875717075,0.0,0.0,0.0,0.0
1729403415.8340473,2346,1729403415,629427904,map,-0.001347139389164529,0.03997730875717075,0.0,0.0,0.0,0.0
1729403415.9340072,2347,1729403415,829423296,map,-0.00033678484729113224,0.009994327189292688,0.0,0.0,0.0,0.0
1729403416.0342324,2348,1729403415,829417920,map,-0.00033678484729113224,0.009994327189292688,0.0,0.0,0.0,0.0
1729403416.1320703,2349,1729403416,29413824,map,-0.00033678484729113224,0.009994327189292688,0.0,0.0,0.0,0.0
1729403416.2340026,2350,1729403416,29413824,map,-0.00033678484729113224,0.009994327189292688,0.0,0.0,0.0,0.0
1729403416.3318603,2351,1729403416,229409728,map,-0.001347139389164529,0.03997730875717075,0.0,0.0,0.0,0.0
1729403416.4321668,2352,1729403416,229405888,map,-0.001347139389164529,0.03997730875717075,0.0,0.0,0.0,0.0
1729403416.533452,2353,1729403416,429401024,map,-0.0020207090837467932,0.05996596313575613,0.0,0.0,0.0,0.0
1729403416.6335862,2354,1729403416,429397440,map,-0.0020207090837467932,0.05996596313575613,0.0,0.0,0.0,0.0
1729403416.7339265,2355,1729403416,629394112,map,-0.0006735696945822645,0.019988654378585376,0.0,0.0,0.0,0.0
1729403416.834044,2356,1729403416,629390016,map,-0.0006735696945822645,0.019988654378585376,0.0,0.0,0.0,0.0
1729403416.9339445,2357,1729403416,829385152,map,-0.0,0.0,0.0,0.0,0.0,0.0
1729403417.0340588,2358,1729403416,829377216,map,-0.0,0.0,0.0,0.0,0.0,0.0
1729403417.1356134,2359,1729403417,29372608,map,-0.0006735696945822645,0.019988654378585376,0.0,0.0,0.0,0.0
1729403417.2372334,2360,1729403417,29368000,map,-0.0006735696945822645,0.019988654378585376,0.0,0.0,0.0,0.0
1729403417.3342364,2361,1729403417,229361856,map,-0.001347139389164529,0.03997730875717075,0.0,0.0,0.0,0.0
1729403417.4341433,2362,1729403417,229358272,map,-0.001347139389164529,0.03997730875717075,0.0,0.0,0.0,0.0
1729403417.5340536,2363,1729403417,429353920,map,-0.0006735696945822645,0.019988654378585376,0.0,0.0,0.0,0.0
1729403417.6340628,2364,1729403417,429349056,map,-0.0006735696945822645,0.019988654378585376,0.0,0.0,0.0,0.0
1729403417.73408,2365,1729403417,629345728,map,-0.001347139389164529,0.03997730875717075,0.0,0.0,0.0,0.0
1729403417.833752,2366,1729403417,629342400,map,-0.001347139389164529,0.03997730875717075,0.0,0.0,0.0,0.0
1729403417.9340808,2367,1729403417,829339328,map,-0.0010103545418733966,0.029982981567878066,0.0,0.0,0.0,0.0
1729403418.0344734,2368,1729403417,829331392,map,-0.0010103545418733966,0.029982981567878066,0.0,0.0,0.0,0.0
1729403418.135287,2369,1729403418,29327040,map,-0.0016839242364556613,0.04997163594646345,0.0,0.0,0.0,0.0
1729403418.2391725,2370,1729403418,29322688,map,-0.0016839242364556613,0.04997163594646345,0.0,0.0,0.0,0.0
1729403418.3323224,2371,1729403418,229318336,map,-0.00033678484729113224,0.009994327189292688,0.0,0.0,0.0,0.0
1729403418.4349604,2372,1729403418,229312704,map,-0.00033678484729113224,0.009994327189292688,0.0,0.0,0.0,0.0
1729403418.5349197,2373,1729403418,429305792,map,-0.00033678484729113224,0.009994327189292688,0.0,0.0,0.0,0.0
1729403418.6339157,2374,1729403418,429303232,map,-0.00033678484729113224,0.009994327189292688,0.0,0.0,0.0,0.0
1729403418.7357361,2375,1729403418,629298880,map,-0.0006735696945822645,0.019988654378585376,0.0,0.0,0.0,0.0
1729403418.8374465,2376,1729403418,629294528,map,-0.0006735696945822645,0.019988654378585376,0.0,0.0,0.0,0.0
1729403418.9342742,2377,1729403418,829290176,map,-0.0010103545418733966,0.029982981567878066,0.0,0.0,0.0,0.0
1729403419.0352747,2378,1729403418,829286080,map,-0.0010103545418733966,0.029982981567878066,0.0,0.0,0.0,0.0
1729403419.135026,2379,1729403419,29283264,map,-0.0016839242364556613,0.04997163594646345,0.0,0.0,0.0,0.0
1729403419.2343829,2380,1729403419,29280960,map,-0.0016839242364556613,0.04997163594646345,0.0,0.0,0.0,0.0
1729403419.3320518,2381,1729403419,229275584,map,-0.00033678484729113224,0.009994327189292688,0.0,0.0,0.0,0.0
1729403419.4348533,2382,1729403419,229273280,map,-0.00033678484729113224,0.009994327189292688,0.0,0.0,0.0,0.0
1729403419.534429,2383,1729403419,429269184,map,-0.0006735696945822645,0.019988654378585376,0.0,0.0,0.0,0.0
1729403419.6343868,2384,1729403419,429264832,map,-0.0006735696945822645,0.019988654378585376,0.0,0.0,0.0,0.0
1729403419.7323039,2385,1729403419,629260736,map,-0.0006735696945822645,0.019988654378585376,0.0,0.0,0.0,0.0
1729403419.8360176,2386,1729403419,629255360,map,-0.0006735696945822645,0.019988654378585376,0.0,0.0,0.0,0.0
1729403419.9334629,2387,1729403419,829248448,map,-0.001347139389164529,0.03997730875717075,0.0,0.0,0.0,0.0
1729403420.0345323,2388,1729403419,829243328,map,-0.001347139389164529,0.03997730875717075,0.0,0.0,0.0,0.0
1729403420.1343045,2389,1729403420,31239744,map,-0.0,0.0,0.0,0.0,0.0,0.0
1729403420.234464,2390,1729403420,31237952,map,-0.0,0.0,0.0,0.0,0.0,0.0
1729403420.3343005,2391,1729403420,231234112,map,-0.0006735696945822645,0.019988654378585376,0.0,0.0,0.0,0.0
1729403420.4334137,2392,1729403420,231230016,map,-0.0006735696945822645,0.019988654378585376,0.0,0.0,0.0,0.0
1729403420.5314536,2393,1729403420,431224896,map,-0.0,0.0,0.0,0.0,0.0,0.0
1729403420.6339457,2394,1729403420,431222848,map,-0.0,0.0,0.0,0.0,0.0,0.0
1729403420.7366388,2395,1729403420,631220800,map,-0.0,0.0,0.0,0.0,0.0,0.0
1729403420.8361583,2396,1729403420,631217216,map,-0.0,0.0,0.0,0.0,0.0,0.0
1729403420.934174,2397,1729403420,831215424,map,-0.0010103545418733966,0.029982981567878066,0.0,0.0,0.0,0.0
1729403421.034401,2398,1729403420,831207232,map,-0.0010103545418733966,0.029982981567878066,0.0,0.0,0.0,0.0
1729403421.1322877,2399,1729403421,31203648,map,-0.0010103545418733966,0.029982981567878066,0.0,0.0,0.0,0.0
1729403421.2361012,2400,1729403421,31209280,map,-0.0010103545418733966,0.029982981567878066,0.0,0.0,0.0,0.0
1729403421.3344877,2401,1729403421,231207488,map,-0.0010103545418733966,0.029982981567878066,0.0,0.0,0.0,0.0
1729403421.4369128,2402,1729403421,231205696,map,-0.0010103545418733966,0.029982981567878066,0.0,0.0,0.0,0.0
1729403421.534551,2403,1729403421,431202112,map,-0.0016839242364556613,0.04997163594646345,0.0,0.0,0.0,0.0
1729403421.6346703,2404,1729403421,431198784,map,-0.0016839242364556613,0.04997163594646345,0.0,0.0,0.0,0.0
1729403421.734197,2405,1729403421,631195456,map,-0.00033678484729113224,0.009994327189292688,0.0,0.0,0.0,0.0
1729403421.833884,2406,1729403421,631190592,map,-0.00033678484729113224,0.009994327189292688,0.0,0.0,0.0,0.0
1729403421.9341486,2407,1729403421,831184448,map,-0.00033678484729113224,0.009994327189292688,0.0,0.0,0.0,0.0
1729403422.0346189,2408,1729403421,831179840,map,-0.00033678484729113224,0.009994327189292688,0.0,0.0,0.0,0.0
1729403422.1359642,2409,1729403422,31172160,map,-0.0006735696945822645,0.019988654378585376,0.0,0.0,0.0,0.0
1729403422.233976,2410,1729403422,31169088,map,-0.0006735696945822645,0.019988654378585376,0.0,0.0,0.0,0.0
1729403422.3333457,2411,1729403422,231166016,map,-0.0010103545418733966,0.029982981567878066,0.0,0.0,0.0,0.0
1729403422.4345174,2412,1729403422,231161408,map,-0.0010103545418733966,0.029982981567878066,0.0,0.0,0.0,0.0
1729403422.5349164,2413,1729403422,431155776,map,-0.001347139389164529,0.03997730875717075,0.0,0.0,0.0,0.0
1729403422.6343982,2414,1729403422,431150144,map,-0.001347139389164529,0.03997730875717075,0.0,0.0,0.0,0.0
1729403422.735119,2415,1729403422,631142464,map,-0.0006735696945822645,0.019988654378585376,0.0,0.0,0.0,0.0
1729403422.8350937,2416,1729403422,631135040,map,-0.0006735696945822645,0.019988654378585376,0.0,0.0,0.0,0.0
1729403422.9352577,2417,1729403422,831127616,map,-0.0010103545418733966,0.029982981567878066,0.0,0.0,0.0,0.0
1729403423.0342505,2418,1729403422,831119680,map,-0.0010103545418733966,0.029982981567878066,0.0,0.0,0.0,0.0
1729403423.1349254,2419,1729403423,31115328,map,-0.0,0.0,0.0,0.0,0.0,0.0
1729403423.2378755,2420,1729403423,31112000,map,-0.0,0.0,0.0,0.0,0.0,0.0
1729403423.335456,2421,1729403423,231108672,map,-0.0010103545418733966,0.029982981567878066,0.0,0.0,0.0,0.0
1729403423.4342961,2422,1729403423,231101504,map,-0.0010103545418733966,0.029982981567878066,0.0,0.0,0.0,0.0
1729403423.5347908,2423,1729403423,431097408,map,-0.0006735696945822645,0.019988654378585376,0.0,0.0,0.0,0.0
1729403423.638079,2424,1729403423,431093056,map,-0.0006735696945822645,0.019988654378585376,0.0,0.0,0.0,0.0
1729403423.7348676,2425,1729403423,631088960,map,-0.00033678484729113224,0.009994327189292688,0.0,0.0,0.0,0.0
1729403423.834667,2426,1729403423,631084864,map,-0.00033678484729113224,0.009994327189292688,0.0,0.0,0.0,0.0
1729403423.9350603,2427,1729403423,831079744,map,-0.0010103545418733966,0.029982981567878066,0.0,0.0,0.0,0.0
1729403424.035001,2428,1729403423,831072832,map,-0.0010103545418733966,0.029982981567878066,0.0,0.0,0.0,0.0
1729403424.1319926,2429,1729403424,31070784,map,-0.001347139389164529,0.03997730875717075,0.0,0.0,0.0,0.0
1729403424.2351735,2430,1729403424,31068480,map,-0.001347139389164529,0.03997730875717075,0.0,0.0,0.0,0.0
1729403424.335387,2431,1729403424,231061824,map,-0.0010103545418733966,0.029982981567878066,0.0,0.0,0.0,0.0
1729403424.4339561,2432,1729403424,231057984,map,-0.0010103545418733966,0.029982981567878066,0.0,0.0,0.0,0.0
1729403424.538553,2433,1729403424,431054144,map,-0.0010103545418733966,0.029982981567878066,0.0,0.0,0.0,0.0
1729403424.6341476,2434,1729403424,431049024,map,-0.0010103545418733966,0.029982981567878066,0.0,0.0,0.0,0.0
1729403424.735643,2435,1729403424,631040832,map,-0.00033678484729113224,0.009994327189292688,0.0,0.0,0.0,0.0
1729403424.8320897,2436,1729403424,631032640,map,-0.00033678484729113224,0.009994327189292688,0.0,0.0,0.0,0.0
1729403424.9340458,2437,1729403424,831029056,map,-0.00033678484729113224,0.009994327189292688,0.0,0.0,0.0,0.0
1729403425.0376568,2438,1729403424,831021888,map,-0.00033678484729113224,0.009994327189292688,0.0,0.0,0.0,0.0
1729403425.1372473,2439,1729403425,31017024,map,-0.001347139389164529,0.03997730875717075,0.0,0.0,0.0,0.0
1729403425.233059,2440,1729403425,31013440,map,-0.001347139389164529,0.03997730875717075,0.0,0.0,0.0,0.0
1729403425.3347664,2441,1729403425,231009088,map,-0.0006735696945822645,0.019988654378585376,0.0,0.0,0.0,0.0
1729403425.4349365,2442,1729403425,231001152,map,-0.0006735696945822645,0.019988654378585376,0.0,0.0,0.0,0.0
1729403425.5337608,2443,1729403425,430994496,map,-0.0006735696945822645,0.019988654378585376,0.0,0.0,0.0,0.0
1729403425.6346986,2444,1729403425,430991168,map,-0.0006735696945822645,0.019988654378585376,0.0,0.0,0.0,0.0
1729403425.7386978,2445,1729403425,630988096,map,-0.00033678484729113224,0.009994327189292688,0.0,0.0,0.0,0.0
1729403425.837546,2446,1729403425,630984768,map,-0.00033678484729113224,0.009994327189292688,0.0,0.0,0.0,0.0
1729403425.9324267,2447,1729403425,830981440,map,-0.0,0.0,0.0,0.0,0.0,0.0
1729403426.0360534,2448,1729403425,830972992,map,-0.0,0.0,0.0,0.0,0.0,0.0
1729403426.136353,2449,1729403426,30965312,map,-0.001347139389164529,0.03997730875717075,0.0,0.0,0.0,0.0
1729403426.2338011,2450,1729403426,30959936,map,-0.001347139389164529,0.03997730875717075,0.0,0.0,0.0,0.0
1729403426.3345485,2451,1729403426,230956864,map,-0.0010103545418733966,0.029982981567878066,0.0,0.0,0.0,0.0
1729403426.434109,2452,1729403426,230948928,map,-0.0010103545418733966,0.029982981567878066,0.0,0.0,0.0,0.0
1729403426.5339968,2453,1729403426,430944576,map,-0.0020207090837467932,0.05996596313575613,0.0,0.0,0.0,0.0
1729403426.634241,2454,1729403426,430941504,map,-0.0020207090837467932,0.05996596313575613,0.0,0.0,0.0,0.0
1729403426.7372568,2455,1729403426,630938944,map,-0.0006735696945822645,0.019988654378585376,0.0,0.0,0.0,0.0
1729403426.8342886,2456,1729403426,630931264,map,-0.0006735696945822645,0.019988654378585376,0.0,0.0,0.0,0.0
1729403426.9339736,2457,1729403426,830923584,map,-0.0010103545418733966,0.029982981567878066,0.0,0.0,0.0,0.0
1729403427.034389,2458,1729403426,830915904,map,-0.0010103545418733966,0.029982981567878066,0.0,0.0,0.0,0.0
1729403427.134305,2459,1729403427,30913088,map,-0.0010103545418733966,0.029982981567878066,0.0,0.0,0.0,0.0
1729403427.234254,2460,1729403427,30908992,map,-0.0010103545418733966,0.029982981567878066,0.0,0.0,0.0,0.0
1729403427.3340418,2461,1729403427,230904640,map,-0.002357493931037926,0.06996029032504883,0.0,0.0,0.0,0.0
1729403427.4317799,2462,1729403427,230902080,map,-0.002357493931037926,0.06996029032504883,0.0,0.0,0.0,0.0
1729403427.5355525,2463,1729403427,430894912,map,-0.0016839242364556613,0.04997163594646345,0.0,0.0,0.0,0.0
1729403427.6344054,2464,1729403427,430888000,map,-0.0016839242364556613,0.04997163594646345,0.0,0.0,0.0,0.0
1729403427.7343593,2465,1729403427,630880832,map,-0.0006735696945822645,0.019988654378585376,0.0,0.0,0.0,0.0
1729403427.8344998,2466,1729403427,630876736,map,-0.0006735696945822645,0.019988654378585376,0.0,0.0,0.0,0.0
1729403427.9346738,2467,1729403427,830872896,map,-0.0010103545418733966,0.029982981567878066,0.0,0.0,0.0,0.0
1729403428.0350075,2468,1729403427,830865216,map,-0.0010103545418733966,0.029982981567878066,0.0,0.0,0.0,0.0
1729403428.1348472,2469,1729403428,30860096,map,-0.001347139389164529,0.03997730875717075,0.0,0.0,0.0,0.0
1729403428.234482,2470,1729403428,30855488,map,-0.001347139389164529,0.03997730875717075,0.0,0.0,0.0,0.0
1729403428.3344138,2471,1729403428,230848576,map,-0.0,0.0,0.0,0.0,0.0,0.0
1729403428.4358132,2472,1729403428,230841664,map,-0.0,0.0,0.0,0.0,0.0,0.0
1729403428.5317805,2473,1729403428,430837568,map,-0.0006735696945822645,0.019988654378585376,0.0,0.0,0.0,0.0
1729403428.6345553,2474,1729403428,430833728,map,-0.0006735696945822645,0.019988654378585376,0.0,0.0,0.0,0.0
1729403428.735122,2475,1729403428,630826560,map,-0.0016839242364556613,0.04997163594646345,0.0,0.0,0.0,0.0
1729403428.834539,2476,1729403428,630821696,map,-0.0016839242364556613,0.04997163594646345,0.0,0.0,0.0,0.0
1729403428.9344215,2477,1729403428,830814784,map,-0.001347139389164529,0.03997730875717075,0.0,0.0,0.0,0.0
1729403429.0345302,2478,1729403428,830807616,map,-0.001347139389164529,0.03997730875717075,0.0,0.0,0.0,0.0
1729403429.1315465,2479,1729403429,30800960,map,-0.00033678484729113224,0.009994327189292688,0.0,0.0,0.0,0.0
1729403429.2346346,2480,1729403429,30797632,map,-0.00033678484729113224,0.009994327189292688,0.0,0.0,0.0,0.0
1729403429.3343823,2481,1729403429,230794304,map,-0.0006735696945822645,0.019988654378585376,0.0,0.0,0.0,0.0
1729403429.434283,2482,1729403429,230797376,map,-0.0006735696945822645,0.019988654378585376,0.0,0.0,0.0,0.0
1729403429.5345733,2483,1729403429,430790976,map,-0.0006735696945822645,0.019988654378585376,0.0,0.0,0.0,0.0
1729403429.631745,2484,1729403429,430782784,map,-0.0006735696945822645,0.019988654378585376,0.0,0.0,0.0,0.0
1729403429.73506,2485,1729403429,630778432,map,-0.0020207090837467932,0.05996596313575613,0.0,0.0,0.0,0.0
1729403429.8353367,2486,1729403429,630771776,map,-0.0020207090837467932,0.05996596313575613,0.0,0.0,0.0,0.0
1729403429.933893,2487,1729403429,830768448,map,-0.0010103545418733966,0.029982981567878066,0.0,0.0,0.0,0.0
1729403430.0337558,2488,1729403429,830761792,map,-0.0010103545418733966,0.029982981567878066,0.0,0.0,0.0,0.0
1729403430.1361506,2489,1729403430,30758976,map,-0.0010103545418733966,0.029982981567878066,0.0,0.0,0.0,0.0
1729403430.234407,2490,1729403430,30751040,map,-0.0010103545418733966,0.029982981567878066,0.0,0.0,0.0,0.0
1729403430.334887,2491,1729403430,230746432,map,-0.00033678484729113224,0.009994327189292688,0.0,0.0,0.0,0.0
1729403430.4352975,2492,1729403430,230738496,map,-0.00033678484729113224,0.009994327189292688,0.0,0.0,0.0,0.0
1729403430.5347304,2493,1729403430,430735424,map,-0.001347139389164529,0.03997730875717075,0.0,0.0,0.0,0.0
1729403430.6345394,2494,1729403430,430732352,map,-0.001347139389164529,0.03997730875717075,0.0,0.0,0.0,0.0
1729403430.7360098,2495,1729403430,630729536,map,-0.0016839242364556613,0.04997163594646345,0.0,0.0,0.0,0.0
1729403430.835099,2496,1729403430,630725440,map,-0.0016839242364556613,0.04997163594646345,0.0,0.0,0.0,0.0
1729403430.933767,2497,1729403430,830721344,map,-0.0006735696945822645,0.019988654378585376,0.0,0.0,0.0,0.0
1729403431.0335608,2498,1729403430,830715456,map,-0.0006735696945822645,0.019988654378585376,0.0,0.0,0.0,0.0
1729403431.1341662,2499,1729403431,30708032,map,-0.0010103545418733966,0.029982981567878066,0.0,0.0,0.0,0.0
1729403431.234728,2500,1729403431,30700864,map,-0.0010103545418733966,0.029982981567878066,0.0,0.0,0.0,0.0
1729403431.3327546,2501,1729403431,230698048,map,-0.0016839242364556613,0.04997163594646345,0.0,0.0,0.0,0.0
1729403431.4361181,2502,1729403431,230694976,map,-0.0016839242364556613,0.04997163594646345,0.0,0.0,0.0,0.0
1729403431.5340703,2503,1729403431,430691392,map,-0.00033678484729113224,0.009994327189292688,0.0,0.0,0.0,0.0
1729403431.6361213,2504,1729403431,430683968,map,-0.00033678484729113224,0.009994327189292688,0.0,0.0,0.0,0.0
1729403431.7344375,2505,1729403431,630676544,map,-0.0006735696945822645,0.019988654378585376,0.0,0.0,0.0,0.0
1729403431.834077,2506,1729403431,630673984,map,-0.0006735696945822645,0.019988654378585376,0.0,0.0,0.0,0.0
1729403431.934605,2507,1729403431,830666816,map,-0.0010103545418733966,0.029982981567878066,0.0,0.0,0.0,0.0
1729403432.0340147,2508,1729403431,830659904,map,-0.0010103545418733966,0.029982981567878066,0.0,0.0,0.0,0.0
1729403432.1318746,2509,1729403432,30657088,map,-0.001347139389164529,0.03997730875717075,0.0,0.0,0.0,0.0
1729403432.2363725,2510,1729403432,30652480,map,-0.001347139389164529,0.03997730875717075,0.0,0.0,0.0,0.0
1729403432.333843,2511,1729403432,230645312,map,-0.001347139389164529,0.03997730875717075,0.0,0.0,0.0,0.0
1729403432.4351392,2512,1729403432,230638400,map,-0.001347139389164529,0.03997730875717075,0.0,0.0,0.0,0.0
1729403432.534173,2513,1729403432,430635840,map,-0.0006735696945822645,0.019988654378585376,0.0,0.0,0.0,0.0
1729403432.633944,2514,1729403432,430633536,map,-0.0006735696945822645,0.019988654378585376,0.0,0.0,0.0,0.0
1729403432.7325454,2515,1729403432,630631232,map,-0.0010103545418733966,0.029982981567878066,0.0,0.0,0.0,0.0
1729403432.8345373,2516,1729403432,630627392,map,-0.0010103545418733966,0.029982981567878066,0.0,0.0,0.0,0.0
1729403432.9329286,2517,1729403432,830623040,map,-0.00033678484729113224,0.009994327189292688,0.0,0.0,0.0,0.0
1729403433.0342197,2518,1729403432,830616640,map,-0.00033678484729113224,0.009994327189292688,0.0,0.0,0.0,0.0
1729403433.1344402,2519,1729403433,30611776,map,-0.00033678484729113224,0.009994327189292688,0.0,0.0,0.0,0.0
1729403433.2359555,2520,1729403433,30608960,map,-0.00033678484729113224,0.009994327189292688,0.0,0.0,0.0,0.0
1729403433.3341246,2521,1729403433,230602304,map,-0.0010103545418733966,0.029982981567878066,0.0,0.0,0.0,0.0
1729403433.4352853,2522,1729403433,230598720,map,-0.0010103545418733966,0.029982981567878066,0.0,0.0,0.0,0.0
1729403433.5357158,2523,1729403433,430593856,map,-0.0006735696945822645,0.019988654378585376,0.0,0.0,0.0,0.0
1729403433.633237,2524,1729403433,430588992,map,-0.0006735696945822645,0.019988654378585376,0.0,0.0,0.0,0.0
1729403433.735256,2525,1729403433,630584128,map,-0.002694278778329058,0.0799546175143415,0.0,0.0,0.0,0.0
1729403433.8360724,2526,1729403433,630577472,map,-0.002694278778329058,0.0799546175143415,0.0,0.0,0.0,0.0
1729403433.9362555,2527,1729403433,830571072,map,-0.0006735696945822645,0.019988654378585376,0.0,0.0,0.0,0.0
1729403434.0378416,2528,1729403433,830564416,map,-0.0006735696945822645,0.019988654378585376,0.0,0.0,0.0,0.0
1729403434.134254,2529,1729403434,30558016,map,-0.0006735696945822645,0.019988654378585376,0.0,0.0,0.0,0.0
1729403434.234552,2530,1729403434,30551360,map,-0.0006735696945822645,0.019988654378585376,0.0,0.0,0.0,0.0
1729403434.3346796,2531,1729403434,230543936,map,-0.0006735696945822645,0.019988654378585376,0.0,0.0,0.0,0.0
1729403434.434448,2532,1729403434,230537280,map,-0.0006735696945822645,0.019988654378585376,0.0,0.0,0.0,0.0
1729403434.5335474,2533,1729403434,430532672,map,-0.00033678484729113224,0.009994327189292688,0.0,0.0,0.0,0.0
1729403434.6342356,2534,1729403434,430529344,map,-0.00033678484729113224,0.009994327189292688,0.0,0.0,0.0,0.0
1729403434.731412,2535,1729403434,630523200,map,-0.0016839242364556613,0.04997163594646345,0.0,0.0,0.0,0.0
1729403434.836669,2536,1729403434,630519872,map,-0.0016839242364556613,0.04997163594646345,0.0,0.0,0.0,0.0
1729403434.933795,2537,1729403434,830515264,map,-0.0010103545418733966,0.029982981567878066,0.0,0.0,0.0,0.0
1729403435.0344758,2538,1729403434,830509120,map,-0.0010103545418733966,0.029982981567878066,0.0,0.0,0.0,0.0
1729403435.1343606,2539,1729403435,30504512,map,-0.0,0.0,0.0,0.0,0.0,0.0
1729403435.2343712,2540,1729403435,30498112,map,-0.0,0.0,0.0,0.0,0.0,0.0
1729403435.334196,2541,1729403435,230490432,map,-0.0006735696945822645,0.019988654378585376,0.0,0.0,0.0,0.0
1729403435.4320974,2542,1729403435,230484288,map,-0.0006735696945822645,0.019988654378585376,0.0,0.0,0.0,0.0
1729403435.5345554,2543,1729403435,430477120,map,-0.0016839242364556613,0.04997163594646345,0.0,0.0,0.0,0.0
1729403435.6322002,2544,1729403435,430473024,map,-0.0016839242364556613,0.04997163594646345,0.0,0.0,0.0,0.0
1729403435.7343986,2545,1729403435,630465600,map,-0.0006735696945822645,0.019988654378585376,0.0,0.0,0.0,0.0
1729403435.834468,2546,1729403435,630458176,map,-0.0006735696945822645,0.019988654378585376,0.0,0.0,0.0,0.0
1729403435.9333248,2547,1729403435,830454848,map,-0.001347139389164529,0.03997730875717075,0.0,0.0,0.0,0.0
1729403436.0342627,2548,1729403435,830448960,map,-0.001347139389164529,0.03997730875717075,0.0,0.0,0.0,0.0
1729403436.1371963,2549,1729403436,30440768,map,-0.0010103545418733966,0.029982981567878066,0.0,0.0,0.0,0.0
1729403436.2325277,2550,1729403436,30437696,map,-0.0010103545418733966,0.029982981567878066,0.0,0.0,0.0,0.0
1729403436.3333964,2551,1729403436,230434112,map,-0.0006735696945822645,0.019988654378585376,0.0,0.0,0.0,0.0
1729403436.4335873,2552,1729403436,230433088,map,-0.0006735696945822645,0.019988654378585376,0.0,0.0,0.0,0.0
1729403436.5317543,2553,1729403436,430429248,map,-0.0010103545418733966,0.029982981567878066,0.0,0.0,0.0,0.0
1729403436.6337104,2554,1729403436,430421824,map,-0.0010103545418733966,0.029982981567878066,0.0,0.0,0.0,0.0
1729403436.7358837,2555,1729403436,630416192,map,-0.0016839242364556613,0.04997163594646345,0.0,0.0,0.0,0.0
1729403436.8345113,2556,1729403436,630413120,map,-0.0016839242364556613,0.04997163594646345,0.0,0.0,0.0,0.0
1729403436.9331121,2557,1729403436,830406208,map,-0.0016839242364556613,0.04997163594646345,0.0,0.0,0.0,0.0
1729403437.0336573,2558,1729403436,830400832,map,-0.0016839242364556613,0.04997163594646345,0.0,0.0,0.0,0.0
1729403437.1363397,2559,1729403437,30394432,map,-0.0010103545418733966,0.029982981567878066,0.0,0.0,0.0,0.0
1729403437.233596,2560,1729403437,30387520,map,-0.0010103545418733966,0.029982981567878066,0.0,0.0,0.0,0.0
1729403437.3335938,2561,1729403437,230380608,map,-0.0006735696945822645,0.019988654378585376,0.0,0.0,0.0,0.0
1729403437.4338048,2562,1729403437,230373696,map,-0.0006735696945822645,0.019988654378585376,0.0,0.0,0.0,0.0
1729403437.534126,2563,1729403437,430367040,map,-0.0006735696945822645,0.019988654378585376,0.0,0.0,0.0,0.0
1729403437.6341956,2564,1729403437,430360128,map,-0.0006735696945822645,0.019988654378585376,0.0,0.0,0.0,0.0
1729403437.7359245,2565,1729403437,630352448,map,-0.001347139389164529,0.03997730875717075,0.0,0.0,0.0,0.0
1729403437.8343549,2566,1729403437,630346048,map,-0.001347139389164529,0.03997730875717075,0.0,0.0,0.0,0.0
1729403437.9345286,2567,1729403437,830339136,map,-0.0010103545418733966,0.029982981567878066,0.0,0.0,0.0,0.0
1729403438.035195,2568,1729403437,830332736,map,-0.0010103545418733966,0.029982981567878066,0.0,0.0,0.0,0.0
1729403438.1318247,2569,1729403438,30325824,map,-0.00033678484729113224,0.009994327189292688,0.0,0.0,0.0,0.0
1729403438.2350903,2570,1729403438,30319168,map,-0.00033678484729113224,0.009994327189292688,0.0,0.0,0.0,0.0
1729403438.3339934,2571,1729403438,230312512,map,-0.001347139389164529,0.03997730875717075,0.0,0.0,0.0,0.0
1729403438.4333746,2572,1729403438,230306112,map,-0.001347139389164529,0.03997730875717075,0.0,0.0,0.0,0.0
1729403438.5347807,2573,1729403438,430301504,map,-0.00033678484729113224,0.009994327189292688,0.0,0.0,0.0,0.0
1729403438.63495,2574,1729403438,430295104,map,-0.00033678484729113224,0.009994327189292688,0.0,0.0,0.0,0.0
1729403438.733949,2575,1729403438,630288704,map,-0.0010103545418733966,0.029982981567878066,0.0,0.0,0.0,0.0
1729403438.8329492,2576,1729403438,630282304,map,-0.0010103545418733966,0.029982981567878066,0.0,0.0,0.0,0.0
1729403438.9339879,2577,1729403438,830276160,map,-0.00033678484729113224,0.009994327189292688,0.0,0.0,0.0,0.0
1729403439.0340347,2578,1729403438,830269760,map,-0.00033678484729113224,0.009994327189292688,0.0,0.0,0.0,0.0
1729403439.1342921,2579,1729403439,30265152,map,-0.001347139389164529,0.03997730875717075,0.0,0.0,0.0,0.0
1729403439.2365856,2580,1729403439,30259008,map,-0.001347139389164529,0.03997730875717075,0.0,0.0,0.0,0.0
1729403439.334784,2581,1729403439,230252608,map,-0.00033678484729113224,0.009994327189292688,0.0,0.0,0.0,0.0
1729403439.4347622,2582,1729403439,230246464,map,-0.00033678484729113224,0.009994327189292688,0.0,0.0,0.0,0.0
1729403439.534026,2583,1729403439,430240064,map,-0.0010103545418733966,0.029982981567878066,0.0,0.0,0.0,0.0
1729403439.6357973,2584,1729403439,430234176,map,-0.0010103545418733966,0.029982981567878066,0.0,0.0,0.0,0.0
1729403439.7345674,2585,1729403439,630228032,map,-0.0010103545418733966,0.029982981567878066,0.0,0.0,0.0,0.0
1729403439.8333743,2586,1729403439,630222144,map,-0.0010103545418733966,0.029982981567878066,0.0,0.0,0.0,0.0
1729403439.9338639,2587,1729403439,830216256,map,-0.0010103545418733966,0.029982981567878066,0.0,0.0,0.0,0.0
1729403440.0340807,2588,1729403439,830210368,map,-0.0010103545418733966,0.029982981567878066,0.0,0.0,0.0,0.0
1729403440.1342466,2589,1729403440,32204480,map,-0.0010103545418733966,0.029982981567878066,0.0,0.0,0.0,0.0
1729403440.2336893,2590,1729403440,32202176,map,-0.0010103545418733966,0.029982981567878066,0.0,0.0,0.0,0.0
1729403440.333658,2591,1729403440,232196288,map,-0.001347139389164529,0.03997730875717075,0.0,0.0,0.0,0.0
1729403440.4356713,2592,1729403440,232189120,map,-0.001347139389164529,0.03997730875717075,0.0,0.0,0.0,0.0
1729403440.5341015,2593,1729403440,432181952,map,-0.0006735696945822645,0.019988654378585376,0.0,0.0,0.0,0.0
1729403440.632179,2594,1729403440,432174528,map,-0.0006735696945822645,0.019988654378585376,0.0,0.0,0.0,0.0
1729403440.734173,2595,1729403440,632170944,map,-0.0006735696945822645,0.019988654378585376,0.0,0.0,0.0,0.0
1729403440.8345125,2596,1729403440,632165568,map,-0.0006735696945822645,0.019988654378585376,0.0,0.0,0.0,0.0
1729403440.931254,2597,1729403440,832158656,map,-0.0010103545418733966,0.029982981567878066,0.0,0.0,0.0,0.0
1729403441.033549,2598,1729403440,832153280,map,-0.0010103545418733966,0.029982981567878066,0.0,0.0,0.0,0.0
1729403441.1373482,2599,1729403441,32147136,map,-0.0006735696945822645,0.019988654378585376,0.0,0.0,0.0,0.0
1729403441.2346878,2600,1729403441,32144832,map,-0.0006735696945822645,0.019988654378585376,0.0,0.0,0.0,0.0
1729403441.3355405,2601,1729403441,232137920,map,-0.00033678484729113224,0.009994327189292688,0.0,0.0,0.0,0.0
1729403441.4359856,2602,1729403441,232131008,map,-0.00033678484729113224,0.009994327189292688,0.0,0.0,0.0,0.0
1729403441.532415,2603,1729403441,432124096,map,-0.002694278778329058,0.0799546175143415,0.0,0.0,0.0,0.0
1729403441.6335506,2604,1729403441,432117696,map,-0.002694278778329058,0.0799546175143415,0.0,0.0,0.0,0.0
1729403441.7351584,2605,1729403441,632111552,map,-0.00033678484729113224,0.009994327189292688,0.0,0.0,0.0,0.0
1729403441.835069,2606,1729403441,632108224,map,-0.00033678484729113224,0.009994327189292688,0.0,0.0,0.0,0.0
1729403441.9331887,2607,1729403441,832101824,map,-0.0010103545418733966,0.029982981567878066,0.0,0.0,0.0,0.0
1729403442.0323987,2608,1729403441,832094912,map,-0.0010103545418733966,0.029982981567878066,0.0,0.0,0.0,0.0
1729403442.133596,2609,1729403442,32088512,map,-0.0010103545418733966,0.029982981567878066,0.0,0.0,0.0,0.0
1729403442.236928,2610,1729403442,32085952,map,-0.0010103545418733966,0.029982981567878066,0.0,0.0,0.0,0.0
1729403442.3350654,2611,1729403442,232078784,map,-0.0016839242364556613,0.04997163594646345,0.0,0.0,0.0,0.0
1729403442.4327714,2612,1729403442,232072384,map,-0.0016839242364556613,0.04997163594646345,0.0,0.0,0.0,0.0
1729403442.5330296,2613,1729403442,432065728,map,-0.00033678484729113224,0.009994327189292688,0.0,0.0,0.0,0.0
1729403442.6332562,2614,1729403442,432059840,map,-0.00033678484729113224,0.009994327189292688,0.0,0.0,0.0,0.0
1729403442.733963,2615,1729403442,632053184,map,-0.0006735696945822645,0.019988654378585376,0.0,0.0,0.0,0.0
1729403442.8361588,2616,1729403442,632046528,map,-0.0006735696945822645,0.019988654378585376,0.0,0.0,0.0,0.0
1729403442.9336252,2617,1729403442,832039872,map,-0.0,0.0,0.0,0.0,0.0,0.0
1729403443.0340455,2618,1729403442,832033728,map,-0.0,0.0,0.0,0.0,0.0,0.0
1729403443.1338477,2619,1729403443,32026560,map,-0.0,0.0,0.0,0.0,0.0,0.0
1729403443.2369463,2620,1729403443,32020416,map,-0.0,0.0,0.0,0.0,0.0,0.0
1729403443.333216,2621,1729403443,232013760,map,-0.0010103545418733966,0.029982981567878066,0.0,0.0,0.0,0.0
1729403443.4349246,2622,1729403443,232007616,map,-0.0010103545418733966,0.029982981567878066,0.0,0.0,0.0,0.0
1729403443.5338562,2623,1729403443,432001216,map,-0.0006735696945822645,0.019988654378585376,0.0,0.0,0.0,0.0
1729403443.6342492,2624,1729403443,431994816,map,-0.0006735696945822645,0.019988654378585376,0.0,0.0,0.0,0.0
1729403443.7356963,2625,1729403443,631988160,map,-0.0010103545418733966,0.029982981567878066,0.0,0.0,0.0,0.0
1729403443.8336744,2626,1729403443,631981760,map,-0.0010103545418733966,0.029982981567878066,0.0,0.0,0.0,0.0
1729403443.93195,2627,1729403443,831975616,map,-0.00033678484729113224,0.009994327189292688,0.0,0.0,0.0,0.0
1729403444.033709,2628,1729403443,831969728,map,-0.00033678484729113224,0.009994327189292688,0.0,0.0,0.0,0.0
1729403444.134117,2629,1729403444,31964096,map,-0.0006735696945822645,0.019988654378585376,0.0,0.0,0.0,0.0
1729403444.233826,2630,1729403444,31960000,map,-0.0006735696945822645,0.019988654378585376,0.0,0.0,0.0,0.0
1729403444.3336368,2631,1729403444,231954112,map,-0.0016839242364556613,0.04997163594646345,0.0,0.0,0.0,0.0
1729403444.432733,2632,1729403444,231948480,map,-0.0016839242364556613,0.04997163594646345,0.0,0.0,0.0,0.0
1729403444.5336494,2633,1729403444,431942592,map,-0.0010103545418733966,0.029982981567878066,0.0,0.0,0.0,0.0
1729403444.6333969,2634,1729403444,431936704,map,-0.0010103545418733966,0.029982981567878066,0.0,0.0,0.0,0.0
1729403444.734004,2635,1729403444,631930816,map,-0.00033678484729113224,0.009994327189292688,0.0,0.0,0.0,0.0
1729403444.8332288,2636,1729403444,631924928,map,-0.00033678484729113224,0.009994327189292688,0.0,0.0,0.0,0.0
1729403444.9339159,2637,1729403444,831919040,map,-0.00033678484729113224,0.009994327189292688,0.0,0.0,0.0,0.0
1729403445.0332398,2638,1729403444,831912896,map,-0.00033678484729113224,0.009994327189292688,0.0,0.0,0.0,0.0
1729403445.1341543,2639,1729403445,31907008,map,-0.0010103545418733966,0.029982981567878066,0.0,0.0,0.0,0.0
1729403445.2342958,2640,1729403445,31901376,map,-0.0010103545418733966,0.029982981567878066,0.0,0.0,0.0,0.0
1729403445.3337991,2641,1729403445,231894976,map,-0.0016839242364556613,0.04997163594646345,0.0,0.0,0.0,0.0
1729403445.433764,2642,1729403445,231887552,map,-0.0016839242364556613,0.04997163594646345,0.0,0.0,0.0,0.0
1729403445.535037,2643,1729403445,431882432,map,-0.0010103545418733966,0.029982981567878066,0.0,0.0,0.0,0.0
1729403445.6362917,2644,1729403445,431877056,map,-0.0010103545418733966,0.029982981567878066,0.0,0.0,0.0,0.0
1729403445.7331538,2645,1729403445,631869632,map,-0.001347139389164529,0.03997730875717075,0.0,0.0,0.0,0.0
1729403445.8356843,2646,1729403445,631862464,map,-0.001347139389164529,0.03997730875717075,0.0,0.0,0.0,0.0
1729403445.934021,2647,1729403445,831855552,map,-0.00033678484729113224,0.009994327189292688,0.0,0.0,0.0,0.0
1729403446.0342393,2648,1729403445,831850176,map,-0.00033678484729113224,0.009994327189292688,0.0,0.0,0.0,0.0
1729403446.1337812,2649,1729403446,31843776,map,-0.0020207090837467932,0.05996596313575613,0.0,0.0,0.0,0.0
1729403446.234085,2650,1729403446,31837120,map,-0.0020207090837467932,0.05996596313575613,0.0,0.0,0.0,0.0
1729403446.3338945,2651,1729403446,231832000,map,-0.0006735696945822645,0.019988654378585376,0.0,0.0,0.0,0.0
1729403446.4332118,2652,1729403446,231825344,map,-0.0006735696945822645,0.019988654378585376,0.0,0.0,0.0,0.0
1729403446.5364256,2653,1729403446,431819712,map,-0.0006735696945822645,0.019988654378585376,0.0,0.0,0.0,0.0
1729403446.6338544,2654,1729403446,431813056,map,-0.0006735696945822645,0.019988654378585376,0.0,0.0,0.0,0.0
1729403446.7358296,2655,1729403446,631806400,map,-0.001347139389164529,0.03997730875717075,0.0,0.0,0.0,0.0
1729403446.8346443,2656,1729403446,631800000,map,-0.001347139389164529,0.03997730875717075,0.0,0.0,0.0,0.0
1729403446.9333084,2657,1729403446,831793344,map,-0.00033678484729113224,0.009994327189292688,0.0,0.0,0.0,0.0
1729403447.033568,2658,1729403446,831788992,map,-0.00033678484729113224,0.009994327189292688,0.0,0.0,0.0,0.0
1729403447.1365597,2659,1729403447,31782080,map,-0.0,0.0,0.0,0.0,0.0,0.0
1729403447.232321,2660,1729403447,31780032,map,-0.0,0.0,0.0,0.0,0.0,0.0
1729403447.334368,2661,1729403447,231773632,map,-0.0010103545418733966,0.029982981567878066,0.0,0.0,0.0,0.0
1729403447.4339929,2662,1729403447,231767488,map,-0.0010103545418733966,0.029982981567878066,0.0,0.0,0.0,0.0
1729403447.5346332,2663,1729403447,431760832,map,-0.0010103545418733966,0.029982981567878066,0.0,0.0,0.0,0.0
1729403447.6355343,2664,1729403447,431754688,map,-0.0010103545418733966,0.029982981567878066,0.0,0.0,0.0,0.0
1729403447.7355282,2665,1729403447,631750080,map,-0.0010103545418733966,0.029982981567878066,0.0,0.0,0.0,0.0
1729403447.8353124,2666,1729403447,631743168,map,-0.0010103545418733966,0.029982981567878066,0.0,0.0,0.0,0.0
1729403447.9334867,2667,1729403447,831737280,map,-0.001347139389164529,0.03997730875717075,0.0,0.0,0.0,0.0
1729403448.0338607,2668,1729403447,831730880,map,-0.001347139389164529,0.03997730875717075,0.0,0.0,0.0,0.0
1729403448.1357222,2669,1729403448,31725248,map,-0.0006735696945822645,0.019988654378585376,0.0,0.0,0.0,0.0
1729403448.2338758,2670,1729403448,31719616,map,-0.0006735696945822645,0.019988654378585376,0.0,0.0,0.0,0.0
1729403448.3337603,2671,1729403448,231713728,map,-0.0010103545418733966,0.029982981567878066,0.0,0.0,0.0,0.0
1729403448.433119,2672,1729403448,231708096,map,-0.0010103545418733966,0.029982981567878066,0.0,0.0,0.0,0.0
1729403448.5333145,2673,1729403448,431702208,map,-0.00033678484729113224,0.009994327189292688,0.0,0.0,0.0,0.0
1729403448.6344588,2674,1729403448,431696064,map,-0.00033678484729113224,0.009994327189292688,0.0,0.0,0.0,0.0
1729403448.7346084,2675,1729403448,631690176,map,-0.0006735696945822645,0.019988654378585376,0.0,0.0,0.0,0.0
1729403448.8344748,2676,1729403448,631684288,map,-0.0006735696945822645,0.019988654378585376,0.0,0.0,0.0,0.0
1729403448.9335945,2677,1729403448,831678912,map,-0.0016839242364556613,0.04997163594646345,0.0,0.0,0.0,0.0
1729403449.0333817,2678,1729403448,831672768,map,-0.0016839242364556613,0.04997163594646345,0.0,0.0,0.0,0.0
1729403449.1339023,2679,1729403449,31666880,map,-0.0006735696945822645,0.019988654378585376,0.0,0.0,0.0,0.0
1729403449.2350867,2680,1729403449,31661504,map,-0.0006735696945822645,0.019988654378585376,0.0,0.0,0.0,0.0
1729403449.3327284,2681,1729403449,231655872,map,-0.0010103545418733966,0.029982981567878066,0.0,0.0,0.0,0.0
1729403449.4342692,2682,1729403449,231649728,map,-0.0010103545418733966,0.029982981567878066,0.0,0.0,0.0,0.0
1729403449.5348558,2683,1729403449,431644608,map,-0.00033678484729113224,0.009994327189292688,0.0,0.0,0.0,0.0
1729403449.6334083,2684,1729403449,431638720,map,-0.00033678484729113224,0.009994327189292688,0.0,0.0,0.0,0.0
1729403449.7334828,2685,1729403449,631633088,map,-0.0010103545418733966,0.029982981567878066,0.0,0.0,0.0,0.0
1729403449.8323739,2686,1729403449,631627968,map,-0.0010103545418733966,0.029982981567878066,0.0,0.0,0.0,0.0
1729403449.9336426,2687,1729403449,831623104,map,-0.0010103545418733966,0.029982981567878066,0.0,0.0,0.0,0.0
1729403450.031334,2688,1729403449,831617984,map,-0.0010103545418733966,0.029982981567878066,0.0,0.0,0.0,0.0
1729403450.1354003,2689,1729403450,31612096,map,-0.0,0.0,0.0,0.0,0.0,0.0
1729403450.2335608,2690,1729403450,31611072,map,-0.0,0.0,0.0,0.0,0.0,0.0
1729403450.335946,2691,1729403450,231605696,map,-0.0006735696945822645,0.019988654378585376,0.0,0.0,0.0,0.0
1729403450.435218,2692,1729403450,231600576,map,-0.0006735696945822645,0.019988654378585376,0.0,0.0,0.0,0.0
1729403450.5307252,2693,1729403450,431595456,map,-0.0006735696945822645,0.019988654378585376,0.0,0.0,0.0,0.0
1729403450.6339922,2694,1729403450,431590592,map,-0.0006735696945822645,0.019988654378585376,0.0,0.0,0.0,0.0
1729403450.7341433,2695,1729403450,631585472,map,-0.00033678484729113224,0.009994327189292688,0.0,0.0,0.0,0.0
1729403450.8316066,2696,1729403450,631578816,map,-0.00033678484729113224,0.009994327189292688,0.0,0.0,0.0,0.0
1729403450.934935,2697,1729403450,831572160,map,-0.0010103545418733966,0.029982981567878066,0.0,0.0,0.0,0.0
1729403451.0337725,2698,1729403450,831567040,map,-0.0010103545418733966,0.029982981567878066,0.0,0.0,0.0,0.0
1729403451.1313272,2699,1729403451,31560384,map,-0.00033678484729113224,0.009994327189292688,0.0,0.0,0.0,0.0
1729403451.232849,2700,1729403451,31559360,map,-0.00033678484729113224,0.009994327189292688,0.0,0.0,0.0,0.0
1729403451.334885,2701,1729403451,231552192,map,-0.0006735696945822645,0.019988654378585376,0.0,0.0,0.0,0.0
1729403451.4340425,2702,1729403451,231547072,map,-0.0006735696945822645,0.019988654378585376,0.0,0.0,0.0,0.0
1729403451.5334334,2703,1729403451,431540928,map,-0.001347139389164529,0.03997730875717075,0.0,0.0,0.0,0.0
1729403451.6312494,2704,1729403451,431535296,map,-0.001347139389164529,0.03997730875717075,0.0,0.0,0.0,0.0
1729403451.7325501,2705,1729403451,631529152,map,-0.001347139389164529,0.03997730875717075,0.0,0.0,0.0,0.0
1729403451.8362718,2706,1729403451,631524800,map,-0.001347139389164529,0.03997730875717075,0.0,0.0,0.0,0.0
1729403451.9336326,2707,1729403451,831518144,map,-0.0006735696945822645,0.019988654378585376,0.0,0.0,0.0,0.0
1729403452.032337,2708,1729403451,831513792,map,-0.0006735696945822645,0.019988654378585376,0.0,0.0,0.0,0.0
1729403452.1326413,2709,1729403452,31508160,map,-0.0010103545418733966,0.029982981567878066,0.0,0.0,0.0,0.0
1729403452.2338758,2710,1729403452,31502272,map,-0.0010103545418733966,0.029982981567878066,0.0,0.0,0.0,0.0
1729403452.3325665,2711,1729403452,231496128,map,-0.0,0.0,0.0,0.0,0.0,0.0
1729403452.4327447,2712,1729403452,231489984,map,-0.0,0.0,0.0,0.0,0.0,0.0
1729403452.5320861,2713,1729403452,431485376,map,-0.0016839242364556613,0.04997163594646345,0.0,0.0,0.0,0.0
1729403452.6329637,2714,1729403452,431479488,map,-0.0016839242364556613,0.04997163594646345,0.0,0.0,0.0,0.0
1729403452.7322187,2715,1729403452,631473088,map,-0.0006735696945822645,0.019988654378585376,0.0,0.0,0.0,0.0
1729403452.8330545,2716,1729403452,631467456,map,-0.0006735696945822645,0.019988654378585376,0.0,0.0,0.0,0.0
1729403452.9338124,2717,1729403452,831461568,map,-0.0,0.0,0.0,0.0,0.0,0.0
1729403453.033279,2718,1729403452,831455936,map,-0.0,0.0,0.0,0.0,0.0,0.0
1729403453.1335425,2719,1729403453,31450304,map,-0.001347139389164529,0.03997730875717075,0.0,0.0,0.0,0.0
1729403453.2327464,2720,1729403453,31444672,map,-0.001347139389164529,0.03997730875717075,0.0,0.0,0.0,0.0
1729403453.3345869,2721,1729403453,231439808,map,-0.001347139389164529,0.03997730875717075,0.0,0.0,0.0,0.0
1729403453.433529,2722,1729403453,231433408,map,-0.001347139389164529,0.03997730875717075,0.0,0.0,0.0,0.0
1729403453.5325363,2723,1729403453,431427776,map,-0.001347139389164529,0.03997730875717075,0.0,0.0,0.0,0.0
1729403453.6331353,2724,1729403453,431422144,map,-0.001347139389164529,0.03997730875717075,0.0,0.0,0.0,0.0
1729403453.7337837,2725,1729403453,631416768,map,-0.001347139389164529,0.03997730875717075,0.0,0.0,0.0,0.0
1729403453.8334732,2726,1729403453,631411136,map,-0.001347139389164529,0.03997730875717075,0.0,0.0,0.0,0.0
1729403453.9338055,2727,1729403453,831405760,map,-0.00033678484729113224,0.009994327189292688,0.0,0.0,0.0,0.0
1729403454.0328429,2728,1729403453,831400896,map,-0.00033678484729113224,0.009994327189292688,0.0,0.0,0.0,0.0
1729403454.13292,2729,1729403454,31394496,map,-0.00033678484729113224,0.009994327189292688,0.0,0.0,0.0,0.0
1729403454.2333786,2730,1729403454,31389376,map,-0.00033678484729113224,0.009994327189292688,0.0,0.0,0.0,0.0
1729403454.3320851,2731,1729403454,231384256,map,-0.0006735696945822645,0.019988654378585376,0.0,0.0,0.0,0.0
1729403454.434458,2732,1729403454,231379136,map,-0.0006735696945822645,0.019988654378585376,0.0,0.0,0.0,0.0
1729403454.5341628,2733,1729403454,431374272,map,-0.0006735696945822645,0.019988654378585376,0.0,0.0,0.0,0.0
1729403454.6331248,2734,1729403454,431369152,map,-0.0006735696945822645,0.019988654378585376,0.0,0.0,0.0,0.0
1729403454.7324975,2735,1729403454,631364544,map,-0.001347139389164529,0.03997730875717075,0.0,0.0,0.0,0.0
1729403454.8332767,2736,1729403454,631358400,map,-0.001347139389164529,0.03997730875717075,0.0,0.0,0.0,0.0
1729403454.9324024,2737,1729403454,831353536,map,-0.0006735696945822645,0.019988654378585376,0.0,0.0,0.0,0.0
1729403455.0313175,2738,1729403454,831348672,map,-0.0006735696945822645,0.019988654378585376,0.0,0.0,0.0,0.0
1729403455.1331813,2739,1729403455,31344064,map,-0.0010103545418733966,0.029982981567878066,0.0,0.0,0.0,0.0
1729403455.234176,2740,1729403455,31341760,map,-0.0010103545418733966,0.029982981567878066,0.0,0.0,0.0,0.0
1729403455.3313525,2741,1729403455,231336640,map,-0.0006735696945822645,0.019988654378585376,0.0,0.0,0.0,0.0
1729403455.4332442,2742,1729403455,231331520,map,-0.0006735696945822645,0.019988654378585376,0.0,0.0,0.0,0.0
1729403455.5327265,2743,1729403455,431324864,map,-0.0010103545418733966,0.029982981567878066,0.0,0.0,0.0,0.0
1729403455.6326454,2744,1729403455,431317440,map,-0.0010103545418733966,0.029982981567878066,0.0,0.0,0.0,0.0
1729403455.7307765,2745,1729403455,631310272,map,-0.001347139389164529,0.03997730875717075,0.0,0.0,0.0,0.0
1729403455.8314626,2746,1729403455,631303616,map,-0.001347139389164529,0.03997730875717075,0.0,0.0,0.0,0.0
1729403455.9326172,2747,1729403455,831296192,map,-0.001347139389164529,0.03997730875717075,0.0,0.0,0.0,0.0
1729403456.0289729,2748,1729403455,831291328,map,-0.001347139389164529,0.03997730875717075,0.0,0.0,0.0,0.0
1729403456.1305861,2749,1729403456,31286720,map,-0.0010103545418733966,0.029982981567878066,0.0,0.0,0.0,0.0
1729403456.2299318,2750,1729403456,31282112,map,-0.0010103545418733966,0.029982981567878066,0.0,0.0,0.0,0.0
1729403456.3294897,2751,1729403456,231277248,map,-0.0010103545418733966,0.029982981567878066,0.0,0.0,0.0,0.0
1729403456.4302058,2752,1729403456,231272640,map,-0.0010103545418733966,0.029982981567878066,0.0,0.0,0.0,0.0
1729403456.5296807,2753,1729403456,431268032,map,-0.0006735696945822645,0.019988654378585376,0.0,0.0,0.0,0.0
1729403456.6291893,2754,1729403456,431263424,map,-0.0006735696945822645,0.019988654378585376,0.0,0.0,0.0,0.0
1729403456.7306404,2755,1729403456,631260096,map,-0.0006735696945822645,0.019988654378585376,0.0,0.0,0.0,0.0
1729403456.8311784,2756,1729403456,631257280,map,-0.0006735696945822645,0.019988654378585376,0.0,0.0,0.0,0.0
1729403456.9315708,2757,1729403456,831252928,map,-0.0006735696945822645,0.019988654378585376,0.0,0.0,0.0,0.0
1729403457.0316145,2758,1729403456,831250368,map,-0.0006735696945822645,0.019988654378585376,0.0,0.0,0.0,0.0
1729403457.1317005,2759,1729403457,31246016,map,-0.001347139389164529,0.03997730875717075,0.0,0.0,0.0,0.0
1729403457.2356865,2760,1729403457,31241664,map,-0.001347139389164529,0.03997730875717075,0.0,0.0,0.0,0.0
1729403457.3338351,2761,1729403457,231237312,map,-0.00033678484729113224,0.009994327189292688,0.0,0.0,0.0,0.0
1729403457.4327633,2762,1729403457,231232960,map,-0.00033678484729113224,0.009994327189292688,0.0,0.0,0.0,0.0
1729403457.5295365,2763,1729403457,431228864,map,-0.001347139389164529,0.03997730875717075,0.0,0.0,0.0,0.0
1729403457.6288283,2764,1729403457,431222976,map,-0.001347139389164529,0.03997730875717075,0.0,0.0,0.0,0.0
1729403457.731875,2765,1729403457,631216576,map,-0.0010103545418733966,0.029982981567878066,0.0,0.0,0.0,0.0
1729403457.8338485,2766,1729403457,631210176,map,-0.0010103545418733966,0.029982981567878066,0.0,0.0,0.0,0.0
1729403457.932767,2767,1729403457,831204288,map,-0.001347139389164529,0.03997730875717075,0.0,0.0,0.0,0.0
1729403458.0312948,2768,1729403457,831198144,map,-0.001347139389164529,0.03997730875717075,0.0,0.0,0.0,0.0
1729403458.1342049,2769,1729403458,31193024,map,-0.0,0.0,0.0,0.0,0.0,0.0
1729403458.2319345,2770,1729403458,31187648,map,-0.0,0.0,0.0,0.0,0.0,0.0
1729403458.3335004,2771,1729403458,231182016,map,-0.00033678484729113224,0.009994327189292688,0.0,0.0,0.0,0.0
1729403458.4312649,2772,1729403458,231176128,map,-0.00033678484729113224,0.009994327189292688,0.0,0.0,0.0,0.0
1729403458.5314336,2773,1729403458,431170240,map,-0.00033678484729113224,0.009994327189292688,0.0,0.0,0.0,0.0
1729403458.6285875,2774,1729403458,431164096,map,-0.00033678484729113224,0.009994327189292688,0.0,0.0,0.0,0.0
1729403458.7287288,2775,1729403458,631158720,map,-0.0016839242364556613,0.04997163594646345,0.0,0.0,0.0,0.0
1729403458.8311086,2776,1729403458,631153600,map,-0.0016839242364556613,0.04997163594646345,0.0,0.0,0.0,0.0
1729403458.9327536,2777,1729403458,831147712,map,-0.0,0.0,0.0,0.0,0.0,0.0
1729403459.031274,2778,1729403458,831144128,map,-0.0,0.0,0.0,0.0,0.0,0.0
1729403459.132811,2779,1729403459,31139008,map,-0.00033678484729113224,0.009994327189292688,0.0,0.0,0.0,0.0
1729403459.2313778,2780,1729403459,31133632,map,-0.00033678484729113224,0.009994327189292688,0.0,0.0,0.0,0.0
1729403459.3290324,2781,1729403459,231127744,map,-0.0006735696945822645,0.019988654378585376,0.0,0.0,0.0,0.0
1729403459.4305208,2782,1729403459,231122624,map,-0.0006735696945822645,0.019988654378585376,0.0,0.0,0.0,0.0
1729403459.5296793,2783,1729403459,431117760,map,-0.0006735696945822645,0.019988654378585376,0.0,0.0,0.0,0.0
1729403459.6292472,2784,1729403459,431112128,map,-0.0006735696945822645,0.019988654378585376,0.0,0.0,0.0,0.0
1729403459.7290766,2785,1729403459,631107264,map,-0.00033678484729113224,0.009994327189292688,0.0,0.0,0.0,0.0
1729403459.8291743,2786,1729403459,631102400,map,-0.00033678484729113224,0.009994327189292688,0.0,0.0,0.0,0.0
1729403459.9295545,2787,1729403459,831097536,map,-0.0010103545418733966,0.029982981567878066,0.0,0.0,0.0,0.0
1729403460.030265,2788,1729403459,831092416,map,-0.0010103545418733966,0.029982981567878066,0.0,0.0,0.0,0.0
1729403460.12879,2789,1729403460,32086784,map,-0.001347139389164529,0.03997730875717075,0.0,0.0,0.0,0.0
1729403460.229456,2790,1729403460,32082176,map,-0.001347139389164529,0.03997730875717075,0.0,0.0,0.0,0.0
1729403460.329003,2791,1729403460,232077312,map,-0.002694278778329058,0.0799546175143415,0.0,0.0,0.0,0.0
1729403460.4289837,2792,1729403460,232074240,map,-0.002694278778329058,0.0799546175143415,0.0,0.0,0.0,0.0
1729403460.531083,2793,1729403460,432071168,map,-0.0,0.0,0.0,0.0,0.0,0.0
1729403460.631228,2794,1729403460,432068096,map,-0.0,0.0,0.0,0.0,0.0,0.0
1729403460.7311327,2795,1729403460,632065024,map,-0.0010103545418733966,0.029982981567878066,0.0,0.0,0.0,0.0
1729403460.831759,2796,1729403460,632060416,map,-0.0010103545418733966,0.029982981567878066,0.0,0.0,0.0,0.0
1729403460.9311664,2797,1729403460,832055808,map,-0.0,0.0,0.0,0.0,0.0,0.0
1729403461.0303662,2798,1729403460,832050688,map,-0.0,0.0,0.0,0.0,0.0,0.0
1729403461.133576,2799,1729403461,32043776,map,-0.001347139389164529,0.03997730875717075,0.0,0.0,0.0,0.0
1729403461.2322361,2800,1729403461,32039424,map,-0.001347139389164529,0.03997730875717075,0.0,0.0,0.0,0.0
1729403461.3316138,2801,1729403461,232034304,map,-0.0010103545418733966,0.029982981567878066,0.0,0.0,0.0,0.0
1729403461.4342432,2802,1729403461,232028416,map,-0.0010103545418733966,0.029982981567878066,0.0,0.0,0.0,0.0
1729403461.533943,2803,1729403461,432024320,map,-0.0,0.0,0.0,0.0,0.0,0.0
1729403461.63119,2804,1729403461,432018944,map,-0.0,0.0,0.0,0.0,0.0,0.0
1729403461.7337189,2805,1729403461,632013056,map,-0.00033678484729113224,0.009994327189292688,0.0,0.0,0.0,0.0
1729403461.8343692,2806,1729403461,632007168,map,-0.00033678484729113224,0.009994327189292688,0.0,0.0,0.0,0.0
1729403461.9325476,2807,1729403461,831003072,map,-0.00033678484729113224,0.009994327189292688,0.0,0.0,0.0,0.0
1729403462.031009,2808,1729403461,830998720,map,-0.00033678484729113224,0.009994327189292688,0.0,0.0,0.0,0.0
1729403462.1348813,2809,1729403462,30993088,map,-0.0016839242364556613,0.04997163594646345,0.0,0.0,0.0,0.0
1729403462.232472,2810,1729403462,30986176,map,-0.0016839242364556613,0.04997163594646345,0.0,0.0,0.0,0.0
1729403462.3350773,2811,1729403462,230980544,map,-0.0006735696945822645,0.019988654378585376,0.0,0.0,0.0,0.0
1729403462.4293015,2812,1729403462,230974912,map,-0.0006735696945822645,0.019988654378585376,0.0,0.0,0.0,0.0
1729403462.5326855,2813,1729403462,430969280,map,-0.0006735696945822645,0.019988654378585376,0.0,0.0,0.0,0.0
1729403462.62937,2814,1729403462,430963904,map,-0.0006735696945822645,0.019988654378585376,0.0,0.0,0.0,0.0
1729403462.7317908,2815,1729403462,630958272,map,-0.00033678484729113224,0.009994327189292688,0.0,0.0,0.0,0.0
1729403462.833458,2816,1729403462,630952640,map,-0.00033678484729113224,0.009994327189292688,0.0,0.0,0.0,0.0
1729403462.933675,2817,1729403462,830946752,map,-0.0006735696945822645,0.019988654378585376,0.0,0.0,0.0,0.0
1729403463.0307183,2818,1729403462,830941376,map,-0.0006735696945822645,0.019988654378585376,0.0,0.0,0.0,0.0
1729403463.1301184,2819,1729403463,30935488,map,-0.00033678484729113224,0.009994327189292688,0.0,0.0,0.0,0.0
1729403463.2290645,2820,1729403463,30930368,map,-0.00033678484729113224,0.009994327189292688,0.0,0.0,0.0,0.0
1729403463.32913,2821,1729403463,230926272,map,-0.0010103545418733966,0.029982981567878066,0.0,0.0,0.0,0.0
1729403463.430529,2822,1729403463,230921152,map,-0.0010103545418733966,0.029982981567878066,0.0,0.0,0.0,0.0
1729403463.528626,2823,1729403463,430916032,map,-0.00033678484729113224,0.009994327189292688,0.0,0.0,0.0,0.0
1729403463.6306996,2824,1729403463,430912704,map,-0.00033678484729113224,0.009994327189292688,0.0,0.0,0.0,0.0
1729403463.7315364,2825,1729403463,630907584,map,-0.00033678484729113224,0.009994327189292688,0.0,0.0,0.0,0.0
1729403463.8338435,2826,1729403463,630904256,map,-0.00033678484729113224,0.009994327189292688,0.0,0.0,0.0,0.0
1729403463.9313092,2827,1729403463,830900672,map,-0.0006735696945822645,0.019988654378585376,0.0,0.0,0.0,0.0
1729403464.0306587,2828,1729403463,830892224,map,-0.0006735696945822645,0.019988654378585376,0.0,0.0,0.0,0.0
1729403464.1316931,2829,1729403464,30888896,map,-0.00033678484729113224,0.009994327189292688,0.0,0.0,0.0,0.0
1729403464.2320614,2830,1729403464,30885824,map,-0.00033678484729113224,0.009994327189292688,0.0,0.0,0.0,0.0
1729403464.3357174,2831,1729403464,230881728,map,-0.00033678484729113224,0.009994327189292688,0.0,0.0,0.0,0.0
1729403464.4336116,2832,1729403464,230877888,map,-0.00033678484729113224,0.009994327189292688,0.0,0.0,0.0,0.0
1729403464.5315795,2833,1729403464,430874560,map,-0.0016839242364556613,0.04997163594646345,0.0,0.0,0.0,0.0
1729403464.6333199,2834,1729403464,430869952,map,-0.0016839242364556613,0.04997163594646345,0.0,0.0,0.0,0.0
1729403464.7332015,2835,1729403464,630865088,map,-0.0010103545418733966,0.029982981567878066,0.0,0.0,0.0,0.0
1729403464.8326898,2836,1729403464,630860480,map,-0.0010103545418733966,0.029982981567878066,0.0,0.0,0.0,0.0
1729403464.9328656,2837,1729403464,830855616,map,-0.001347139389164529,0.03997730875717075,0.0,0.0,0.0,0.0
1729403465.0315132,2838,1729403464,830852800,map,-0.001347139389164529,0.03997730875717075,0.0,0.0,0.0,0.0
1729403465.130694,2839,1729403465,30849984,map,-0.0006735696945822645,0.019988654378585376,0.0,0.0,0.0,0.0
1729403465.2313488,2840,1729403465,30845376,map,-0.0006735696945822645,0.019988654378585376,0.0,0.0,0.0,0.0
1729403465.3310645,2841,1729403465,230840768,map,-0.0006735696945822645,0.019988654378585376,0.0,0.0,0.0,0.0
1729403465.431629,2842,1729403465,230836416,map,-0.0006735696945822645,0.019988654378585376,0.0,0.0,0.0,0.0
1729403465.5338297,2843,1729403465,430829760,map,-0.0010103545418733966,0.029982981567878066,0.0,0.0,0.0,0.0
1729403465.6319497,2844,1729403465,430823616,map,-0.0010103545418733966,0.029982981567878066,0.0,0.0,0.0,0.0
1729403465.7337387,2845,1729403465,630817984,map,-0.0006735696945822645,0.019988654378585376,0.0,0.0,0.0,0.0
1729403465.832475,2846,1729403465,630812864,map,-0.0006735696945822645,0.019988654378585376,0.0,0.0,0.0,0.0
1729403465.9309695,2847,1729403465,830808512,map,-0.00033678484729113224,0.009994327189292688,0.0,0.0,0.0,0.0
1729403466.0309148,2848,1729403465,830804160,map,-0.00033678484729113224,0.009994327189292688,0.0,0.0,0.0,0.0
1729403466.1304615,2849,1729403466,30799808,map,-0.0006735696945822645,0.019988654378585376,0.0,0.0,0.0,0.0
1729403466.2331383,2850,1729403466,30793408,map,-0.0006735696945822645,0.019988654378585376,0.0,0.0,0.0,0.0
1729403466.3313522,2851,1729403466,230789056,map,-0.0016839242364556613,0.04997163594646345,0.0,0.0,0.0,0.0
1729403466.4287193,2852,1729403466,230784192,map,-0.0016839242364556613,0.04997163594646345,0.0,0.0,0.0,0.0
1729403466.5300355,2853,1729403466,430779328,map,-0.00033678484729113224,0.009994327189292688,0.0,0.0,0.0,0.0
1729403466.6288462,2854,1729403466,430774720,map,-0.00033678484729113224,0.009994327189292688,0.0,0.0,0.0,0.0
1729403466.728903,2855,1729403466,630769856,map,-0.001347139389164529,0.03997730875717075,0.0,0.0,0.0,0.0
1729403466.828599,2856,1729403466,630765504,map,-0.001347139389164529,0.03997730875717075,0.0,0.0,0.0,0.0
1729403466.9306238,2857,1729403466,830761408,map,-0.0010103545418733966,0.029982981567878066,0.0,0.0,0.0,0.0
1729403467.0303853,2858,1729403466,830756800,map,-0.0010103545418733966,0.029982981567878066,0.0,0.0,0.0,0.0
1729403467.1301877,2859,1729403467,30751424,map,-0.0006735696945822645,0.019988654378585376,0.0,0.0,0.0,0.0
1729403467.232266,2860,1729403467,30747584,map,-0.0006735696945822645,0.019988654378585376,0.0,0.0,0.0,0.0
1729403467.3289602,2861,1729403467,230743232,map,-0.0016839242364556613,0.04997163594646345,0.0,0.0,0.0,0.0
1729403467.4278004,2862,1729403467,230740928,map,-0.0016839242364556613,0.04997163594646345,0.0,0.0,0.0,0.0
1729403467.5280974,2863,1729403467,430738624,map,-0.002694278778329058,0.0799546175143415,0.0,0.0,0.0,0.0
1729403467.631254,2864,1729403467,430734272,map,-0.002694278778329058,0.0799546175143415,0.0,0.0,0.0,0.0
1729403467.733885,2865,1729403467,630730176,map,-0.00033678484729113224,0.009994327189292688,0.0,0.0,0.0,0.0
1729403467.8312922,2866,1729403467,630721728,map,-0.00033678484729113224,0.009994327189292688,0.0,0.0,0.0,0.0
1729403467.932778,2867,1729403467,830718400,map,-0.00033678484729113224,0.009994327189292688,0.0,0.0,0.0,0.0
1729403468.0279129,2868,1729403467,830710464,map,-0.00033678484729113224,0.009994327189292688,0.0,0.0,0.0,0.0
1729403468.1319096,2869,1729403468,30706880,map,-0.00033678484729113224,0.009994327189292688,0.0,0.0,0.0,0.0
1729403468.232436,2870,1729403468,30703296,map,-0.00033678484729113224,0.009994327189292688,0.0,0.0,0.0,0.0
1729403468.331832,2871,1729403468,230699200,map,-0.0016839242364556613,0.04997163594646345,0.0,0.0,0.0,0.0
