Time,header.seq,header.stamp.secs,header.stamp.nsecs,header.frame_id,status.status,status.service,latitude,longitude,altitude,position_covariance_0,position_covariance_1,position_covariance_2,position_covariance_3,position_covariance_4,position_covariance_5,position_covariance_6,position_covariance_7,position_covariance_8,position_covariance_type
1729403412.219771,2307,1729403411,829585344,base_link,0,1,33.6978685,73.0165667,514.2601758083874,0.8464,0.0,0.0,0.0,0.8464,0.0,0.0,0.0,2.556801,2
1729403412.2201438,2308,1729403411,829579968,base_link,0,1,33.6978685,73.0165667,514.2601758083874,0.8464,0.0,0.0,0.0,0.8464,0.0,0.0,0.0,2.556801,2
1729403412.2205367,2309,1729403412,29574592,base_link,0,1,33.6978686,73.0165666,514.2601760473992,0.848241,0.0,0.0,0.0,0.848241,0.0,0.0,0.0,2.5600000000000005,2
1729403412.2379403,2310,1729403412,29569216,base_link,0,1,33.6978686,73.0165666,514.2601760473992,0.848241,0.0,0.0,0.0,0.848241,0.0,0.0,0.0,2.5600000000000005,2
1729403412.3329556,2311,1729403412,229563840,base_link,0,1,33.6978687,73.0165666,514.2501767138209,0.851929,0.0,0.0,0.0,0.851929,0.0,0.0,0.0,2.5728160000000004,2
1729403412.4342797,2312,1729403412,229559232,base_link,0,1,33.6978687,73.0165666,514.2501767138209,0.851929,0.0,0.0,0.0,0.851929,0.0,0.0,0.0,2.5728160000000004,2
1729403412.531506,2313,1729403412,429556416,base_link,0,1,33.6978688,73.0165667,514.2701778076524,0.8611840000000001,0.0,0.0,0.0,0.8611840000000001,0.0,0.0,0.0,2.5921000000000003,2
1729403412.632456,2314,1729403412,429551040,base_link,0,1,33.6978688,73.0165667,514.2701778076524,0.8611840000000001,0.0,0.0,0.0,0.8611840000000001,0.0,0.0,0.0,2.5921000000000003,2
1729403412.7311578,2315,1729403412,629546688,base_link,0,1,33.6978687,73.0165667,514.2701771412308,0.8723560000000001,0.0,0.0,0.0,0.8723560000000001,0.0,0.0,0.0,2.6114560000000004,2
1729403412.8341203,2316,1729403412,629543616,base_link,0,1,33.6978687,73.0165667,514.2701771412308,0.8723560000000001,0.0,0.0,0.0,0.8723560000000001,0.0,0.0,0.0,2.6114560000000004,2
1729403412.9313695,2317,1729403412,829539520,base_link,0,1,33.6978687,73.0165666,514.2801767138209,0.8779690000000001,0.0,0.0,0.0,0.8779690000000001,0.0,0.0,0.0,2.6244000000000005,2
1729403413.0329595,2318,1729403412,829531584,base_link,0,1,33.6978687,73.0165666,514.2801767138209,0.8779690000000001,0.0,0.0,0.0,0.8779690000000001,0.0,0.0,0.0,2.6244000000000005,2
1729403413.1381867,2319,1729403413,29526464,base_link,0,1,33.6978686,73.0165666,514.2701760473992,0.8817209999999999,0.0,0.0,0.0,0.8817209999999999,0.0,0.0,0.0,2.637376,2
1729403413.2329175,2320,1729403413,29524160,base_link,0,1,33.6978686,73.0165666,514.2701760473992,0.8817209999999999,0.0,0.0,0.0,0.8817209999999999,0.0,0.0,0.0,2.637376,2
1729403413.3335705,2321,1729403413,229519040,base_link,0,1,33.6978687,73.0165665,514.260176286411,0.8854809999999999,0.0,0.0,0.0,0.8854809999999999,0.0,0.0,0.0,2.650384,2
1729403413.434069,2322,1729403413,229516480,base_link,0,1,33.6978687,73.0165665,514.260176286411,0.8854809999999999,0.0,0.0,0.0,0.8854809999999999,0.0,0.0,0.0,2.650384,2
1729403413.5324876,2323,1729403413,429511360,base_link,0,1,33.6978687,73.0165664,514.2601758590013,0.8873639999999999,0.0,0.0,0.0,0.8873639999999999,0.0,0.0,0.0,2.660161,2
1729403413.6319137,2324,1729403413,429506752,base_link,0,1,33.6978687,73.0165664,514.2601758590013,0.8873639999999999,0.0,0.0,0.0,0.8873639999999999,0.0,0.0,0.0,2.660161,2
1729403413.7318714,2325,1729403413,629503424,base_link,0,1,33.6978687,73.0165663,514.2401754315914,0.8911359999999999,0.0,0.0,0.0,0.8911359999999999,0.0,0.0,0.0,2.673225,2
1729403413.8318238,2326,1729403413,629499840,base_link,0,1,33.6978687,73.0165663,514.2401754315914,0.8911359999999999,0.0,0.0,0.0,0.8911359999999999,0.0,0.0,0.0,2.673225,2
1729403413.9321074,2327,1729403413,829496512,base_link,0,1,33.6978686,73.0165662,514.2301743377601,0.8949159999999999,0.0,0.0,0.0,0.8949159999999999,0.0,0.0,0.0,2.686321,2
1729403414.0344222,2328,1729403413,829492928,base_link,0,1,33.6978686,73.0165662,514.2301743377601,0.8949159999999999,0.0,0.0,0.0,0.8949159999999999,0.0,0.0,0.0,2.686321,2
1729403414.1337874,2329,1729403414,29489088,base_link,0,1,33.6978686,73.0165662,514.2301743377601,0.898704,0.0,0.0,0.0,0.898704,0.0,0.0,0.0,2.6961639999999996,2
1729403414.236615,2330,1729403414,29485760,base_link,0,1,33.6978686,73.0165662,514.2301743377601,0.898704,0.0,0.0,0.0,0.898704,0.0,0.0,0.0,2.6961639999999996,2
1729403414.3317533,2331,1729403414,229482176,base_link,0,1,33.6978686,73.0165661,514.2401739103504,0.9006009999999999,0.0,0.0,0.0,0.9006009999999999,0.0,0.0,0.0,2.709316,2
1729403414.4335139,2332,1729403414,229478848,base_link,0,1,33.6978686,73.0165661,514.2401739103504,0.9006009999999999,0.0,0.0,0.0,0.9006009999999999,0.0,0.0,0.0,2.709316,2
1729403414.5348406,2333,1729403414,429475776,base_link,0,1,33.6978687,73.0165661,514.2401745767719,0.9044009999999999,0.0,0.0,0.0,0.9044009999999999,0.0,0.0,0.0,2.719201,2
1729403414.6343248,2334,1729403414,429472704,base_link,0,1,33.6978687,73.0165661,514.2401745767719,0.9044009999999999,0.0,0.0,0.0,0.9044009999999999,0.0,0.0,0.0,2.719201,2
1729403414.7325308,2335,1729403414,629468608,base_link,0,1,33.6978687,73.016566,514.2101741493622,0.9082089999999999,0.0,0.0,0.0,0.9082089999999999,0.0,0.0,0.0,2.732409,2
1729403414.8328059,2336,1729403414,629464512,base_link,0,1,33.6978687,73.016566,514.2101741493622,0.9082089999999999,0.0,0.0,0.0,0.9082089999999999,0.0,0.0,0.0,2.732409,2
1729403414.9342432,2337,1729403414,829463232,base_link,0,1,33.6978688,73.0165659,514.2301743883739,0.9101159999999999,0.0,0.0,0.0,0.9101159999999999,0.0,0.0,0.0,2.742336,2
1729403415.0337434,2338,1729403414,829458880,base_link,0,1,33.6978688,73.0165659,514.2301743883739,0.9101159999999999,0.0,0.0,0.0,0.9101159999999999,0.0,0.0,0.0,2.742336,2
1729403415.1336048,2339,1729403415,29454784,base_link,0,1,33.6978688,73.0165659,514.220174388374,0.913936,0.0,0.0,0.0,0.913936,0.0,0.0,0.0,2.7556,2
1729403415.2328625,2340,1729403415,29453504,base_link,0,1,33.6978688,73.0165659,514.220174388374,0.913936,0.0,0.0,0.0,0.913936,0.0,0.0,0.0,2.7556,2
1729403415.3325744,2341,1729403415,229449408,base_link,0,1,33.6978688,73.0165659,514.2301743883739,0.9177639999999999,0.0,0.0,0.0,0.9177639999999999,0.0,0.0,0.0,2.765569,2
1729403415.4328876,2342,1729403415,229445568,base_link,0,1,33.6978688,73.0165659,514.2301743883739,0.9177639999999999,0.0,0.0,0.0,0.9177639999999999,0.0,0.0,0.0,2.765569,2
1729403415.5336907,2343,1729403415,429442752,base_link,0,1,33.6978687,73.0165659,514.2201737219525,0.919681,0.0,0.0,0.0,0.919681,0.0,0.0,0.0,2.778889,2
1729403415.634606,2344,1729403415,429437376,base_link,0,1,33.6978687,73.0165659,514.2201737219525,0.919681,0.0,0.0,0.0,0.919681,0.0,0.0,0.0,2.778889,2
1729403415.7324538,2345,1729403415,629432256,base_link,0,1,33.6978687,73.0165658,514.1901732945427,0.9235209999999999,0.0,0.0,0.0,0.9235209999999999,0.0,0.0,0.0,2.7889,2
1729403415.8339558,2346,1729403415,629427904,base_link,0,1,33.6978687,73.0165658,514.1901732945427,0.9235209999999999,0.0,0.0,0.0,0.9235209999999999,0.0,0.0,0.0,2.7889,2
1729403415.9339628,2347,1729403415,829423296,base_link,0,1,33.6978687,73.0165657,514.170172867133,0.9273689999999999,0.0,0.0,0.0,0.9273689999999999,0.0,0.0,0.0,2.7989290000000002,2
1729403416.034021,2348,1729403415,829417920,base_link,0,1,33.6978687,73.0165657,514.170172867133,0.9273689999999999,0.0,0.0,0.0,0.9273689999999999,0.0,0.0,0.0,2.7989290000000002,2
1729403416.1318629,2349,1729403416,29413824,base_link,0,1,33.6978687,73.0165656,514.1501724397235,0.9292959999999999,0.0,0.0,0.0,0.9292959999999999,0.0,0.0,0.0,2.808976,2
1729403416.233979,2350,1729403416,29413824,base_link,0,1,33.6978687,73.0165656,514.1501724397235,0.9292959999999999,0.0,0.0,0.0,0.9292959999999999,0.0,0.0,0.0,2.808976,2
1729403416.3317611,2351,1729403416,229409728,base_link,0,1,33.6978687,73.0165656,514.1501724397235,0.931225,0.0,0.0,0.0,0.931225,0.0,0.0,0.0,2.812329,2
1729403416.43214,2352,1729403416,229405888,base_link,0,1,33.6978687,73.0165656,514.1501724397235,0.931225,0.0,0.0,0.0,0.931225,0.0,0.0,0.0,2.812329,2
1729403416.5334144,2353,1729403416,429401024,base_link,0,1,33.6978688,73.0165656,514.1501731061448,0.933156,0.0,0.0,0.0,0.933156,0.0,0.0,0.0,2.8190410000000004,2
1729403416.6334531,2354,1729403416,429397440,base_link,0,1,33.6978688,73.0165656,514.1501731061448,0.933156,0.0,0.0,0.0,0.933156,0.0,0.0,0.0,2.8190410000000004,2
1729403416.7336922,2355,1729403416,629394112,base_link,0,1,33.6978688,73.0165655,514.1401726787351,0.935089,0.0,0.0,0.0,0.935089,0.0,0.0,0.0,2.8223999999999996,2
1729403416.834007,2356,1729403416,629390016,base_link,0,1,33.6978688,73.0165655,514.1401726787351,0.935089,0.0,0.0,0.0,0.935089,0.0,0.0,0.0,2.8223999999999996,2
1729403416.9338636,2357,1729403416,829385152,base_link,0,1,33.6978688,73.0165655,514.1301726787351,0.935089,0.0,0.0,0.0,0.935089,0.0,0.0,0.0,2.8223999999999996,2
1729403417.033852,2358,1729403416,829377216,base_link,0,1,33.6978688,73.0165655,514.1301726787351,0.935089,0.0,0.0,0.0,0.935089,0.0,0.0,0.0,2.8223999999999996,2
1729403417.1354964,2359,1729403417,29372608,base_link,0,1,33.6978688,73.0165655,514.1201726787351,0.937024,0.0,0.0,0.0,0.937024,0.0,0.0,0.0,2.825761,2
1729403417.2371938,2360,1729403417,29368000,base_link,0,1,33.6978688,73.0165655,514.1201726787351,0.937024,0.0,0.0,0.0,0.937024,0.0,0.0,0.0,2.825761,2
1729403417.3341932,2361,1729403417,229361856,base_link,0,1,33.6978688,73.0165654,514.1001722513256,0.937024,0.0,0.0,0.0,0.937024,0.0,0.0,0.0,2.825761,2
1729403417.434124,2362,1729403417,229358272,base_link,0,1,33.6978688,73.0165654,514.1001722513256,0.937024,0.0,0.0,0.0,0.937024,0.0,0.0,0.0,2.825761,2
1729403417.5340307,2363,1729403417,429353920,base_link,0,1,33.6978687,73.0165654,514.1001715849044,0.937024,0.0,0.0,0.0,0.937024,0.0,0.0,0.0,2.825761,2
1729403417.6340437,2364,1729403417,429349056,base_link,0,1,33.6978687,73.0165654,514.1001715849044,0.937024,0.0,0.0,0.0,0.937024,0.0,0.0,0.0,2.825761,2
1729403417.7340279,2365,1729403417,629345728,base_link,0,1,33.6978688,73.0165654,514.0801722513255,0.937024,0.0,0.0,0.0,0.937024,0.0,0.0,0.0,2.8291239999999998,2
1729403417.833733,2366,1729403417,629342400,base_link,0,1,33.6978688,73.0165654,514.0801722513255,0.937024,0.0,0.0,0.0,0.937024,0.0,0.0,0.0,2.8291239999999998,2
1729403417.9339764,2367,1729403417,829339328,base_link,0,1,33.6978688,73.0165654,514.0701722513255,0.9389609999999999,0.0,0.0,0.0,0.9389609999999999,0.0,0.0,0.0,2.8324890000000003,2
1729403418.0343294,2368,1729403417,829331392,base_link,0,1,33.6978688,73.0165654,514.0701722513255,0.9389609999999999,0.0,0.0,0.0,0.9389609999999999,0.0,0.0,0.0,2.8324890000000003,2
1729403418.1350822,2369,1729403418,29327040,base_link,0,1,33.6978689,73.0165653,514.0701724903372,0.9409,0.0,0.0,0.0,0.9409,0.0,0.0,0.0,2.8358559999999997,2
1729403418.239066,2370,1729403418,29322688,base_link,0,1,33.6978689,73.0165653,514.0701724903372,0.9409,0.0,0.0,0.0,0.9409,0.0,0.0,0.0,2.8358559999999997,2
1729403418.332224,2371,1729403418,229318336,base_link,0,1,33.6978689,73.0165653,514.0701724903372,0.9409,0.0,0.0,0.0,0.9409,0.0,0.0,0.0,2.8358559999999997,2
1729403418.434854,2372,1729403418,229312704,base_link,0,1,33.6978689,73.0165653,514.0701724903372,0.9409,0.0,0.0,0.0,0.9409,0.0,0.0,0.0,2.8358559999999997,2
1729403418.5347886,2373,1729403418,429305792,base_link,0,1,33.6978689,73.0165653,514.0701724903372,0.9409,0.0,0.0,0.0,0.9409,0.0,0.0,0.0,2.8392250000000003,2
1729403418.6337907,2374,1729403418,429303232,base_link,0,1,33.6978689,73.0165653,514.0701724903372,0.9409,0.0,0.0,0.0,0.9409,0.0,0.0,0.0,2.8392250000000003,2
1729403418.7353458,2375,1729403418,629298880,base_link,0,1,33.6978689,73.0165652,514.0701720629276,0.9428409999999999,0.0,0.0,0.0,0.9428409999999999,0.0,0.0,0.0,2.842596,2
1729403418.8372345,2376,1729403418,629294528,base_link,0,1,33.6978689,73.0165652,514.0701720629276,0.9428409999999999,0.0,0.0,0.0,0.9428409999999999,0.0,0.0,0.0,2.842596,2
1729403418.9341571,2377,1729403418,829290176,base_link,0,1,33.6978688,73.0165652,514.0801713965063,0.9428409999999999,0.0,0.0,0.0,0.9428409999999999,0.0,0.0,0.0,2.845969,2
1729403419.0350552,2378,1729403418,829286080,base_link,0,1,33.6978688,73.0165652,514.0801713965063,0.9428409999999999,0.0,0.0,0.0,0.9428409999999999,0.0,0.0,0.0,2.845969,2
1729403419.1349134,2379,1729403419,29283264,base_link,0,1,33.6978689,73.0165651,514.060171635518,0.9428409999999999,0.0,0.0,0.0,0.9428409999999999,0.0,0.0,0.0,2.845969,2
1729403419.2342782,2380,1729403419,29280960,base_link,0,1,33.6978689,73.0165651,514.060171635518,0.9428409999999999,0.0,0.0,0.0,0.9428409999999999,0.0,0.0,0.0,2.845969,2
1729403419.3318737,2381,1729403419,229275584,base_link,0,1,33.6978689,73.016565,514.0501712081084,0.9428409999999999,0.0,0.0,0.0,0.9428409999999999,0.0,0.0,0.0,2.845969,2
1729403419.4347336,2382,1729403419,229273280,base_link,0,1,33.6978689,73.016565,514.0501712081084,0.9428409999999999,0.0,0.0,0.0,0.9428409999999999,0.0,0.0,0.0,2.845969,2
1729403419.534214,2383,1729403419,429269184,base_link,0,1,33.6978688,73.016565,514.0601705416873,0.9428409999999999,0.0,0.0,0.0,0.9428409999999999,0.0,0.0,0.0,2.845969,2
1729403419.634165,2384,1729403419,429264832,base_link,0,1,33.6978688,73.016565,514.0601705416873,0.9428409999999999,0.0,0.0,0.0,0.9428409999999999,0.0,0.0,0.0,2.845969,2
1729403419.7321033,2385,1729403419,629260736,base_link,0,1,33.6978687,73.0165648,514.0401690204474,0.9428409999999999,0.0,0.0,0.0,0.9428409999999999,0.0,0.0,0.0,2.845969,2
1729403419.8359149,2386,1729403419,629255360,base_link,0,1,33.6978687,73.0165648,514.0401690204474,0.9428409999999999,0.0,0.0,0.0,0.9428409999999999,0.0,0.0,0.0,2.845969,2
1729403419.9333172,2387,1729403419,829248448,base_link,0,1,33.6978686,73.0165648,514.0201683540264,0.9428409999999999,0.0,0.0,0.0,0.9428409999999999,0.0,0.0,0.0,2.849344,2
1729403420.0340133,2388,1729403419,829243328,base_link,0,1,33.6978686,73.0165648,514.0201683540264,0.9428409999999999,0.0,0.0,0.0,0.9428409999999999,0.0,0.0,0.0,2.849344,2
1729403420.1342742,2389,1729403420,31239744,base_link,0,1,33.6978685,73.0165647,514.0001672601962,0.9428409999999999,0.0,0.0,0.0,0.9428409999999999,0.0,0.0,0.0,2.849344,2
1729403420.23442,2390,1729403420,31237952,base_link,0,1,33.6978685,73.0165647,514.0001672601962,0.9428409999999999,0.0,0.0,0.0,0.9428409999999999,0.0,0.0,0.0,2.849344,2
1729403420.3342462,2391,1729403420,231234112,base_link,0,1,33.6978684,73.0165647,514.0101665937754,0.9428409999999999,0.0,0.0,0.0,0.9428409999999999,0.0,0.0,0.0,2.8527210000000003,2
1729403420.433397,2392,1729403420,231230016,base_link,0,1,33.6978684,73.0165647,514.0101665937754,0.9428409999999999,0.0,0.0,0.0,0.9428409999999999,0.0,0.0,0.0,2.8527210000000003,2
1729403420.5313594,2393,1729403420,431224896,base_link,0,1,33.6978684,73.0165647,514.0101665937754,0.944784,0.0,0.0,0.0,0.944784,0.0,0.0,0.0,2.8560999999999996,2
1729403420.6338735,2394,1729403420,431222848,base_link,0,1,33.6978684,73.0165647,514.0101665937754,0.944784,0.0,0.0,0.0,0.944784,0.0,0.0,0.0,2.8560999999999996,2
1729403420.7365353,2395,1729403420,631220800,base_link,0,1,33.6978684,73.0165647,514.0401665937753,0.9467289999999999,0.0,0.0,0.0,0.9467289999999999,0.0,0.0,0.0,2.859481,2
1729403420.8361087,2396,1729403420,631217216,base_link,0,1,33.6978684,73.0165647,514.0401665937753,0.9467289999999999,0.0,0.0,0.0,0.9467289999999999,0.0,0.0,0.0,2.859481,2
1729403420.934133,2397,1729403420,831215424,base_link,0,1,33.6978684,73.0165647,514.0401665937753,0.9467289999999999,0.0,0.0,0.0,0.9467289999999999,0.0,0.0,0.0,2.8628639999999996,2
1729403421.0342808,2398,1729403420,831207232,base_link,0,1,33.6978684,73.0165647,514.0401665937753,0.9467289999999999,0.0,0.0,0.0,0.9467289999999999,0.0,0.0,0.0,2.8628639999999996,2
1729403421.1321576,2399,1729403421,31203648,base_link,0,1,33.6978683,73.0165646,514.0401654999454,0.948676,0.0,0.0,0.0,0.948676,0.0,0.0,0.0,2.8662490000000003,2
1729403421.2359018,2400,1729403421,31209280,base_link,0,1,33.6978683,73.0165646,514.0401654999454,0.948676,0.0,0.0,0.0,0.948676,0.0,0.0,0.0,2.8662490000000003,2
1729403421.334243,2401,1729403421,231207488,base_link,0,1,33.6978683,73.0165645,514.0401650725362,0.948676,0.0,0.0,0.0,0.948676,0.0,0.0,0.0,2.8662490000000003,2
1729403421.4366915,2402,1729403421,231205696,base_link,0,1,33.6978683,73.0165645,514.0401650725362,0.948676,0.0,0.0,0.0,0.948676,0.0,0.0,0.0,2.8662490000000003,2
1729403421.5343456,2403,1729403421,431202112,base_link,0,1,33.6978683,73.0165644,514.030164645127,0.9506249999999999,0.0,0.0,0.0,0.9506249999999999,0.0,0.0,0.0,2.869636,2
1729403421.6345522,2404,1729403421,431198784,base_link,0,1,33.6978683,73.0165644,514.030164645127,0.9506249999999999,0.0,0.0,0.0,0.9506249999999999,0.0,0.0,0.0,2.869636,2
1729403421.7340658,2405,1729403421,631195456,base_link,0,1,33.6978683,73.0165645,514.0501650725362,0.9506249999999999,0.0,0.0,0.0,0.9506249999999999,0.0,0.0,0.0,2.873025,2
1729403421.8336675,2406,1729403421,631190592,base_link,0,1,33.6978683,73.0165645,514.0501650725362,0.9506249999999999,0.0,0.0,0.0,0.9506249999999999,0.0,0.0,0.0,2.873025,2
1729403421.933898,2407,1729403421,831184448,base_link,0,1,33.6978682,73.0165645,514.0601644061155,0.9506249999999999,0.0,0.0,0.0,0.9506249999999999,0.0,0.0,0.0,2.873025,2
1729403422.0345252,2408,1729403421,831179840,base_link,0,1,33.6978682,73.0165645,514.0601644061155,0.9506249999999999,0.0,0.0,0.0,0.9506249999999999,0.0,0.0,0.0,2.873025,2
1729403422.1357517,2409,1729403422,31172160,base_link,0,1,33.6978682,73.0165644,514.0601639787063,0.9506249999999999,0.0,0.0,0.0,0.9506249999999999,0.0,0.0,0.0,2.873025,2
1729403422.2337627,2410,1729403422,31169088,base_link,0,1,33.6978682,73.0165644,514.0601639787063,0.9506249999999999,0.0,0.0,0.0,0.9506249999999999,0.0,0.0,0.0,2.873025,2
1729403422.3333113,2411,1729403422,231166016,base_link,0,1,33.6978681,73.0165644,514.0701633122858,0.952576,0.0,0.0,0.0,0.952576,0.0,0.0,0.0,2.873025,2
1729403422.4344182,2412,1729403422,231161408,base_link,0,1,33.6978681,73.0165644,514.0701633122858,0.952576,0.0,0.0,0.0,0.952576,0.0,0.0,0.0,2.873025,2
1729403422.5347083,2413,1729403422,431155776,base_link,0,1,33.6978681,73.0165644,514.0801633122858,0.952576,0.0,0.0,0.0,0.952576,0.0,0.0,0.0,2.873025,2
1729403422.634295,2414,1729403422,431150144,base_link,0,1,33.6978681,73.0165644,514.0801633122858,0.952576,0.0,0.0,0.0,0.952576,0.0,0.0,0.0,2.873025,2
1729403422.734892,2415,1729403422,631142464,base_link,0,1,33.697868,73.0165644,514.0701626458653,0.952576,0.0,0.0,0.0,0.952576,0.0,0.0,0.0,2.873025,2
1729403422.834994,2416,1729403422,631135040,base_link,0,1,33.697868,73.0165644,514.0701626458653,0.952576,0.0,0.0,0.0,0.952576,0.0,0.0,0.0,2.873025,2
1729403422.9351602,2417,1729403422,831127616,base_link,0,1,33.6978679,73.0165644,514.0501619794447,0.952576,0.0,0.0,0.0,0.952576,0.0,0.0,0.0,2.873025,2
1729403423.0340412,2418,1729403422,831119680,base_link,0,1,33.6978679,73.0165644,514.0501619794447,0.952576,0.0,0.0,0.0,0.952576,0.0,0.0,0.0,2.873025,2
1729403423.1348233,2419,1729403423,31115328,base_link,0,1,33.6978679,73.0165643,514.0601615520358,0.952576,0.0,0.0,0.0,0.952576,0.0,0.0,0.0,2.873025,2
1729403423.2376397,2420,1729403423,31112000,base_link,0,1,33.6978679,73.0165643,514.0601615520358,0.952576,0.0,0.0,0.0,0.952576,0.0,0.0,0.0,2.873025,2
1729403423.335241,2421,1729403423,231108672,base_link,0,1,33.6978678,73.0165643,514.0401608856155,0.952576,0.0,0.0,0.0,0.952576,0.0,0.0,0.0,2.873025,2
1729403423.434178,2422,1729403423,231101504,base_link,0,1,33.6978678,73.0165643,514.0401608856155,0.952576,0.0,0.0,0.0,0.952576,0.0,0.0,0.0,2.873025,2
1729403423.534684,2423,1729403423,431097408,base_link,0,1,33.6978677,73.0165643,514.0501602191952,0.9506249999999999,0.0,0.0,0.0,0.9506249999999999,0.0,0.0,0.0,2.873025,2
1729403423.6377947,2424,1729403423,431093056,base_link,0,1,33.6978677,73.0165643,514.0501602191952,0.9506249999999999,0.0,0.0,0.0,0.9506249999999999,0.0,0.0,0.0,2.873025,2
1729403423.7347732,2425,1729403423,631088960,base_link,0,1,33.6978676,73.0165642,514.0501591253661,0.9506249999999999,0.0,0.0,0.0,0.9506249999999999,0.0,0.0,0.0,2.873025,2
1729403423.8344533,2426,1729403423,631084864,base_link,0,1,33.6978676,73.0165642,514.0501591253661,0.9506249999999999,0.0,0.0,0.0,0.9506249999999999,0.0,0.0,0.0,2.873025,2
1729403423.933991,2427,1729403423,831079744,base_link,0,1,33.6978676,73.0165642,514.0601591253661,0.9506249999999999,0.0,0.0,0.0,0.9506249999999999,0.0,0.0,0.0,2.873025,2
1729403424.0348828,2428,1729403423,831072832,base_link,0,1,33.6978676,73.0165642,514.0601591253661,0.9506249999999999,0.0,0.0,0.0,0.9506249999999999,0.0,0.0,0.0,2.873025,2
1729403424.1317594,2429,1729403424,31070784,base_link,0,1,33.6978676,73.0165642,514.0601591253661,0.9506249999999999,0.0,0.0,0.0,0.9506249999999999,0.0,0.0,0.0,2.873025,2
1729403424.235128,2430,1729403424,31068480,base_link,0,1,33.6978676,73.0165642,514.0601591253661,0.9506249999999999,0.0,0.0,0.0,0.9506249999999999,0.0,0.0,0.0,2.873025,2
1729403424.3350186,2431,1729403424,231061824,base_link,0,1,33.6978675,73.0165641,514.0301580315371,0.9506249999999999,0.0,0.0,0.0,0.9506249999999999,0.0,0.0,0.0,2.873025,2
1729403424.433717,2432,1729403424,231057984,base_link,0,1,33.6978675,73.0165641,514.0301580315371,0.9506249999999999,0.0,0.0,0.0,0.9506249999999999,0.0,0.0,0.0,2.873025,2
1729403424.5376294,2433,1729403424,431054144,base_link,0,1,33.6978675,73.0165641,514.0301580315371,0.9506249999999999,0.0,0.0,0.0,0.9506249999999999,0.0,0.0,0.0,2.873025,2
1729403424.6340373,2434,1729403424,431049024,base_link,0,1,33.6978675,73.0165641,514.0301580315371,0.9506249999999999,0.0,0.0,0.0,0.9506249999999999,0.0,0.0,0.0,2.873025,2
1729403424.7352986,2435,1729403424,631040832,base_link,0,1,33.6978674,73.0165641,514.030157365117,0.9506249999999999,0.0,0.0,0.0,0.9506249999999999,0.0,0.0,0.0,2.873025,2
1729403424.8318825,2436,1729403424,631032640,base_link,0,1,33.6978674,73.0165641,514.030157365117,0.9506249999999999,0.0,0.0,0.0,0.9506249999999999,0.0,0.0,0.0,2.873025,2
1729403424.9338384,2437,1729403424,831029056,base_link,0,1,33.6978674,73.016564,514.0301569377083,0.9506249999999999,0.0,0.0,0.0,0.9506249999999999,0.0,0.0,0.0,2.873025,2
1729403425.0374289,2438,1729403424,831021888,base_link,0,1,33.6978674,73.016564,514.0301569377083,0.9506249999999999,0.0,0.0,0.0,0.9506249999999999,0.0,0.0,0.0,2.873025,2
1729403425.1369452,2439,1729403425,31017024,base_link,0,1,33.6978673,73.016564,514.0101562712882,0.9506249999999999,0.0,0.0,0.0,0.9506249999999999,0.0,0.0,0.0,2.873025,2
1729403425.2328527,2440,1729403425,31013440,base_link,0,1,33.6978673,73.016564,514.0101562712882,0.9506249999999999,0.0,0.0,0.0,0.9506249999999999,0.0,0.0,0.0,2.873025,2
1729403425.3346508,2441,1729403425,231009088,base_link,0,1,33.6978673,73.0165639,513.9901558438796,0.9506249999999999,0.0,0.0,0.0,0.9506249999999999,0.0,0.0,0.0,2.873025,2
1729403425.4347415,2442,1729403425,231001152,base_link,0,1,33.6978673,73.0165639,513.9901558438796,0.9506249999999999,0.0,0.0,0.0,0.9506249999999999,0.0,0.0,0.0,2.873025,2
1729403425.5335321,2443,1729403425,430994496,base_link,0,1,33.6978673,73.0165639,513.9801558438796,0.948676,0.0,0.0,0.0,0.948676,0.0,0.0,0.0,2.873025,2
1729403425.6344912,2444,1729403425,430991168,base_link,0,1,33.6978673,73.0165639,513.9801558438796,0.948676,0.0,0.0,0.0,0.948676,0.0,0.0,0.0,2.873025,2
1729403425.7379224,2445,1729403425,630988096,base_link,0,1,33.6978673,73.0165638,513.970155416471,0.948676,0.0,0.0,0.0,0.948676,0.0,0.0,0.0,2.873025,2
1729403425.8372426,2446,1729403425,630984768,base_link,0,1,33.6978673,73.0165638,513.970155416471,0.948676,0.0,0.0,0.0,0.948676,0.0,0.0,0.0,2.873025,2
1729403425.9323905,2447,1729403425,830981440,base_link,0,1,33.6978673,73.0165638,513.980155416471,0.9467289999999999,0.0,0.0,0.0,0.9467289999999999,0.0,0.0,0.0,2.869636,2
1729403426.0358243,2448,1729403425,830972992,base_link,0,1,33.6978673,73.0165638,513.980155416471,0.9467289999999999,0.0,0.0,0.0,0.9467289999999999,0.0,0.0,0.0,2.869636,2
1729403426.1361537,2449,1729403426,30965312,base_link,0,1,33.6978673,73.0165637,513.9701549890624,0.9467289999999999,0.0,0.0,0.0,0.9467289999999999,0.0,0.0,0.0,2.869636,2
1729403426.2337604,2450,1729403426,30959936,base_link,0,1,33.6978673,73.0165637,513.9701549890624,0.9467289999999999,0.0,0.0,0.0,0.9467289999999999,0.0,0.0,0.0,2.869636,2
1729403426.334453,2451,1729403426,230956864,base_link,0,1,33.6978672,73.0165636,513.940153895234,0.9467289999999999,0.0,0.0,0.0,0.9467289999999999,0.0,0.0,0.0,2.869636,2
1729403426.434003,2452,1729403426,230948928,base_link,0,1,33.6978672,73.0165636,513.940153895234,0.9467289999999999,0.0,0.0,0.0,0.9467289999999999,0.0,0.0,0.0,2.869636,2
1729403426.5337856,2453,1729403426,430944576,base_link,0,1,33.6978672,73.0165636,513.930153895234,0.944784,0.0,0.0,0.0,0.944784,0.0,0.0,0.0,2.8662490000000003,2
1729403426.6341512,2454,1729403426,430941504,base_link,0,1,33.6978672,73.0165636,513.930153895234,0.944784,0.0,0.0,0.0,0.944784,0.0,0.0,0.0,2.8662490000000003,2
1729403426.7371466,2455,1729403426,630938944,base_link,0,1,33.6978672,73.0165636,513.940153895234,0.944784,0.0,0.0,0.0,0.944784,0.0,0.0,0.0,2.8662490000000003,2
1729403426.8341153,2456,1729403426,630931264,base_link,0,1,33.6978672,73.0165636,513.940153895234,0.944784,0.0,0.0,0.0,0.944784,0.0,0.0,0.0,2.8662490000000003,2
1729403426.9337442,2457,1729403426,830923584,base_link,0,1,33.6978673,73.0165635,513.9301541342452,0.9428409999999999,0.0,0.0,0.0,0.9428409999999999,0.0,0.0,0.0,2.8628639999999996,2
1729403427.034184,2458,1729403426,830915904,base_link,0,1,33.6978673,73.0165635,513.9301541342452,0.9428409999999999,0.0,0.0,0.0,0.9428409999999999,0.0,0.0,0.0,2.8628639999999996,2
1729403427.1341043,2459,1729403427,30913088,base_link,0,1,33.6978672,73.0165634,513.9201530404168,0.9428409999999999,0.0,0.0,0.0,0.9428409999999999,0.0,0.0,0.0,2.8628639999999996,2
1729403427.234064,2460,1729403427,30908992,base_link,0,1,33.6978672,73.0165634,513.9201530404168,0.9428409999999999,0.0,0.0,0.0,0.9428409999999999,0.0,0.0,0.0,2.8628639999999996,2
1729403427.3340094,2461,1729403427,230904640,base_link,0,1,33.6978671,73.0165633,513.9001519465888,0.9428409999999999,0.0,0.0,0.0,0.9428409999999999,0.0,0.0,0.0,2.859481,2
1729403427.4316552,2462,1729403427,230902080,base_link,0,1,33.6978671,73.0165633,513.9001519465888,0.9428409999999999,0.0,0.0,0.0,0.9428409999999999,0.0,0.0,0.0,2.859481,2
1729403427.5354571,2463,1729403427,430894912,base_link,0,1,33.6978671,73.0165632,513.8801515191803,0.9409,0.0,0.0,0.0,0.9409,0.0,0.0,0.0,2.859481,2
1729403427.634207,2464,1729403427,430888000,base_link,0,1,33.6978671,73.0165632,513.8801515191803,0.9409,0.0,0.0,0.0,0.9409,0.0,0.0,0.0,2.859481,2
1729403427.7341478,2465,1729403427,630880832,base_link,0,1,33.6978671,73.0165631,513.8601510917721,0.9409,0.0,0.0,0.0,0.9409,0.0,0.0,0.0,2.8560999999999996,2
1729403427.8342755,2466,1729403427,630876736,base_link,0,1,33.6978671,73.0165631,513.8601510917721,0.9409,0.0,0.0,0.0,0.9409,0.0,0.0,0.0,2.8560999999999996,2
1729403427.9344459,2467,1729403427,830872896,base_link,0,1,33.6978671,73.016563,513.8601506643637,0.9389609999999999,0.0,0.0,0.0,0.9389609999999999,0.0,0.0,0.0,2.8560999999999996,2
1729403428.0347686,2468,1729403427,830865216,base_link,0,1,33.6978671,73.016563,513.8601506643637,0.9389609999999999,0.0,0.0,0.0,0.9389609999999999,0.0,0.0,0.0,2.8560999999999996,2
1729403428.1345503,2469,1729403428,30860096,base_link,0,1,33.6978671,73.016563,513.8701506643637,0.9389609999999999,0.0,0.0,0.0,0.9389609999999999,0.0,0.0,0.0,2.8527210000000003,2
1729403428.2343888,2470,1729403428,30855488,base_link,0,1,33.6978671,73.016563,513.8701506643637,0.9389609999999999,0.0,0.0,0.0,0.9389609999999999,0.0,0.0,0.0,2.8527210000000003,2
1729403428.3342068,2471,1729403428,230848576,base_link,0,1,33.6978672,73.0165629,513.8501509033748,0.9389609999999999,0.0,0.0,0.0,0.9389609999999999,0.0,0.0,0.0,2.8527210000000003,2
1729403428.4356713,2472,1729403428,230841664,base_link,0,1,33.6978672,73.0165629,513.8501509033748,0.9389609999999999,0.0,0.0,0.0,0.9389609999999999,0.0,0.0,0.0,2.8527210000000003,2
1729403428.5316923,2473,1729403428,430837568,base_link,0,1,33.6978672,73.0165628,513.8501504759665,0.937024,0.0,0.0,0.0,0.937024,0.0,0.0,0.0,2.8527210000000003,2
1729403428.634446,2474,1729403428,430833728,base_link,0,1,33.6978672,73.0165628,513.8501504759665,0.937024,0.0,0.0,0.0,0.937024,0.0,0.0,0.0,2.8527210000000003,2
1729403428.735012,2475,1729403428,630826560,base_link,0,1,33.6978673,73.0165628,513.840151142386,0.937024,0.0,0.0,0.0,0.937024,0.0,0.0,0.0,2.849344,2
1729403428.8344681,2476,1729403428,630821696,base_link,0,1,33.6978673,73.0165628,513.840151142386,0.937024,0.0,0.0,0.0,0.937024,0.0,0.0,0.0,2.849344,2
1729403428.934331,2477,1729403428,830814784,base_link,0,1,33.6978674,73.0165628,513.8501518088055,0.937024,0.0,0.0,0.0,0.937024,0.0,0.0,0.0,2.849344,2
1729403429.0344374,2478,1729403428,830807616,base_link,0,1,33.6978674,73.0165628,513.8501518088055,0.937024,0.0,0.0,0.0,0.937024,0.0,0.0,0.0,2.849344,2
1729403429.131435,2479,1729403429,30800960,base_link,0,1,33.6978674,73.0165627,513.870151381397,0.935089,0.0,0.0,0.0,0.935089,0.0,0.0,0.0,2.845969,2
1729403429.2346282,2480,1729403429,30797632,base_link,0,1,33.6978674,73.0165627,513.870151381397,0.935089,0.0,0.0,0.0,0.935089,0.0,0.0,0.0,2.845969,2
1729403429.3343391,2481,1729403429,230794304,base_link,0,1,33.6978675,73.0165627,513.8701520478166,0.935089,0.0,0.0,0.0,0.935089,0.0,0.0,0.0,2.845969,2
1729403429.4340453,2482,1729403429,230797376,base_link,0,1,33.6978675,73.0165627,513.8701520478166,0.935089,0.0,0.0,0.0,0.935089,0.0,0.0,0.0,2.845969,2
1729403429.534478,2483,1729403429,430790976,base_link,0,1,33.6978675,73.0165627,513.8701520478166,0.935089,0.0,0.0,0.0,0.935089,0.0,0.0,0.0,2.845969,2
1729403429.6316595,2484,1729403429,430782784,base_link,0,1,33.6978675,73.0165627,513.8701520478166,0.935089,0.0,0.0,0.0,0.935089,0.0,0.0,0.0,2.845969,2
1729403429.7347567,2485,1729403429,630778432,base_link,0,1,33.6978675,73.0165627,513.8801520478166,0.935089,0.0,0.0,0.0,0.935089,0.0,0.0,0.0,2.842596,2
1729403429.8351264,2486,1729403429,630771776,base_link,0,1,33.6978675,73.0165627,513.8801520478166,0.935089,0.0,0.0,0.0,0.935089,0.0,0.0,0.0,2.842596,2
1729403429.9336677,2487,1729403429,830768448,base_link,0,1,33.6978675,73.0165626,513.8801516204082,0.935089,0.0,0.0,0.0,0.935089,0.0,0.0,0.0,2.842596,2
1729403430.033558,2488,1729403429,830761792,base_link,0,1,33.6978675,73.0165626,513.8801516204082,0.935089,0.0,0.0,0.0,0.935089,0.0,0.0,0.0,2.842596,2
1729403430.1361113,2489,1729403430,30758976,base_link,0,1,33.6978674,73.0165625,513.8601505265804,0.935089,0.0,0.0,0.0,0.935089,0.0,0.0,0.0,2.842596,2
1729403430.2343433,2490,1729403430,30751040,base_link,0,1,33.6978674,73.0165625,513.8601505265804,0.935089,0.0,0.0,0.0,0.935089,0.0,0.0,0.0,2.842596,2
1729403430.3347836,2491,1729403430,230746432,base_link,0,1,33.6978675,73.0165624,513.8501507655916,0.935089,0.0,0.0,0.0,0.935089,0.0,0.0,0.0,2.842596,2
1729403430.435115,2492,1729403430,230738496,base_link,0,1,33.6978675,73.0165624,513.8501507655916,0.935089,0.0,0.0,0.0,0.935089,0.0,0.0,0.0,2.842596,2
1729403430.5345318,2493,1729403430,430735424,base_link,0,1,33.6978675,73.0165624,513.8501507655916,0.935089,0.0,0.0,0.0,0.935089,0.0,0.0,0.0,2.842596,2
1729403430.6344514,2494,1729403430,430732352,base_link,0,1,33.6978675,73.0165624,513.8501507655916,0.935089,0.0,0.0,0.0,0.935089,0.0,0.0,0.0,2.842596,2
1729403430.7358098,2495,1729403430,630729536,base_link,0,1,33.6978675,73.0165624,513.8601507655916,0.935089,0.0,0.0,0.0,0.935089,0.0,0.0,0.0,2.8392250000000003,2
1729403430.8348246,2496,1729403430,630725440,base_link,0,1,33.6978675,73.0165624,513.8601507655916,0.935089,0.0,0.0,0.0,0.935089,0.0,0.0,0.0,2.8392250000000003,2
1729403430.9335496,2497,1729403430,830721344,base_link,0,1,33.6978675,73.0165623,513.8701503381832,0.935089,0.0,0.0,0.0,0.935089,0.0,0.0,0.0,2.8392250000000003,2
1729403431.0334017,2498,1729403430,830715456,base_link,0,1,33.6978675,73.0165623,513.8701503381832,0.935089,0.0,0.0,0.0,0.935089,0.0,0.0,0.0,2.8392250000000003,2
1729403431.1339545,2499,1729403431,30708032,base_link,0,1,33.6978675,73.0165623,513.8701503381832,0.935089,0.0,0.0,0.0,0.935089,0.0,0.0,0.0,2.8392250000000003,2
1729403431.2346332,2500,1729403431,30700864,base_link,0,1,33.6978675,73.0165623,513.8701503381832,0.935089,0.0,0.0,0.0,0.935089,0.0,0.0,0.0,2.8392250000000003,2
1729403431.3325543,2501,1729403431,230698048,base_link,0,1,33.6978676,73.0165622,513.8601505771943,0.933156,0.0,0.0,0.0,0.933156,0.0,0.0,0.0,2.8392250000000003,2
1729403431.4360137,2502,1729403431,230694976,base_link,0,1,33.6978676,73.0165622,513.8601505771943,0.933156,0.0,0.0,0.0,0.933156,0.0,0.0,0.0,2.8392250000000003,2
1729403431.5338688,2503,1729403431,430691392,base_link,0,1,33.6978676,73.0165621,513.870150149786,0.933156,0.0,0.0,0.0,0.933156,0.0,0.0,0.0,2.8358559999999997,2
1729403431.6360748,2504,1729403431,430683968,base_link,0,1,33.6978676,73.0165621,513.870150149786,0.933156,0.0,0.0,0.0,0.933156,0.0,0.0,0.0,2.8358559999999997,2
1729403431.734395,2505,1729403431,630676544,base_link,0,1,33.6978676,73.016562,513.8301497223777,0.933156,0.0,0.0,0.0,0.933156,0.0,0.0,0.0,2.8358559999999997,2
1729403431.8339682,2506,1729403431,630673984,base_link,0,1,33.6978676,73.016562,513.8301497223777,0.933156,0.0,0.0,0.0,0.933156,0.0,0.0,0.0,2.8358559999999997,2
1729403431.934398,2507,1729403431,830666816,base_link,0,1,33.6978676,73.016562,513.8401497223778,0.933156,0.0,0.0,0.0,0.933156,0.0,0.0,0.0,2.8358559999999997,2
1729403432.0339134,2508,1729403431,830659904,base_link,0,1,33.6978676,73.016562,513.8401497223778,0.933156,0.0,0.0,0.0,0.933156,0.0,0.0,0.0,2.8358559999999997,2
1729403432.1317778,2509,1729403432,30657088,base_link,0,1,33.6978676,73.016562,513.8601497223777,0.933156,0.0,0.0,0.0,0.933156,0.0,0.0,0.0,2.8358559999999997,2
1729403432.236163,2510,1729403432,30652480,base_link,0,1,33.6978676,73.016562,513.8601497223777,0.933156,0.0,0.0,0.0,0.933156,0.0,0.0,0.0,2.8358559999999997,2
1729403432.333656,2511,1729403432,230645312,base_link,0,1,33.6978675,73.0165619,513.8401486285501,0.933156,0.0,0.0,0.0,0.933156,0.0,0.0,0.0,2.8324890000000003,2
1729403432.4350257,2512,1729403432,230638400,base_link,0,1,33.6978675,73.0165619,513.8401486285501,0.933156,0.0,0.0,0.0,0.933156,0.0,0.0,0.0,2.8324890000000003,2
1729403432.5340528,2513,1729403432,430635840,base_link,0,1,33.6978674,73.0165619,513.8201479621307,0.933156,0.0,0.0,0.0,0.933156,0.0,0.0,0.0,2.8324890000000003,2
1729403432.6338692,2514,1729403432,430633536,base_link,0,1,33.6978674,73.0165619,513.8201479621307,0.933156,0.0,0.0,0.0,0.933156,0.0,0.0,0.0,2.8324890000000003,2
1729403432.7324462,2515,1729403432,630631232,base_link,0,1,33.6978674,73.016562,513.8301483895389,0.933156,0.0,0.0,0.0,0.933156,0.0,0.0,0.0,2.8324890000000003,2
1729403432.8344405,2516,1729403432,630627392,base_link,0,1,33.6978674,73.016562,513.8301483895389,0.933156,0.0,0.0,0.0,0.933156,0.0,0.0,0.0,2.8324890000000003,2
1729403432.9328876,2517,1729403432,830623040,base_link,0,1,33.6978674,73.016562,513.8301483895389,0.933156,0.0,0.0,0.0,0.933156,0.0,0.0,0.0,2.8324890000000003,2
1729403433.0341184,2518,1729403432,830616640,base_link,0,1,33.6978674,73.016562,513.8301483895389,0.933156,0.0,0.0,0.0,0.933156,0.0,0.0,0.0,2.8324890000000003,2
1729403433.1343439,2519,1729403433,30611776,base_link,0,1,33.6978673,73.016562,513.8501477231198,0.933156,0.0,0.0,0.0,0.933156,0.0,0.0,0.0,2.8324890000000003,2
1729403433.235866,2520,1729403433,30608960,base_link,0,1,33.6978673,73.016562,513.8501477231198,0.933156,0.0,0.0,0.0,0.933156,0.0,0.0,0.0,2.8324890000000003,2
1729403433.3339238,2521,1729403433,230602304,base_link,0,1,33.6978673,73.0165619,513.8401472957116,0.933156,0.0,0.0,0.0,0.933156,0.0,0.0,0.0,2.8291239999999998,2
1729403433.4350548,2522,1729403433,230598720,base_link,0,1,33.6978673,73.0165619,513.8401472957116,0.933156,0.0,0.0,0.0,0.933156,0.0,0.0,0.0,2.8291239999999998,2
1729403433.5354125,2523,1729403433,430593856,base_link,0,1,33.6978673,73.0165619,513.8201472957115,0.931225,0.0,0.0,0.0,0.931225,0.0,0.0,0.0,2.8291239999999998,2
1729403433.6330297,2524,1729403433,430588992,base_link,0,1,33.6978673,73.0165619,513.8201472957115,0.931225,0.0,0.0,0.0,0.931225,0.0,0.0,0.0,2.8291239999999998,2
1729403433.7349467,2525,1729403433,630584128,base_link,0,1,33.6978674,73.0165618,513.8201475347225,0.931225,0.0,0.0,0.0,0.931225,0.0,0.0,0.0,2.8291239999999998,2
1729403433.8358512,2526,1729403433,630577472,base_link,0,1,33.6978674,73.0165618,513.8201475347225,0.931225,0.0,0.0,0.0,0.931225,0.0,0.0,0.0,2.8291239999999998,2
1729403433.936041,2527,1729403433,830571072,base_link,0,1,33.6978675,73.0165618,513.8201482011418,0.931225,0.0,0.0,0.0,0.931225,0.0,0.0,0.0,2.8291239999999998,2
1729403434.0376372,2528,1729403433,830564416,base_link,0,1,33.6978675,73.0165618,513.8201482011418,0.931225,0.0,0.0,0.0,0.931225,0.0,0.0,0.0,2.8291239999999998,2
1729403434.1340475,2529,1729403434,30558016,base_link,0,1,33.6978675,73.0165618,513.8301482011418,0.931225,0.0,0.0,0.0,0.931225,0.0,0.0,0.0,2.8291239999999998,2
1729403434.2342923,2530,1729403434,30551360,base_link,0,1,33.6978675,73.0165618,513.8301482011418,0.931225,0.0,0.0,0.0,0.931225,0.0,0.0,0.0,2.8291239999999998,2
1729403434.3345776,2531,1729403434,230543936,base_link,0,1,33.6978675,73.0165618,513.8301482011418,0.931225,0.0,0.0,0.0,0.931225,0.0,0.0,0.0,2.825761,2
1729403434.4339566,2532,1729403434,230537280,base_link,0,1,33.6978675,73.0165618,513.8301482011418,0.931225,0.0,0.0,0.0,0.931225,0.0,0.0,0.0,2.825761,2
1729403434.5334473,2533,1729403434,430532672,base_link,0,1,33.6978675,73.0165618,513.8501482011419,0.931225,0.0,0.0,0.0,0.931225,0.0,0.0,0.0,2.825761,2
1729403434.6340938,2534,1729403434,430529344,base_link,0,1,33.6978675,73.0165618,513.8501482011419,0.931225,0.0,0.0,0.0,0.931225,0.0,0.0,0.0,2.825761,2
1729403434.7311714,2535,1729403434,630523200,base_link,0,1,33.6978675,73.0165618,513.8401482011419,0.931225,0.0,0.0,0.0,0.931225,0.0,0.0,0.0,2.825761,2
1729403434.8365653,2536,1729403434,630519872,base_link,0,1,33.6978675,73.0165618,513.8401482011419,0.931225,0.0,0.0,0.0,0.931225,0.0,0.0,0.0,2.825761,2
1729403434.9336927,2537,1729403434,830515264,base_link,0,1,33.6978674,73.0165618,513.8601475347227,0.931225,0.0,0.0,0.0,0.931225,0.0,0.0,0.0,2.825761,2
1729403435.0343697,2538,1729403434,830509120,base_link,0,1,33.6978674,73.0165618,513.8601475347227,0.931225,0.0,0.0,0.0,0.931225,0.0,0.0,0.0,2.825761,2
1729403435.1334207,2539,1729403435,30504512,base_link,0,1,33.6978674,73.0165618,513.8501475347227,0.931225,0.0,0.0,0.0,0.931225,0.0,0.0,0.0,2.825761,2
1729403435.234194,2540,1729403435,30498112,base_link,0,1,33.6978674,73.0165618,513.8501475347227,0.931225,0.0,0.0,0.0,0.931225,0.0,0.0,0.0,2.825761,2
1729403435.333978,2541,1729403435,230490432,base_link,0,1,33.6978675,73.0165618,513.8501482011419,0.931225,0.0,0.0,0.0,0.931225,0.0,0.0,0.0,2.825761,2
1729403435.4320543,2542,1729403435,230484288,base_link,0,1,33.6978675,73.0165618,513.8501482011419,0.931225,0.0,0.0,0.0,0.931225,0.0,0.0,0.0,2.825761,2
1729403435.5344694,2543,1729403435,430477120,base_link,0,1,33.6978675,73.0165618,513.8601482011419,0.931225,0.0,0.0,0.0,0.931225,0.0,0.0,0.0,2.8223999999999996,2
1729403435.632053,2544,1729403435,430473024,base_link,0,1,33.6978675,73.0165618,513.8601482011419,0.931225,0.0,0.0,0.0,0.931225,0.0,0.0,0.0,2.8223999999999996,2
1729403435.7342548,2545,1729403435,630465600,base_link,0,1,33.6978675,73.0165618,513.8501482011419,0.931225,0.0,0.0,0.0,0.931225,0.0,0.0,0.0,2.8223999999999996,2
1729403435.8336198,2546,1729403435,630458176,base_link,0,1,33.6978675,73.0165618,513.8501482011419,0.931225,0.0,0.0,0.0,0.931225,0.0,0.0,0.0,2.8223999999999996,2
1729403435.933293,2547,1729403435,830454848,base_link,0,1,33.6978674,73.0165618,513.8701475347227,0.931225,0.0,0.0,0.0,0.931225,0.0,0.0,0.0,2.8223999999999996,2
1729403436.0341156,2548,1729403435,830448960,base_link,0,1,33.6978674,73.0165618,513.8701475347227,0.931225,0.0,0.0,0.0,0.931225,0.0,0.0,0.0,2.8223999999999996,2
1729403436.1369495,2549,1729403436,30440768,base_link,0,1,33.6978674,73.0165619,513.8801479621308,0.931225,0.0,0.0,0.0,0.931225,0.0,0.0,0.0,2.8223999999999996,2
1729403436.2324407,2550,1729403436,30437696,base_link,0,1,33.6978674,73.0165619,513.8801479621308,0.931225,0.0,0.0,0.0,0.931225,0.0,0.0,0.0,2.8223999999999996,2
1729403436.333199,2551,1729403436,230434112,base_link,0,1,33.6978674,73.0165619,513.8901479621308,0.9292959999999999,0.0,0.0,0.0,0.9292959999999999,0.0,0.0,0.0,2.8223999999999996,2
1729403436.4334931,2552,1729403436,230433088,base_link,0,1,33.6978674,73.0165619,513.8901479621308,0.9292959999999999,0.0,0.0,0.0,0.9292959999999999,0.0,0.0,0.0,2.8223999999999996,2
1729403436.5317187,2553,1729403436,430429248,base_link,0,1,33.6978674,73.0165619,513.8901479621308,0.9292959999999999,0.0,0.0,0.0,0.9292959999999999,0.0,0.0,0.0,2.8190410000000004,2
1729403436.6335928,2554,1729403436,430421824,base_link,0,1,33.6978674,73.0165619,513.8901479621308,0.9292959999999999,0.0,0.0,0.0,0.9292959999999999,0.0,0.0,0.0,2.8190410000000004,2
1729403436.7357874,2555,1729403436,630416192,base_link,0,1,33.6978675,73.0165618,513.8801482011419,0.9292959999999999,0.0,0.0,0.0,0.9292959999999999,0.0,0.0,0.0,2.8190410000000004,2
1729403436.8344283,2556,1729403436,630413120,base_link,0,1,33.6978675,73.0165618,513.8801482011419,0.9292959999999999,0.0,0.0,0.0,0.9292959999999999,0.0,0.0,0.0,2.8190410000000004,2
1729403436.9330287,2557,1729403436,830406208,base_link,0,1,33.6978676,73.0165618,513.8601488675612,0.9292959999999999,0.0,0.0,0.0,0.9292959999999999,0.0,0.0,0.0,2.8190410000000004,2
1729403437.033566,2558,1729403436,830400832,base_link,0,1,33.6978676,73.0165618,513.8601488675612,0.9292959999999999,0.0,0.0,0.0,0.9292959999999999,0.0,0.0,0.0,2.8190410000000004,2
1729403437.136143,2559,1729403437,30394432,base_link,0,1,33.6978676,73.0165618,513.8501488675612,0.9292959999999999,0.0,0.0,0.0,0.9292959999999999,0.0,0.0,0.0,2.8190410000000004,2
1729403437.2335548,2560,1729403437,30387520,base_link,0,1,33.6978676,73.0165618,513.8501488675612,0.9292959999999999,0.0,0.0,0.0,0.9292959999999999,0.0,0.0,0.0,2.8190410000000004,2
1729403437.3335633,2561,1729403437,230380608,base_link,0,1,33.6978676,73.0165618,513.8601488675612,0.9292959999999999,0.0,0.0,0.0,0.9292959999999999,0.0,0.0,0.0,2.8190410000000004,2
1729403437.4336019,2562,1729403437,230373696,base_link,0,1,33.6978676,73.0165618,513.8601488675612,0.9292959999999999,0.0,0.0,0.0,0.9292959999999999,0.0,0.0,0.0,2.8190410000000004,2
1729403437.5339258,2563,1729403437,430367040,base_link,0,1,33.6978676,73.0165617,513.8501484401529,0.9292959999999999,0.0,0.0,0.0,0.9292959999999999,0.0,0.0,0.0,2.8156839999999996,2
1729403437.6340108,2564,1729403437,430360128,base_link,0,1,33.6978676,73.0165617,513.8501484401529,0.9292959999999999,0.0,0.0,0.0,0.9292959999999999,0.0,0.0,0.0,2.8156839999999996,2
1729403437.7357142,2565,1729403437,630352448,base_link,0,1,33.6978676,73.0165617,513.8401484401529,0.9292959999999999,0.0,0.0,0.0,0.9292959999999999,0.0,0.0,0.0,2.8156839999999996,2
1729403437.8341513,2566,1729403437,630346048,base_link,0,1,33.6978676,73.0165617,513.8401484401529,0.9292959999999999,0.0,0.0,0.0,0.9292959999999999,0.0,0.0,0.0,2.8156839999999996,2
1729403437.9343214,2567,1729403437,830339136,base_link,0,1,33.6978676,73.0165617,513.8601484401529,0.9292959999999999,0.0,0.0,0.0,0.9292959999999999,0.0,0.0,0.0,2.8156839999999996,2
1729403438.0349805,2568,1729403437,830332736,base_link,0,1,33.6978676,73.0165617,513.8601484401529,0.9292959999999999,0.0,0.0,0.0,0.9292959999999999,0.0,0.0,0.0,2.8156839999999996,2
1729403438.131731,2569,1729403438,30325824,base_link,0,1,33.6978677,73.0165617,513.8701491065722,0.9292959999999999,0.0,0.0,0.0,0.9292959999999999,0.0,0.0,0.0,2.8156839999999996,2
1729403438.2348602,2570,1729403438,30319168,base_link,0,1,33.6978677,73.0165617,513.8701491065722,0.9292959999999999,0.0,0.0,0.0,0.9292959999999999,0.0,0.0,0.0,2.8156839999999996,2
1729403438.3337939,2571,1729403438,230312512,base_link,0,1,33.6978678,73.0165616,513.8601493455833,0.9292959999999999,0.0,0.0,0.0,0.9292959999999999,0.0,0.0,0.0,2.812329,2
1729403438.4330356,2572,1729403438,230306112,base_link,0,1,33.6978678,73.0165616,513.8601493455833,0.9292959999999999,0.0,0.0,0.0,0.9292959999999999,0.0,0.0,0.0,2.812329,2
1729403438.5345666,2573,1729403438,430301504,base_link,0,1,33.6978678,73.0165616,513.8601493455833,0.9292959999999999,0.0,0.0,0.0,0.9292959999999999,0.0,0.0,0.0,2.812329,2
1729403438.634704,2574,1729403438,430295104,base_link,0,1,33.6978678,73.0165616,513.8601493455833,0.9292959999999999,0.0,0.0,0.0,0.9292959999999999,0.0,0.0,0.0,2.812329,2
1729403438.7337558,2575,1729403438,630288704,base_link,0,1,33.6978678,73.0165617,513.8701497729915,0.9292959999999999,0.0,0.0,0.0,0.9292959999999999,0.0,0.0,0.0,2.812329,2
1729403438.8327384,2576,1729403438,630282304,base_link,0,1,33.6978678,73.0165617,513.8701497729915,0.9292959999999999,0.0,0.0,0.0,0.9292959999999999,0.0,0.0,0.0,2.812329,2
1729403438.9338965,2577,1729403438,830276160,base_link,0,1,33.6978679,73.0165617,513.8601504394109,0.9273689999999999,0.0,0.0,0.0,0.9273689999999999,0.0,0.0,0.0,2.812329,2
1729403439.033936,2578,1729403438,830269760,base_link,0,1,33.6978679,73.0165617,513.8601504394109,0.9273689999999999,0.0,0.0,0.0,0.9273689999999999,0.0,0.0,0.0,2.812329,2
1729403439.1340773,2579,1729403439,30265152,base_link,0,1,33.697868,73.0165616,513.8601506784221,0.9273689999999999,0.0,0.0,0.0,0.9273689999999999,0.0,0.0,0.0,2.812329,2
1729403439.2363396,2580,1729403439,30259008,base_link,0,1,33.697868,73.0165616,513.8601506784221,0.9273689999999999,0.0,0.0,0.0,0.9273689999999999,0.0,0.0,0.0,2.812329,2
1729403439.3345754,2581,1729403439,230252608,base_link,0,1,33.6978681,73.0165616,513.8601513448416,0.9273689999999999,0.0,0.0,0.0,0.9273689999999999,0.0,0.0,0.0,2.808976,2
1729403439.434559,2582,1729403439,230246464,base_link,0,1,33.6978681,73.0165616,513.8601513448416,0.9273689999999999,0.0,0.0,0.0,0.9273689999999999,0.0,0.0,0.0,2.808976,2
1729403439.5337303,2583,1729403439,430240064,base_link,0,1,33.6978682,73.0165616,513.850152011261,0.9273689999999999,0.0,0.0,0.0,0.9273689999999999,0.0,0.0,0.0,2.808976,2
1729403439.635593,2584,1729403439,430234176,base_link,0,1,33.6978682,73.0165616,513.850152011261,0.9273689999999999,0.0,0.0,0.0,0.9273689999999999,0.0,0.0,0.0,2.808976,2
1729403439.734249,2585,1729403439,630228032,base_link,0,1,33.6978683,73.0165616,513.8501526776806,0.9273689999999999,0.0,0.0,0.0,0.9273689999999999,0.0,0.0,0.0,2.808976,2
1729403439.8333323,2586,1729403439,630222144,base_link,0,1,33.6978683,73.0165616,513.8501526776806,0.9273689999999999,0.0,0.0,0.0,0.9273689999999999,0.0,0.0,0.0,2.808976,2
1729403439.9337986,2587,1729403439,830216256,base_link,0,1,33.6978684,73.0165616,513.8301533441,0.9273689999999999,0.0,0.0,0.0,0.9273689999999999,0.0,0.0,0.0,2.808976,2
1729403440.033832,2588,1729403439,830210368,base_link,0,1,33.6978684,73.0165616,513.8301533441,0.9273689999999999,0.0,0.0,0.0,0.9273689999999999,0.0,0.0,0.0,2.808976,2
1729403440.1340423,2589,1729403440,32204480,base_link,0,1,33.6978685,73.0165616,513.8201540105198,0.9273689999999999,0.0,0.0,0.0,0.9273689999999999,0.0,0.0,0.0,2.805625,2
1729403440.233582,2590,1729403440,32202176,base_link,0,1,33.6978685,73.0165616,513.8201540105198,0.9273689999999999,0.0,0.0,0.0,0.9273689999999999,0.0,0.0,0.0,2.805625,2
1729403440.3334694,2591,1729403440,232196288,base_link,0,1,33.6978685,73.0165615,513.8101535831112,0.9273689999999999,0.0,0.0,0.0,0.9273689999999999,0.0,0.0,0.0,2.805625,2
1729403440.4354646,2592,1729403440,232189120,base_link,0,1,33.6978685,73.0165615,513.8101535831112,0.9273689999999999,0.0,0.0,0.0,0.9273689999999999,0.0,0.0,0.0,2.805625,2
1729403440.5340545,2593,1729403440,432181952,base_link,0,1,33.6978686,73.0165615,513.8001542495309,0.9273689999999999,0.0,0.0,0.0,0.9273689999999999,0.0,0.0,0.0,2.805625,2
1729403440.6320477,2594,1729403440,432174528,base_link,0,1,33.6978686,73.0165615,513.8001542495309,0.9273689999999999,0.0,0.0,0.0,0.9273689999999999,0.0,0.0,0.0,2.805625,2
1729403440.7339535,2595,1729403440,632170944,base_link,0,1,33.6978687,73.0165614,513.790154488542,0.9273689999999999,0.0,0.0,0.0,0.9273689999999999,0.0,0.0,0.0,2.805625,2
1729403440.8342783,2596,1729403440,632165568,base_link,0,1,33.6978687,73.0165614,513.790154488542,0.9273689999999999,0.0,0.0,0.0,0.9273689999999999,0.0,0.0,0.0,2.805625,2
1729403440.9312189,2597,1729403440,832158656,base_link,0,1,33.6978687,73.0165614,513.810154488542,0.9273689999999999,0.0,0.0,0.0,0.9273689999999999,0.0,0.0,0.0,2.802276,2
1729403441.0333545,2598,1729403440,832153280,base_link,0,1,33.6978687,73.0165614,513.810154488542,0.9273689999999999,0.0,0.0,0.0,0.9273689999999999,0.0,0.0,0.0,2.802276,2
1729403441.1364992,2599,1729403441,32147136,base_link,0,1,33.6978688,73.0165613,513.7901547275533,0.9273689999999999,0.0,0.0,0.0,0.9273689999999999,0.0,0.0,0.0,2.802276,2
1729403441.2344663,2600,1729403441,32144832,base_link,0,1,33.6978688,73.0165613,513.7901547275533,0.9273689999999999,0.0,0.0,0.0,0.9273689999999999,0.0,0.0,0.0,2.802276,2
1729403441.3353524,2601,1729403441,232137920,base_link,0,1,33.6978688,73.0165613,513.8001547275533,0.9273689999999999,0.0,0.0,0.0,0.9273689999999999,0.0,0.0,0.0,2.802276,2
1729403441.435755,2602,1729403441,232131008,base_link,0,1,33.6978688,73.0165613,513.8001547275533,0.9273689999999999,0.0,0.0,0.0,0.9273689999999999,0.0,0.0,0.0,2.802276,2
1729403441.5321786,2603,1729403441,432124096,base_link,0,1,33.6978689,73.0165612,513.8001549665644,0.9273689999999999,0.0,0.0,0.0,0.9273689999999999,0.0,0.0,0.0,2.802276,2
1729403441.6333213,2604,1729403441,432117696,base_link,0,1,33.6978689,73.0165612,513.8001549665644,0.9273689999999999,0.0,0.0,0.0,0.9273689999999999,0.0,0.0,0.0,2.802276,2
1729403441.7349756,2605,1729403441,632111552,base_link,0,1,33.697869,73.0165611,513.7901552055755,0.9273689999999999,0.0,0.0,0.0,0.9273689999999999,0.0,0.0,0.0,2.802276,2
1729403441.8346565,2606,1729403441,632108224,base_link,0,1,33.697869,73.0165611,513.7901552055755,0.9273689999999999,0.0,0.0,0.0,0.9273689999999999,0.0,0.0,0.0,2.802276,2
1729403441.9331284,2607,1729403441,832101824,base_link,0,1,33.697869,73.0165612,513.7901556329841,0.9273689999999999,0.0,0.0,0.0,0.9273689999999999,0.0,0.0,0.0,2.7989290000000002,2
1729403442.032192,2608,1729403441,832094912,base_link,0,1,33.697869,73.0165612,513.7901556329841,0.9273689999999999,0.0,0.0,0.0,0.9273689999999999,0.0,0.0,0.0,2.7989290000000002,2
1729403442.1333964,2609,1729403442,32088512,base_link,0,1,33.6978691,73.0165612,513.8101562994038,0.9273689999999999,0.0,0.0,0.0,0.9273689999999999,0.0,0.0,0.0,2.7989290000000002,2
1729403442.2339978,2610,1729403442,32085952,base_link,0,1,33.6978691,73.0165612,513.8101562994038,0.9273689999999999,0.0,0.0,0.0,0.9273689999999999,0.0,0.0,0.0,2.7989290000000002,2
1729403442.334858,2611,1729403442,232078784,base_link,0,1,33.6978691,73.0165612,513.8101562994038,0.9273689999999999,0.0,0.0,0.0,0.9273689999999999,0.0,0.0,0.0,2.7989290000000002,2
1729403442.4325361,2612,1729403442,232072384,base_link,0,1,33.6978691,73.0165612,513.8101562994038,0.9273689999999999,0.0,0.0,0.0,0.9273689999999999,0.0,0.0,0.0,2.7989290000000002,2
1729403442.5329218,2613,1729403442,432065728,base_link,0,1,33.6978691,73.0165613,513.8201567268126,0.9254439999999999,0.0,0.0,0.0,0.9254439999999999,0.0,0.0,0.0,2.7989290000000002,2
1729403442.6330433,2614,1729403442,432059840,base_link,0,1,33.6978691,73.0165613,513.8201567268126,0.9254439999999999,0.0,0.0,0.0,0.9254439999999999,0.0,0.0,0.0,2.7989290000000002,2
1729403442.7337492,2615,1729403442,632053184,base_link,0,1,33.6978691,73.0165613,513.8201567268126,0.9254439999999999,0.0,0.0,0.0,0.9254439999999999,0.0,0.0,0.0,2.7989290000000002,2
1729403442.8360558,2616,1729403442,632046528,base_link,0,1,33.6978691,73.0165613,513.8201567268126,0.9254439999999999,0.0,0.0,0.0,0.9254439999999999,0.0,0.0,0.0,2.7989290000000002,2
1729403442.9334013,2617,1729403442,832039872,base_link,0,1,33.6978692,73.0165613,513.8201573932324,0.9254439999999999,0.0,0.0,0.0,0.9254439999999999,0.0,0.0,0.0,2.795584,2
1729403443.033844,2618,1729403442,832033728,base_link,0,1,33.6978692,73.0165613,513.8201573932324,0.9254439999999999,0.0,0.0,0.0,0.9254439999999999,0.0,0.0,0.0,2.795584,2
1729403443.133146,2619,1729403443,32026560,base_link,0,1,33.6978692,73.0165613,513.8301573932324,0.9254439999999999,0.0,0.0,0.0,0.9254439999999999,0.0,0.0,0.0,2.795584,2
1729403443.236708,2620,1729403443,32020416,base_link,0,1,33.6978692,73.0165613,513.8301573932324,0.9254439999999999,0.0,0.0,0.0,0.9254439999999999,0.0,0.0,0.0,2.795584,2
1729403443.33305,2621,1729403443,232013760,base_link,0,1,33.6978692,73.0165614,513.8101578206412,0.9254439999999999,0.0,0.0,0.0,0.9254439999999999,0.0,0.0,0.0,2.795584,2
1729403443.4348233,2622,1729403443,232007616,base_link,0,1,33.6978692,73.0165614,513.8101578206412,0.9254439999999999,0.0,0.0,0.0,0.9254439999999999,0.0,0.0,0.0,2.795584,2
1729403443.5336213,2623,1729403443,432001216,base_link,0,1,33.6978692,73.0165614,513.8101578206412,0.9254439999999999,0.0,0.0,0.0,0.9254439999999999,0.0,0.0,0.0,2.795584,2
1729403443.634139,2624,1729403443,431994816,base_link,0,1,33.6978692,73.0165614,513.8101578206412,0.9254439999999999,0.0,0.0,0.0,0.9254439999999999,0.0,0.0,0.0,2.795584,2
1729403443.7353258,2625,1729403443,631988160,base_link,0,1,33.6978692,73.0165614,513.8001578206412,0.9273689999999999,0.0,0.0,0.0,0.9273689999999999,0.0,0.0,0.0,2.795584,2
1729403443.833491,2626,1729403443,631981760,base_link,0,1,33.6978692,73.0165614,513.8001578206412,0.9273689999999999,0.0,0.0,0.0,0.9273689999999999,0.0,0.0,0.0,2.795584,2
1729403443.9316757,2627,1729403443,831975616,base_link,0,1,33.6978693,73.0165614,513.8001584870611,0.9273689999999999,0.0,0.0,0.0,0.9273689999999999,0.0,0.0,0.0,2.795584,2
1729403444.0334744,2628,1729403443,831969728,base_link,0,1,33.6978693,73.0165614,513.8001584870611,0.9273689999999999,0.0,0.0,0.0,0.9273689999999999,0.0,0.0,0.0,2.795584,2
1729403444.1338964,2629,1729403444,31964096,base_link,0,1,33.6978693,73.0165614,513.7901584870611,0.9273689999999999,0.0,0.0,0.0,0.9273689999999999,0.0,0.0,0.0,2.795584,2
1729403444.2337408,2630,1729403444,31960000,base_link,0,1,33.6978693,73.0165614,513.7901584870611,0.9273689999999999,0.0,0.0,0.0,0.9273689999999999,0.0,0.0,0.0,2.795584,2
1729403444.3336074,2631,1729403444,231954112,base_link,0,1,33.6978693,73.0165614,513.7901584870611,0.9273689999999999,0.0,0.0,0.0,0.9273689999999999,0.0,0.0,0.0,2.7989290000000002,2
1729403444.4326386,2632,1729403444,231948480,base_link,0,1,33.6978693,73.0165614,513.7901584870611,0.9273689999999999,0.0,0.0,0.0,0.9273689999999999,0.0,0.0,0.0,2.7989290000000002,2
1729403444.5336082,2633,1729403444,431942592,base_link,0,1,33.6978694,73.0165614,513.7901591534812,0.9292959999999999,0.0,0.0,0.0,0.9292959999999999,0.0,0.0,0.0,2.7989290000000002,2
1729403444.6332998,2634,1729403444,431936704,base_link,0,1,33.6978694,73.0165614,513.7901591534812,0.9292959999999999,0.0,0.0,0.0,0.9292959999999999,0.0,0.0,0.0,2.7989290000000002,2
1729403444.7338088,2635,1729403444,631930816,base_link,0,1,33.6978694,73.0165614,513.7801591534812,0.9292959999999999,0.0,0.0,0.0,0.9292959999999999,0.0,0.0,0.0,2.7989290000000002,2
1729403444.8330286,2636,1729403444,631924928,base_link,0,1,33.6978694,73.0165614,513.7801591534812,0.9292959999999999,0.0,0.0,0.0,0.9292959999999999,0.0,0.0,0.0,2.7989290000000002,2
1729403444.9337072,2637,1729403444,831919040,base_link,0,1,33.6978694,73.0165614,513.7801591534812,0.9292959999999999,0.0,0.0,0.0,0.9292959999999999,0.0,0.0,0.0,2.802276,2
1729403445.033022,2638,1729403444,831912896,base_link,0,1,33.6978694,73.0165614,513.7801591534812,0.9292959999999999,0.0,0.0,0.0,0.9292959999999999,0.0,0.0,0.0,2.802276,2
1729403445.133853,2639,1729403445,31907008,base_link,0,1,33.6978694,73.0165614,513.7701591534812,0.9292959999999999,0.0,0.0,0.0,0.9292959999999999,0.0,0.0,0.0,2.802276,2
1729403445.2341468,2640,1729403445,31901376,base_link,0,1,33.6978694,73.0165614,513.7701591534812,0.9292959999999999,0.0,0.0,0.0,0.9292959999999999,0.0,0.0,0.0,2.802276,2
1729403445.333708,2641,1729403445,231894976,base_link,0,1,33.6978695,73.0165614,513.7701598199013,0.9292959999999999,0.0,0.0,0.0,0.9292959999999999,0.0,0.0,0.0,2.802276,2
1729403445.4335504,2642,1729403445,231887552,base_link,0,1,33.6978695,73.0165614,513.7701598199013,0.9292959999999999,0.0,0.0,0.0,0.9292959999999999,0.0,0.0,0.0,2.802276,2
1729403445.5348237,2643,1729403445,431882432,base_link,0,1,33.6978695,73.0165614,513.7801598199013,0.931225,0.0,0.0,0.0,0.931225,0.0,0.0,0.0,2.802276,2
1729403445.6360905,2644,1729403445,431877056,base_link,0,1,33.6978695,73.0165614,513.7801598199013,0.931225,0.0,0.0,0.0,0.931225,0.0,0.0,0.0,2.802276,2
1729403445.7330492,2645,1729403445,631869632,base_link,0,1,33.6978694,73.0165613,513.7401587260724,0.931225,0.0,0.0,0.0,0.931225,0.0,0.0,0.0,2.802276,2
1729403445.8348408,2646,1729403445,631862464,base_link,0,1,33.6978694,73.0165613,513.7401587260724,0.931225,0.0,0.0,0.0,0.931225,0.0,0.0,0.0,2.802276,2
1729403445.9338355,2647,1729403445,831855552,base_link,0,1,33.6978694,73.0165613,513.7501587260724,0.931225,0.0,0.0,0.0,0.931225,0.0,0.0,0.0,2.805625,2
1729403446.0339546,2648,1729403445,831850176,base_link,0,1,33.6978694,73.0165613,513.7501587260724,0.931225,0.0,0.0,0.0,0.931225,0.0,0.0,0.0,2.805625,2
1729403446.1335945,2649,1729403446,31843776,base_link,0,1,33.6978693,73.0165613,513.7401580596525,0.931225,0.0,0.0,0.0,0.931225,0.0,0.0,0.0,2.805625,2
1729403446.2337925,2650,1729403446,31837120,base_link,0,1,33.6978693,73.0165613,513.7401580596525,0.931225,0.0,0.0,0.0,0.931225,0.0,0.0,0.0,2.805625,2
1729403446.3337862,2651,1729403446,231832000,base_link,0,1,33.6978692,73.0165613,513.7301573932325,0.933156,0.0,0.0,0.0,0.933156,0.0,0.0,0.0,2.808976,2
1729403446.4331043,2652,1729403446,231825344,base_link,0,1,33.6978692,73.0165613,513.7301573932325,0.933156,0.0,0.0,0.0,0.933156,0.0,0.0,0.0,2.808976,2
1729403446.5362256,2653,1729403446,431819712,base_link,0,1,33.6978692,73.0165613,513.7301573932325,0.933156,0.0,0.0,0.0,0.933156,0.0,0.0,0.0,2.812329,2
1729403446.6336405,2654,1729403446,431813056,base_link,0,1,33.6978692,73.0165613,513.7301573932325,0.933156,0.0,0.0,0.0,0.933156,0.0,0.0,0.0,2.812329,2
1729403446.7356136,2655,1729403446,631806400,base_link,0,1,33.6978692,73.0165614,513.7501578206412,0.933156,0.0,0.0,0.0,0.933156,0.0,0.0,0.0,2.812329,2
1729403446.8343117,2656,1729403446,631800000,base_link,0,1,33.6978692,73.0165614,513.7501578206412,0.933156,0.0,0.0,0.0,0.933156,0.0,0.0,0.0,2.812329,2
1729403446.9331045,2657,1729403446,831793344,base_link,0,1,33.6978692,73.0165613,513.7201573932325,0.933156,0.0,0.0,0.0,0.933156,0.0,0.0,0.0,2.8156839999999996,2
1729403447.03346,2658,1729403446,831788992,base_link,0,1,33.6978692,73.0165613,513.7201573932325,0.933156,0.0,0.0,0.0,0.933156,0.0,0.0,0.0,2.8156839999999996,2
1729403447.136305,2659,1729403447,31782080,base_link,0,1,33.6978692,73.0165614,513.7201578206412,0.935089,0.0,0.0,0.0,0.935089,0.0,0.0,0.0,2.8156839999999996,2
1729403447.2321124,2660,1729403447,31780032,base_link,0,1,33.6978692,73.0165614,513.7201578206412,0.935089,0.0,0.0,0.0,0.935089,0.0,0.0,0.0,2.8156839999999996,2
1729403447.3341188,2661,1729403447,231773632,base_link,0,1,33.6978692,73.0165615,513.72015824805,0.935089,0.0,0.0,0.0,0.935089,0.0,0.0,0.0,2.8190410000000004,2
1729403447.433789,2662,1729403447,231767488,base_link,0,1,33.6978692,73.0165615,513.72015824805,0.935089,0.0,0.0,0.0,0.935089,0.0,0.0,0.0,2.8190410000000004,2
1729403447.5344062,2663,1729403447,431760832,base_link,0,1,33.6978691,73.0165615,513.72015758163,0.935089,0.0,0.0,0.0,0.935089,0.0,0.0,0.0,2.8190410000000004,2
1729403447.6353142,2664,1729403447,431754688,base_link,0,1,33.6978691,73.0165615,513.72015758163,0.935089,0.0,0.0,0.0,0.935089,0.0,0.0,0.0,2.8190410000000004,2
1729403447.7354925,2665,1729403447,631750080,base_link,0,1,33.6978691,73.0165615,513.71015758163,0.937024,0.0,0.0,0.0,0.937024,0.0,0.0,0.0,2.8223999999999996,2
