Time,header.seq,header.stamp.secs,header.stamp.nsecs,header.frame_id,orientation.x,orientation.y,orientation.z,orientation.w,orientation_covariance_0,orientation_covariance_1,orientation_covariance_2,orientation_covariance_3,orientation_covariance_4,orientation_covariance_5,orientation_covariance_6,orientation_covariance_7,orientation_covariance_8,angular_velocity.x,angular_velocity.y,angular_velocity.z,angular_velocity_covariance_0,angular_velocity_covariance_1,angular_velocity_covariance_2,angular_velocity_covariance_3,angular_velocity_covariance_4,angular_velocity_covariance_5,angular_velocity_covariance_6,angular_velocity_covariance_7,angular_velocity_covariance_8,linear_acceleration.x,linear_acceleration.y,linear_acceleration.z,linear_acceleration_covariance_0,linear_acceleration_covariance_1,linear_acceleration_covariance_2,linear_acceleration_covariance_3,linear_acceleration_covariance_4,linear_acceleration_covariance_5,linear_acceleration_covariance_6,linear_acceleration_covariance_7,linear_acceleration_covariance_8
1729403412.219927,2308,1729403412,24579968,base_link,-0.039097245506112016,0.018165682450067194,-0.35831090507008334,-0.932606406091453,1.0,0.0,0.0,0.0,1.0,0.0,0.0,0.0,1.0,-0.0010342919267714024,0.0008656465797685088,0.0007047448307275771,1.2184696791468346e-07,0.0,0.0,0.0,1.2184696791468346e-07,0.0,0.0,0.0,1.2184696791468346e-07,0.2549729,0.9218251000000013,9.8654899,8.999999999999999e-08,0.0,0.0,0.0,8.999999999999999e-08,0.0,0.0,0.0,8.999999999999999e-08
1729403412.220291,2309,1729403412,124574592,base_link,-0.039089822299160366,0.018192331622598985,-0.3583070915405557,-0.9326076629614948,1.0,0.0,0.0,0.0,1.0,0.0,0.0,0.0,1.0,-0.0012175767915323377,-0.0009957168949767947,0.00029765762155875574,1.2184696791468346e-07,0.0,0.0,0.0,1.2184696791468346e-07,0.0,0.0,0.0,1.2184696791468346e-07,0.26477955,0.9218251000000013,9.87529655,8.999999999999999e-08,0.0,0.0,0.0,8.999999999999999e-08,0.0,0.0,0.0,8.999999999999999e-08
1729403412.2264166,2310,1729403412,224569216,base_link,-0.03908393902347966,0.018213071487711688,-0.35831707043226596,-0.9326036707917416,1.0,0.0,0.0,0.0,1.0,0.0,0.0,0.0,1.0,-0.00015192989667411894,-3.515863500069825e-05,0.0001732184027787298,1.2184696791468346e-07,0.0,0.0,0.0,1.2184696791468346e-07,0.0,0.0,0.0,1.2184696791468346e-07,0.26477955,0.9316317500000013,9.87529655,8.999999999999999e-08,0.0,0.0,0.0,8.999999999999999e-08,0.0,0.0,0.0,8.999999999999999e-08
1729403412.327305,2311,1729403412,324563840,base_link,-0.03904711130023393,0.018206988441789917,-0.35832266688378533,-0.9326031819955791,1.0,0.0,0.0,0.0,1.0,0.0,0.0,0.0,1.0,0.0015585606452077627,-0.00043719937093555927,-5.5175136367324685e-05,1.2184696791468346e-07,0.0,0.0,0.0,1.2184696791468346e-07,0.0,0.0,0.0,1.2184696791468346e-07,0.26477955,0.9218251000000013,9.8851032,8.999999999999999e-08,0.0,0.0,0.0,8.999999999999999e-08,0.0,0.0,0.0,8.999999999999999e-08
1729403412.425934,2312,1729403412,424559232,base_link,-0.039033125570904735,0.01817680437301784,-0.3583122256411849,-0.9326083678838677,1.0,0.0,0.0,0.0,1.0,0.0,0.0,0.0,1.0,-0.00023084209533408284,0.0010704479645937681,0.00038699444849044074,1.2184696791468346e-07,0.0,0.0,0.0,1.2184696791468346e-07,0.0,0.0,0.0,1.2184696791468346e-07,0.28439285000000003,0.9120184500000013,9.87529655,8.999999999999999e-08,0.0,0.0,0.0,8.999999999999999e-08,0.0,0.0,0.0,8.999999999999999e-08
1729403412.525966,2313,1729403412,524556416,base_link,-0.03907634291460099,0.01816283332024069,-0.3583033092782171,-0.9326102559324985,1.0,0.0,0.0,0.0,1.0,0.0,0.0,0.0,1.0,0.0016791997477412224,0.000249216245720163,-0.00019685173174366358,1.2184696791468346e-07,0.0,0.0,0.0,1.2184696791468346e-07,0.0,0.0,0.0,1.2184696791468346e-07,0.2549729,0.9022118000000012,9.85568325,8.999999999999999e-08,0.0,0.0,0.0,8.999999999999999e-08,0.0,0.0,0.0,8.999999999999999e-08
1729403412.6258857,2314,1729403412,624551040,base_link,-0.03915028177872635,0.018136423325919738,-0.35828450620807334,-0.9326148927595068,1.0,0.0,0.0,0.0,1.0,0.0,0.0,0.0,1.0,9.71405825112015e-05,0.0010255915112793446,0.00016060781490523355,1.2184696791468346e-07,0.0,0.0,0.0,1.2184696791468346e-07,0.0,0.0,0.0,1.2184696791468346e-07,0.2549729,0.9218251000000013,9.87529655,8.999999999999999e-08,0.0,0.0,0.0,8.999999999999999e-08,0.0,0.0,0.0,8.999999999999999e-08
1729403412.7259622,2315,1729403412,724546688,base_link,-0.03919594896030582,0.018124419623019073,-0.3582804158185578,-0.9326147793378095,1.0,0.0,0.0,0.0,1.0,0.0,0.0,0.0,1.0,-0.0004894948797300458,0.0007469163974747062,-6.351046613417575e-05,1.2184696791468346e-07,0.0,0.0,0.0,1.2184696791468346e-07,0.0,0.0,0.0,1.2184696791468346e-07,0.24516625,0.9120184500000013,9.8654899,8.999999999999999e-08,0.0,0.0,0.0,8.999999999999999e-08,0.0,0.0,0.0,8.999999999999999e-08
1729403412.8259628,2316,1729403412,824543616,base_link,-0.039222620336646495,0.018155690531790704,-0.35831203770253467,-0.9326009010250302,1.0,0.0,0.0,0.0,1.0,0.0,0.0,0.0,1.0,-0.0001476399484090507,0.0009279147488996385,-0.0004702062869910152,1.2184696791468346e-07,0.0,0.0,0.0,1.2184696791468346e-07,0.0,0.0,0.0,1.2184696791468346e-07,0.26477955,0.9218251000000013,9.8654899,8.999999999999999e-08,0.0,0.0,0.0,8.999999999999999e-08,0.0,0.0,0.0,8.999999999999999e-08
1729403412.9269433,2317,1729403412,924539520,base_link,-0.03923380978349131,0.018164297488117487,-0.35832482834652185,-0.9325953483998682,1.0,0.0,0.0,0.0,1.0,0.0,0.0,0.0,1.0,0.0005732076824642718,0.00038673155358992506,-0.0007249063928611577,1.2184696791468346e-07,0.0,0.0,0.0,1.2184696791468346e-07,0.0,0.0,0.0,1.2184696791468346e-07,0.2549729,0.9316317500000013,9.87529655,8.999999999999999e-08,0.0,0.0,0.0,8.999999999999999e-08,0.0,0.0,0.0,8.999999999999999e-08
1729403413.026352,2318,1729403413,24531584,base_link,-0.039234578470342625,0.018165252243541815,-0.35834058536486785,-0.9325892430987754,1.0,0.0,0.0,0.0,1.0,0.0,0.0,0.0,1.0,-0.0010205056751146913,0.0012542416807264087,-0.00108106154948473,1.2184696791468346e-07,0.0,0.0,0.0,1.2184696791468346e-07,0.0,0.0,0.0,1.2184696791468346e-07,0.24516625,0.9120184500000013,9.89490985,8.999999999999999e-08,0.0,0.0,0.0,8.999999999999999e-08,0.0,0.0,0.0,8.999999999999999e-08
1729403413.126486,2319,1729403413,124526464,base_link,-0.03924263691011256,0.018190344029508497,-0.3583569329279504,-0.9325821333560393,1.0,0.0,0.0,0.0,1.0,0.0,0.0,0.0,1.0,-0.0007667628233321011,0.0008970739436335862,0.0002818636130541562,1.2184696791468346e-07,0.0,0.0,0.0,1.2184696791468346e-07,0.0,0.0,0.0,1.2184696791468346e-07,0.26477955,0.9316317500000013,9.85568325,8.999999999999999e-08,0.0,0.0,0.0,8.999999999999999e-08,0.0,0.0,0.0,8.999999999999999e-08
1729403413.2266238,2320,1729403413,224524160,base_link,-0.03925342153064239,0.01821104668014316,-0.3583652422981229,-0.9325780824089527,1.0,0.0,0.0,0.0,1.0,0.0,0.0,0.0,1.0,0.00027348549338057637,-0.0006618240149691701,-9.553309064358465e-05,1.2184696791468346e-07,0.0,0.0,0.0,1.2184696791468346e-07,0.0,0.0,0.0,1.2184696791468346e-07,0.24516625,0.9120184500000013,9.8654899,8.999999999999999e-08,0.0,0.0,0.0,8.999999999999999e-08,0.0,0.0,0.0,8.999999999999999e-08
1729403413.3265488,2321,1729403413,324519040,base_link,-0.039246513976428185,0.018244051090141614,-0.3583776759563184,-0.9325729500241073,1.0,0.0,0.0,0.0,1.0,0.0,0.0,0.0,1.0,-0.0007648389437235892,0.0006277337670326232,-0.0012237251503393054,1.2184696791468346e-07,0.0,0.0,0.0,1.2184696791468346e-07,0.0,0.0,0.0,1.2184696791468346e-07,0.2549729,0.9316317500000013,9.85568325,8.999999999999999e-08,0.0,0.0,0.0,8.999999999999999e-08,0.0,0.0,0.0,8.999999999999999e-08
1729403413.4263349,2322,1729403413,424516480,base_link,-0.039241554833596676,0.018270987280974114,-0.35838170373686123,-0.9325710835237628,1.0,0.0,0.0,0.0,1.0,0.0,0.0,0.0,1.0,-2.5278699467889965e-05,0.00021433965594042093,6.147478416096393e-06,1.2184696791468346e-07,0.0,0.0,0.0,1.2184696791468346e-07,0.0,0.0,0.0,1.2184696791468346e-07,0.2549729,0.9120184500000013,9.87529655,8.999999999999999e-08,0.0,0.0,0.0,8.999999999999999e-08,0.0,0.0,0.0,8.999999999999999e-08
1729403413.526209,2323,1729403413,524511360,base_link,-0.03923424692554949,0.018299193810793785,-0.3583899955287814,-0.9325676514221048,1.0,0.0,0.0,0.0,1.0,0.0,0.0,0.0,1.0,0.0006056392448954284,0.00036884803557768475,0.0009847022593021393,1.2184696791468346e-07,0.0,0.0,0.0,1.2184696791468346e-07,0.0,0.0,0.0,1.2184696791468346e-07,0.26477955,0.9120184500000013,9.8654899,8.999999999999999e-08,0.0,0.0,0.0,8.999999999999999e-08,0.0,0.0,0.0,8.999999999999999e-08
1729403413.6264126,2324,1729403413,624506752,base_link,-0.03922563863702035,0.01831314364298505,-0.3583913149996669,-0.9325672326305694,1.0,0.0,0.0,0.0,1.0,0.0,0.0,0.0,1.0,0.00033318670466542244,0.0007691441569477321,0.0007975405897013842,1.2184696791468346e-07,0.0,0.0,0.0,1.2184696791468346e-07,0.0,0.0,0.0,1.2184696791468346e-07,0.26477955,0.9218251000000013,9.87529655,8.999999999999999e-08,0.0,0.0,0.0,8.999999999999999e-08,0.0,0.0,0.0,8.999999999999999e-08
1729403413.7273533,2325,1729403413,724503424,base_link,-0.039255042957568584,0.01831220627777378,-0.35840202120565573,-0.9325618992320781,1.0,0.0,0.0,0.0,1.0,0.0,0.0,0.0,1.0,-0.0008226534118875861,-0.00048580419388599683,0.0009284231928177179,1.2184696791468346e-07,0.0,0.0,0.0,1.2184696791468346e-07,0.0,0.0,0.0,1.2184696791468346e-07,0.26477955,0.9120184500000013,9.8654899,8.999999999999999e-08,0.0,0.0,0.0,8.999999999999999e-08,0.0,0.0,0.0,8.999999999999999e-08
1729403413.8263044,2326,1729403413,824499840,base_link,-0.039294992374052554,0.01828403369925645,-0.35841260672383435,-0.9325567012398943,1.0,0.0,0.0,0.0,1.0,0.0,0.0,0.0,1.0,0.0002317122562089935,3.470852971076972e-05,0.0005599995492957532,1.2184696791468346e-07,0.0,0.0,0.0,1.2184696791468346e-07,0.0,0.0,0.0,1.2184696791468346e-07,0.2549729,0.9218251000000013,9.85568325,8.999999999999999e-08,0.0,0.0,0.0,8.999999999999999e-08,0.0,0.0,0.0,8.999999999999999e-08
1729403413.928599,2327,1729403413,924496512,base_link,-0.039355183476736465,0.018250619697929158,-0.35842586148582567,-0.9325497231956577,1.0,0.0,0.0,0.0,1.0,0.0,0.0,0.0,1.0,0.0006881221779622138,-0.0002659983583725989,-8.49707284942269e-05,1.2184696791468346e-07,0.0,0.0,0.0,1.2184696791468346e-07,0.0,0.0,0.0,1.2184696791468346e-07,0.26477955,0.9316317500000013,9.89490985,8.999999999999999e-08,0.0,0.0,0.0,8.999999999999999e-08,0.0,0.0,0.0,8.999999999999999e-08
1729403414.0281203,2328,1729403414,24492928,base_link,-0.03943978007722318,0.018215230194145438,-0.35843407462086413,-0.9325436843854122,1.0,0.0,0.0,0.0,1.0,0.0,0.0,0.0,1.0,3.1633651815354824e-05,0.00028595438925549377,-0.0009140205220319331,1.2184696791468346e-07,0.0,0.0,0.0,1.2184696791468346e-07,0.0,0.0,0.0,1.2184696791468346e-07,0.26477955,0.9120184500000013,9.8654899,8.999999999999999e-08,0.0,0.0,0.0,8.999999999999999e-08,0.0,0.0,0.0,8.999999999999999e-08
1729403414.1265166,2329,1729403414,124489088,base_link,-0.03947657605231235,0.018210013388351234,-0.3584318214470137,-0.9325430953740197,1.0,0.0,0.0,0.0,1.0,0.0,0.0,0.0,1.0,-0.00046888229553587735,0.00026849814457818866,-7.766608905512842e-05,1.2184696791468346e-07,0.0,0.0,0.0,1.2184696791468346e-07,0.0,0.0,0.0,1.2184696791468346e-07,0.2549729,0.9022118000000012,9.87529655,8.999999999999999e-08,0.0,0.0,0.0,8.999999999999999e-08,0.0,0.0,0.0,8.999999999999999e-08
1729403414.22981,2330,1729403414,224485760,base_link,-0.039471863306718306,0.018203273626643368,-0.3584406518496567,-0.9325400323514066,1.0,0.0,0.0,0.0,1.0,0.0,0.0,0.0,1.0,-0.001184744294732809,-0.00033478118712082494,0.0010094953468069434,1.2184696791468346e-07,0.0,0.0,0.0,1.2184696791468346e-07,0.0,0.0,0.0,1.2184696791468346e-07,0.2549729,0.9218251000000013,9.8654899,8.999999999999999e-08,0.0,0.0,0.0,8.999999999999999e-08,0.0,0.0,0.0,8.999999999999999e-08
1729403414.3273234,2331,1729403414,324482176,base_link,-0.03944255580922319,0.01819087845416452,-0.35844368899021545,-0.9325403468780253,1.0,0.0,0.0,0.0,1.0,0.0,0.0,0.0,1.0,0.00020525629224721342,0.00029181397985666985,-0.0002709557302296162,1.2184696791468346e-07,0.0,0.0,0.0,1.2184696791468346e-07,0.0,0.0,0.0,1.2184696791468346e-07,0.2549729,0.9218251000000013,9.8851032,8.999999999999999e-08,0.0,0.0,0.0,8.999999999999999e-08,0.0,0.0,0.0,8.999999999999999e-08
1729403414.426454,2332,1729403414,424478848,base_link,-0.03942126365122598,0.01818367872426502,-0.3584604125386666,-0.932534959367638,1.0,0.0,0.0,0.0,1.0,0.0,0.0,0.0,1.0,0.0004019404877908528,-0.00038974225753918296,-0.0004226773744449019,1.2184696791468346e-07,0.0,0.0,0.0,1.2184696791468346e-07,0.0,0.0,0.0,1.2184696791468346e-07,0.2745862,0.9022118000000012,9.8654899,8.999999999999999e-08,0.0,0.0,0.0,8.999999999999999e-08,0.0,0.0,0.0,8.999999999999999e-08
1729403414.526575,2333,1729403414,524475776,base_link,-0.03938368168624469,0.018163757321581715,-0.3584767768903115,-0.9325306450552351,1.0,0.0,0.0,0.0,1.0,0.0,0.0,0.0,1.0,-0.0004149886080995202,-0.0004124654224142431,0.0007096991175785661,1.2184696791468346e-07,0.0,0.0,0.0,1.2184696791468346e-07,0.0,0.0,0.0,1.2184696791468346e-07,0.24516625,0.9120184500000013,9.8654899,8.999999999999999e-08,0.0,0.0,0.0,8.999999999999999e-08,0.0,0.0,0.0,8.999999999999999e-08
1729403414.6264431,2334,1729403414,624472704,base_link,-0.03937454657298703,0.018135334077114422,-0.35848996714397785,-0.9325265134017331,1.0,0.0,0.0,0.0,1.0,0.0,0.0,0.0,1.0,0.0009068181971088052,0.0007933009765110911,0.0008195923874154686,1.2184696791468346e-07,0.0,0.0,0.0,1.2184696791468346e-07,0.0,0.0,0.0,1.2184696791468346e-07,0.2549729,0.9316317500000013,9.87529655,8.999999999999999e-08,0.0,0.0,0.0,8.999999999999999e-08,0.0,0.0,0.0,8.999999999999999e-08
1729403414.728474,2335,1729403414,724468608,base_link,-0.0393785554881852,0.018152170774732884,-0.3585188442201551,-0.9325149148420486,1.0,0.0,0.0,0.0,1.0,0.0,0.0,0.0,1.0,-0.0007828973466530442,0.0006355506484396756,0.000306974776322022,1.2184696791468346e-07,0.0,0.0,0.0,1.2184696791468346e-07,0.0,0.0,0.0,1.2184696791468346e-07,0.2549729,0.9120184500000013,9.83606995,8.999999999999999e-08,0.0,0.0,0.0,8.999999999999999e-08,0.0,0.0,0.0,8.999999999999999e-08
1729403414.8265378,2336,1729403414,824464512,base_link,-0.03938246997285239,0.01816203120601681,-0.3585309227623879,-0.9325099136762351,1.0,0.0,0.0,0.0,1.0,0.0,0.0,0.0,1.0,-0.0009444222669117153,-0.0003883078170474618,0.00042146869236603385,1.2184696791468346e-07,0.0,0.0,0.0,1.2184696791468346e-07,0.0,0.0,0.0,1.2184696791468346e-07,0.26477955,0.9120184500000013,9.83606995,8.999999999999999e-08,0.0,0.0,0.0,8.999999999999999e-08,0.0,0.0,0.0,8.999999999999999e-08
1729403414.927161,2337,1729403414,924463232,base_link,-0.03938512468293737,0.018163095627949336,-0.3585378305701507,-0.9325071248848286,1.0,0.0,0.0,0.0,1.0,0.0,0.0,0.0,1.0,-0.00023786335077602416,0.0007745213806629182,0.0009861523285508156,1.2184696791468346e-07,0.0,0.0,0.0,1.2184696791468346e-07,0.0,0.0,0.0,1.2184696791468346e-07,0.26477955,0.9218251000000013,9.87529655,8.999999999999999e-08,0.0,0.0,0.0,8.999999999999999e-08,0.0,0.0,0.0,8.999999999999999e-08
1729403415.0283408,2338,1729403415,24458880,base_link,-0.039376350950080664,0.018177086222873867,-0.3585454305517865,-0.9325043006617914,1.0,0.0,0.0,0.0,1.0,0.0,0.0,0.0,1.0,0.00018093865946866572,0.0012952197575941682,0.00038457184564322217,1.2184696791468346e-07,0.0,0.0,0.0,1.2184696791468346e-07,0.0,0.0,0.0,1.2184696791468346e-07,0.2549729,0.9218251000000013,9.85568325,8.999999999999999e-08,0.0,0.0,0.0,8.999999999999999e-08,0.0,0.0,0.0,8.999999999999999e-08
1729403415.1294708,2339,1729403415,124454784,base_link,-0.039373785654006156,0.01814695799815456,-0.3585717343363195,-0.9324948816233415,1.0,0.0,0.0,0.0,1.0,0.0,0.0,0.0,1.0,0.0009445428149774671,-0.00017045853019226342,1.20147888083013e-06,1.2184696791468346e-07,0.0,0.0,0.0,1.2184696791468346e-07,0.0,0.0,0.0,1.2184696791468346e-07,0.24516625,0.9316317500000013,9.85568325,8.999999999999999e-08,0.0,0.0,0.0,8.999999999999999e-08,0.0,0.0,0.0,8.999999999999999e-08
1729403415.2289405,2340,1729403415,224453504,base_link,-0.03941138434632276,0.018101338079572055,-0.3585962323889268,-0.9324847593714884,1.0,0.0,0.0,0.0,1.0,0.0,0.0,0.0,1.0,0.0002206246426794678,0.0004211649938952178,0.00020098326785955573,1.2184696791468346e-07,0.0,0.0,0.0,1.2184696791468346e-07,0.0,0.0,0.0,1.2184696791468346e-07,0.2353596,0.9120184500000013,9.8851032,8.999999999999999e-08,0.0,0.0,0.0,8.999999999999999e-08,0.0,0.0,0.0,8.999999999999999e-08
1729403415.3311791,2341,1729403415,324449408,base_link,-0.03943465309220461,0.018092423315862,-0.3586048820429876,-0.9324806222806948,1.0,0.0,0.0,0.0,1.0,0.0,0.0,0.0,1.0,0.0007140840752981603,0.00015385939332190885,-0.001242165919393301,1.2184696791468346e-07,0.0,0.0,0.0,1.2184696791468346e-07,0.0,0.0,0.0,1.2184696791468346e-07,0.26477955,0.9120184500000013,9.85568325,8.999999999999999e-08,0.0,0.0,0.0,8.999999999999999e-08,0.0,0.0,0.0,8.999999999999999e-08
1729403415.4293802,2342,1729403415,424445568,base_link,-0.03944988770418898,0.018078421094743245,-0.35859929114068323,-0.9324823995359093,1.0,0.0,0.0,0.0,1.0,0.0,0.0,0.0,1.0,0.0006708895089104772,0.0011334790615364907,-0.0010324481409043076,1.2184696791468346e-07,0.0,0.0,0.0,1.2184696791468346e-07,0.0,0.0,0.0,1.2184696791468346e-07,0.2549729,0.9316317500000013,9.8654899,8.999999999999999e-08,0.0,0.0,0.0,8.999999999999999e-08,0.0,0.0,0.0,8.999999999999999e-08
1729403415.5269723,2343,1729403415,524442752,base_link,-0.039480688913977054,0.01808752455982695,-0.35858625175677783,-0.9324859337862423,1.0,0.0,0.0,0.0,1.0,0.0,0.0,0.0,1.0,0.0020044187549501657,-0.0009402535506524145,0.0008430519956164063,1.2184696791468346e-07,0.0,0.0,0.0,1.2184696791468346e-07,0.0,0.0,0.0,1.2184696791468346e-07,0.26477955,0.9120184500000013,9.83606995,8.999999999999999e-08,0.0,0.0,0.0,8.999999999999999e-08,0.0,0.0,0.0,8.999999999999999e-08
1729403415.626654,2344,1729403415,624437376,base_link,-0.03949421621322303,0.01808914886096613,-0.3585780766557433,-0.9324884731303956,1.0,0.0,0.0,0.0,1.0,0.0,0.0,0.0,1.0,-0.0001965556584764272,0.00021937376004643738,-8.290298865177006e-07,1.2184696791468346e-07,0.0,0.0,0.0,1.2184696791468346e-07,0.0,0.0,0.0,1.2184696791468346e-07,0.26477955,0.9120184500000013,9.91452315,8.999999999999999e-08,0.0,0.0,0.0,8.999999999999999e-08,0.0,0.0,0.0,8.999999999999999e-08
1729403415.7278695,2345,1729403415,724432256,base_link,-0.039508523397882245,0.018102061091864942,-0.3585732246278258,-0.9324894822694507,1.0,0.0,0.0,0.0,1.0,0.0,0.0,0.0,1.0,0.0008214782574214041,9.831693023443217e-05,-0.00039166666101664305,1.2184696791468346e-07,0.0,0.0,0.0,1.2184696791468346e-07,0.0,0.0,0.0,1.2184696791468346e-07,0.2549729,0.9316317500000013,9.85568325,8.999999999999999e-08,0.0,0.0,0.0,8.999999999999999e-08,0.0,0.0,0.0,8.999999999999999e-08
1729403415.8268487,2346,1729403415,824427904,base_link,-0.039500229457850894,0.018128378495579453,-0.3585873758586049,-0.9324838806331923,1.0,0.0,0.0,0.0,1.0,0.0,0.0,0.0,1.0,-0.0007192419725470245,-0.00020024461264256372,0.0014146349858492613,1.2184696791468346e-07,0.0,0.0,0.0,1.2184696791468346e-07,0.0,0.0,0.0,1.2184696791468346e-07,0.26477955,0.9218251000000013,9.87529655,8.999999999999999e-08,0.0,0.0,0.0,8.999999999999999e-08,0.0,0.0,0.0,8.999999999999999e-08
1729403415.9266286,2347,1729403415,924423296,base_link,-0.03951034721795784,0.018128771635127817,-0.35860231420208954,-0.9324776996532536,1.0,0.0,0.0,0.0,1.0,0.0,0.0,0.0,1.0,0.0007291497313417494,0.00032771890982985497,0.00017836398910731074,1.2184696791468346e-07,0.0,0.0,0.0,1.2184696791468346e-07,0.0,0.0,0.0,1.2184696791468346e-07,0.2549729,0.9218251000000013,9.87529655,8.999999999999999e-08,0.0,0.0,0.0,8.999999999999999e-08,0.0,0.0,0.0,8.999999999999999e-08
1729403416.026689,2348,1729403416,24417920,base_link,-0.03953219876273471,0.018120628390549814,-0.3586174417067482,-0.9324711140788341,1.0,0.0,0.0,0.0,1.0,0.0,0.0,0.0,1.0,0.002424173755571246,-0.0005578264244832098,2.7344023692421683e-05,1.2184696791468346e-07,0.0,0.0,0.0,1.2184696791468346e-07,0.0,0.0,0.0,1.2184696791468346e-07,0.26477955,0.9218251000000013,9.85568325,8.999999999999999e-08,0.0,0.0,0.0,8.999999999999999e-08,0.0,0.0,0.0,8.999999999999999e-08
1729403416.126653,2349,1729403416,124413824,base_link,-0.03955476435533812,0.018114226617112802,-0.358626349918665,-0.9324668554725538,1.0,0.0,0.0,0.0,1.0,0.0,0.0,0.0,1.0,9.57822339842096e-05,0.00028812064556404954,0.0003012069500982761,1.2184696791468346e-07,0.0,0.0,0.0,1.2184696791468346e-07,0.0,0.0,0.0,1.2184696791468346e-07,0.2549729,0.9120184500000013,9.8851032,8.999999999999999e-08,0.0,0.0,0.0,8.999999999999999e-08,0.0,0.0,0.0,8.999999999999999e-08
1729403416.2269573,2350,1729403416,224413824,base_link,-0.03955507086565655,0.01810442755608912,-0.3586571628176272,-0.9324551815670763,1.0,0.0,0.0,0.0,1.0,0.0,0.0,0.0,1.0,5.263898492557928e-05,-0.00027107537607662374,0.0005842047394253314,1.2184696791468346e-07,0.0,0.0,0.0,1.2184696791468346e-07,0.0,0.0,0.0,1.2184696791468346e-07,0.26477955,0.9120184500000013,9.87529655,8.999999999999999e-08,0.0,0.0,0.0,8.999999999999999e-08,0.0,0.0,0.0,8.999999999999999e-08
1729403416.3281014,2351,1729403416,324409728,base_link,-0.03954537884821948,0.01809245803419089,-0.35867366219054275,-0.9324494785375004,1.0,0.0,0.0,0.0,1.0,0.0,0.0,0.0,1.0,-0.00012678677740041167,0.0004484841774683447,0.0007996378699317573,1.2184696791468346e-07,0.0,0.0,0.0,1.2184696791468346e-07,0.0,0.0,0.0,1.2184696791468346e-07,0.26477955,0.9316317500000013,9.85568325,8.999999999999999e-08,0.0,0.0,0.0,8.999999999999999e-08,0.0,0.0,0.0,8.999999999999999e-08
1729403416.4268408,2352,1729403416,424405888,base_link,-0.039514644432797376,0.018060820916976295,-0.35867328397428333,-0.9324515402884259,1.0,0.0,0.0,0.0,1.0,0.0,0.0,0.0,1.0,-0.00037164916284382343,0.00030268169939517975,-9.623828373150904e-05,1.2184696791468346e-07,0.0,0.0,0.0,1.2184696791468346e-07,0.0,0.0,0.0,1.2184696791468346e-07,0.2549729,0.9316317500000013,9.8654899,8.999999999999999e-08,0.0,0.0,0.0,8.999999999999999e-08,0.0,0.0,0.0,8.999999999999999e-08
1729403416.5257282,2353,1729403416,524401024,base_link,-0.039461592834404334,0.01807756989054431,-0.35870084220826487,-0.9324428614971029,1.0,0.0,0.0,0.0,1.0,0.0,0.0,0.0,1.0,9.044332546181977e-05,-0.0004398573655635118,0.0005919008399359882,1.2184696791468346e-07,0.0,0.0,0.0,1.2184696791468346e-07,0.0,0.0,0.0,1.2184696791468346e-07,0.2549729,0.9218251000000013,9.87529655,8.999999999999999e-08,0.0,0.0,0.0,8.999999999999999e-08,0.0,0.0,0.0,8.999999999999999e-08
1729403416.6258743,2354,1729403416,624397440,base_link,-0.039419610954492736,0.018101270408885352,-0.3587187181734929,-0.9324373005804449,1.0,0.0,0.0,0.0,1.0,0.0,0.0,0.0,1.0,-0.00012715757475234568,-1.919042915687897e-05,-5.079824404674582e-05,1.2184696791468346e-07,0.0,0.0,0.0,1.2184696791468346e-07,0.0,0.0,0.0,1.2184696791468346e-07,0.24516625,0.9316317500000013,9.87529655,8.999999999999999e-08,0.0,0.0,0.0,8.999999999999999e-08,0.0,0.0,0.0,8.999999999999999e-08
1729403416.727094,2355,1729403416,724394112,base_link,-0.03939567348455206,0.018110889711207334,-0.358724231610784,-0.9324360043669591,1.0,0.0,0.0,0.0,1.0,0.0,0.0,0.0,1.0,-0.00019792304374277592,-0.000344293046509847,0.0002736508613452316,1.2184696791468346e-07,0.0,0.0,0.0,1.2184696791468346e-07,0.0,0.0,0.0,1.2184696791468346e-07,0.26477955,0.9120184500000013,9.8458766,8.999999999999999e-08,0.0,0.0,0.0,8.999999999999999e-08,0.0,0.0,0.0,8.999999999999999e-08
1729403416.8258562,2356,1729403416,824390016,base_link,-0.039391806816022036,0.01812411391934504,-0.3587349112504559,-0.9324318020641162,1.0,0.0,0.0,0.0,1.0,0.0,0.0,0.0,1.0,-0.00022355715918820351,-0.00036092006484977896,0.000447567756054923,1.2184696791468346e-07,0.0,0.0,0.0,1.2184696791468346e-07,0.0,0.0,0.0,1.2184696791468346e-07,0.26477955,0.9218251000000013,9.9047165,8.999999999999999e-08,0.0,0.0,0.0,8.999999999999999e-08,0.0,0.0,0.0,8.999999999999999e-08
1729403416.9272811,2357,1729403416,924385152,base_link,-0.03939497066535266,0.018114475126110273,-0.3587679590208361,-0.9324191405463559,1.0,0.0,0.0,0.0,1.0,0.0,0.0,0.0,1.0,-0.0008185468032024801,-0.00024887415929697443,0.0010476908646523952,1.2184696791468346e-07,0.0,0.0,0.0,1.2184696791468346e-07,0.0,0.0,0.0,1.2184696791468346e-07,0.26477955,0.9120184500000013,9.87529655,8.999999999999999e-08,0.0,0.0,0.0,8.999999999999999e-08,0.0,0.0,0.0,8.999999999999999e-08
1729403417.0259798,2358,1729403417,24377216,base_link,-0.03940910216780125,0.018100009748556647,-0.35876200610840286,-0.9324211147794242,1.0,0.0,0.0,0.0,1.0,0.0,0.0,0.0,1.0,0.0011628610081970692,-0.00015544108464382586,0.0002975615207105875,1.2184696791468346e-07,0.0,0.0,0.0,1.2184696791468346e-07,0.0,0.0,0.0,1.2184696791468346e-07,0.26477955,0.9218251000000013,9.8654899,8.999999999999999e-08,0.0,0.0,0.0,8.999999999999999e-08,0.0,0.0,0.0,8.999999999999999e-08
1729403417.1260333,2359,1729403417,124372608,base_link,-0.03941700077042765,0.018081200432297787,-0.35876425880426255,-0.9324202790833217,1.0,0.0,0.0,0.0,1.0,0.0,0.0,0.0,1.0,-7.55818618927151e-05,0.001265346771106124,-0.00031361472792923467,1.2184696791468346e-07,0.0,0.0,0.0,1.2184696791468346e-07,0.0,0.0,0.0,1.2184696791468346e-07,0.2745862,0.9316317500000013,9.8851032,8.999999999999999e-08,0.0,0.0,0.0,8.999999999999999e-08,0.0,0.0,0.0,8.999999999999999e-08
1729403417.2335017,2360,1729403417,224368000,base_link,-0.039421163168900465,0.018053852767498747,-0.3587697325457641,-0.9324185268985711,1.0,0.0,0.0,0.0,1.0,0.0,0.0,0.0,1.0,-0.0007273444789461792,0.00010620715329423555,0.0006263387040235102,1.2184696791468346e-07,0.0,0.0,0.0,1.2184696791468346e-07,0.0,0.0,0.0,1.2184696791468346e-07,0.26477955,0.9120184500000013,9.87529655,8.999999999999999e-08,0.0,0.0,0.0,8.999999999999999e-08,0.0,0.0,0.0,8.999999999999999e-08
1729403417.326821,2361,1729403417,324361856,base_link,-0.03944739605250798,0.018053616892305793,-0.3587938433488464,-0.9324081444500288,1.0,0.0,0.0,0.0,1.0,0.0,0.0,0.0,1.0,0.0005882208934053779,-0.00011892523616552349,0.00036748789716511965,1.2184696791468346e-07,0.0,0.0,0.0,1.2184696791468346e-07,0.0,0.0,0.0,1.2184696791468346e-07,0.2549729,0.9316317500000013,9.85568325,8.999999999999999e-08,0.0,0.0,0.0,8.999999999999999e-08,0.0,0.0,0.0,8.999999999999999e-08
1729403417.428227,2362,1729403417,424358272,base_link,-0.03946512776128276,0.01805918249949945,-0.35880789406654384,-0.9324018794349178,1.0,0.0,0.0,0.0,1.0,0.0,0.0,0.0,1.0,-0.0002046585432253778,2.83580811810677e-05,-0.0022467034868896008,1.2184696791468346e-07,0.0,0.0,0.0,1.2184696791468346e-07,0.0,0.0,0.0,1.2184696791468346e-07,0.2745862,0.9218251000000013,9.8851032,8.999999999999999e-08,0.0,0.0,0.0,8.999999999999999e-08,0.0,0.0,0.0,8.999999999999999e-08
1729403417.5268776,2363,1729403417,524353920,base_link,-0.03947985369714503,0.018056390803610406,-0.3588333538564289,-0.9323915122218489,1.0,0.0,0.0,0.0,1.0,0.0,0.0,0.0,1.0,-0.000500932103022933,-0.00034844694891944533,-0.0004761781892739236,1.2184696791468346e-07,0.0,0.0,0.0,1.2184696791468346e-07,0.0,0.0,0.0,1.2184696791468346e-07,0.2745862,0.9022118000000012,9.8458766,8.999999999999999e-08,0.0,0.0,0.0,8.999999999999999e-08,0.0,0.0,0.0,8.999999999999999e-08
1729403417.62664,2364,1729403417,624349056,base_link,-0.039497421188178984,0.018055258196165637,-0.35883108100682454,-0.9323916648460704,1.0,0.0,0.0,0.0,1.0,0.0,0.0,0.0,1.0,0.001990122254937887,-0.0005570088396780193,0.0002678676100913436,1.2184696791468346e-07,0.0,0.0,0.0,1.2184696791468346e-07,0.0,0.0,0.0,1.2184696791468346e-07,0.2549729,0.9316317500000013,9.87529655,8.999999999999999e-08,0.0,0.0,0.0,8.999999999999999e-08,0.0,0.0,0.0,8.999999999999999e-08
1729403417.7256842,2365,1729403417,724345728,base_link,-0.03950143477983361,0.01800258639957228,-0.35880882192535424,-0.9324010793868696,1.0,0.0,0.0,0.0,1.0,0.0,0.0,0.0,1.0,0.0002931408816948533,0.0009061006712727249,0.0003163955989293753,1.2184696791468346e-07,0.0,0.0,0.0,1.2184696791468346e-07,0.0,0.0,0.0,1.2184696791468346e-07,0.2745862,0.9120184500000013,9.8654899,8.999999999999999e-08,0.0,0.0,0.0,8.999999999999999e-08,0.0,0.0,0.0,8.999999999999999e-08
1729403417.8263695,2366,1729403417,824342400,base_link,-0.039524654361278534,0.017967632273530366,-0.35878906471017835,-0.9324083724058359,1.0,0.0,0.0,0.0,1.0,0.0,0.0,0.0,1.0,0.00029411911964416504,-0.0006467342609539628,2.4208566173911173e-05,1.2184696791468346e-07,0.0,0.0,0.0,1.2184696791468346e-07,0.0,0.0,0.0,1.2184696791468346e-07,0.2549729,0.9218251000000013,9.85568325,8.999999999999999e-08,0.0,0.0,0.0,8.999999999999999e-08,0.0,0.0,0.0,8.999999999999999e-08
1729403417.9256809,2367,1729403417,924339328,base_link,-0.03951821526842674,0.017961124803733616,-0.3587836842573821,-0.9324108410826647,1.0,0.0,0.0,0.0,1.0,0.0,0.0,0.0,1.0,0.00046197837218642235,0.00014655443374067545,-5.26959775015712e-05,1.2184696791468346e-07,0.0,0.0,0.0,1.2184696791468346e-07,0.0,0.0,0.0,1.2184696791468346e-07,0.24516625,0.9316317500000013,9.87529655,8.999999999999999e-08,0.0,0.0,0.0,8.999999999999999e-08,0.0,0.0,0.0,8.999999999999999e-08
1729403418.0259178,2368,1729403418,24331392,base_link,-0.03951386721133415,0.017972354849777893,-0.35881328716407973,-0.9323994174781891,1.0,0.0,0.0,0.0,1.0,0.0,0.0,0.0,1.0,0.0002208682126365602,-0.000417923438362777,0.0015577947488054633,1.2184696791468346e-07,0.0,0.0,0.0,1.2184696791468346e-07,0.0,0.0,0.0,1.2184696791468346e-07,0.26477955,0.9218251000000013,9.87529655,8.999999999999999e-08,0.0,0.0,0.0,8.999999999999999e-08,0.0,0.0,0.0,8.999999999999999e-08
1729403418.1261199,2369,1729403418,124327040,base_link,-0.03947527244180361,0.017960300569667548,-0.3588283970040726,-0.9323954697297602,1.0,0.0,0.0,0.0,1.0,0.0,0.0,0.0,1.0,-0.00021452335931826383,0.00022234269999898957,-0.0010222455020993948,1.2184696791468346e-07,0.0,0.0,0.0,1.2184696791468346e-07,0.0,0.0,0.0,1.2184696791468346e-07,0.26477955,0.9316317500000013,9.85568325,8.999999999999999e-08,0.0,0.0,0.0,8.999999999999999e-08,0.0,0.0,0.0,8.999999999999999e-08
1729403418.2263868,2370,1729403418,224322688,base_link,-0.03944469685244926,0.01793759854435442,-0.3588492289750927,-0.9323891833953575,1.0,0.0,0.0,0.0,1.0,0.0,0.0,0.0,1.0,7.221584382932633e-06,-2.075137672363764e-05,0.001355677843093872,1.2184696791468346e-07,0.0,0.0,0.0,1.2184696791468346e-07,0.0,0.0,0.0,1.2184696791468346e-07,0.2549729,0.9120184500000013,9.8458766,8.999999999999999e-08,0.0,0.0,0.0,8.999999999999999e-08,0.0,0.0,0.0,8.999999999999999e-08
1729403418.3269286,2371,1729403418,324318336,base_link,-0.03942409473407493,0.01792662732982822,-0.35887304485238924,-0.9323810993715773,1.0,0.0,0.0,0.0,1.0,0.0,0.0,0.0,1.0,0.00010862487397389486,0.00024286325788125407,0.0008315563900396228,1.2184696791468346e-07,0.0,0.0,0.0,1.2184696791468346e-07,0.0,0.0,0.0,1.2184696791468346e-07,0.26477955,0.9218251000000013,9.8851032,8.999999999999999e-08,0.0,0.0,0.0,8.999999999999999e-08,0.0,0.0,0.0,8.999999999999999e-08
1729403418.4261107,2372,1729403418,424312704,base_link,-0.039425382891874826,0.017929609325428544,-0.35889041433051105,-0.9323743018739528,1.0,0.0,0.0,0.0,1.0,0.0,0.0,0.0,1.0,0.0001855925511335954,-0.00043780813575722266,0.0008887224248610437,1.2184696791468346e-07,0.0,0.0,0.0,1.2184696791468346e-07,0.0,0.0,0.0,1.2184696791468346e-07,0.2745862,0.9218251000000013,9.8654899,8.999999999999999e-08,0.0,0.0,0.0,8.999999999999999e-08,0.0,0.0,0.0,8.999999999999999e-08
1729403418.5278537,2373,1729403418,524305792,base_link,-0.03943904981909343,0.017946559555818704,-0.358893755659679,-0.9323721116045713,1.0,0.0,0.0,0.0,1.0,0.0,0.0,0.0,1.0,0.0007183656562119722,-0.00018230837304145084,0.0011225194903090596,1.2184696791468346e-07,0.0,0.0,0.0,1.2184696791468346e-07,0.0,0.0,0.0,1.2184696791468346e-07,0.2549729,0.9218251000000013,9.85568325,8.999999999999999e-08,0.0,0.0,0.0,8.999999999999999e-08,0.0,0.0,0.0,8.999999999999999e-08
1729403418.6260574,2374,1729403418,624303232,base_link,-0.03946495773545225,0.01794691771927065,-0.35892119617826973,-0.9323604454229473,1.0,0.0,0.0,0.0,1.0,0.0,0.0,0.0,1.0,0.0001075875261449255,0.00045539028360508393,0.0007461195345968007,1.2184696791468346e-07,0.0,0.0,0.0,1.2184696791468346e-07,0.0,0.0,0.0,1.2184696791468346e-07,0.2353596,0.9218251000000013,9.89490985,8.999999999999999e-08,0.0,0.0,0.0,8.999999999999999e-08,0.0,0.0,0.0,8.999999999999999e-08
1729403418.7263114,2375,1729403418,724298880,base_link,-0.03947027386029023,0.017962342976932853,-0.35894441971213886,-0.9323509828780623,1.0,0.0,0.0,0.0,1.0,0.0,0.0,0.0,1.0,0.0009209067793563008,-0.00028904693317599584,0.0007191742770373821,1.2184696791468346e-07,0.0,0.0,0.0,1.2184696791468346e-07,0.0,0.0,0.0,1.2184696791468346e-07,0.2353596,0.9218251000000013,9.8654899,8.999999999999999e-08,0.0,0.0,0.0,8.999999999999999e-08,0.0,0.0,0.0,8.999999999999999e-08
1729403418.8260942,2376,1729403418,824294528,base_link,-0.039476775456127045,0.017963495244936213,-0.358970837604803,-0.9323405143977592,1.0,0.0,0.0,0.0,1.0,0.0,0.0,0.0,1.0,0.000751256535295397,0.0012548043159767985,0.0006989422254264354,1.2184696791468346e-07,0.0,0.0,0.0,1.2184696791468346e-07,0.0,0.0,0.0,1.2184696791468346e-07,0.2745862,0.9316317500000013,9.8654899,8.999999999999999e-08,0.0,0.0,0.0,8.999999999999999e-08,0.0,0.0,0.0,8.999999999999999e-08
1729403418.926057,2377,1729403418,924290176,base_link,-0.039464947279620036,0.01799607508540039,-0.35900455710655066,-0.9323274034342588,1.0,0.0,0.0,0.0,1.0,0.0,0.0,0.0,1.0,-0.0003247074200771749,-0.0007311507361009717,0.0002978820702992381,1.2184696791468346e-07,0.0,0.0,0.0,1.2184696791468346e-07,0.0,0.0,0.0,1.2184696791468346e-07,0.26477955,0.9022118000000012,9.8654899,8.999999999999999e-08,0.0,0.0,0.0,8.999999999999999e-08,0.0,0.0,0.0,8.999999999999999e-08
1729403419.0262,2378,1729403419,24286080,base_link,-0.03945731718919516,0.018006883277491573,-0.3590428561992732,-0.9323127692395563,1.0,0.0,0.0,0.0,1.0,0.0,0.0,0.0,1.0,0.0007847617380321026,-0.0006851929938420651,0.0017138750990852714,1.2184696791468346e-07,0.0,0.0,0.0,1.2184696791468346e-07,0.0,0.0,0.0,1.2184696791468346e-07,0.2549729,0.9218251000000013,9.85568325,8.999999999999999e-08,0.0,0.0,0.0,8.999999999999999e-08,0.0,0.0,0.0,8.999999999999999e-08
1729403419.1262288,2379,1729403419,124283264,base_link,-0.03943357956184392,0.017994418609108106,-0.3590782801585266,-0.9323003713504863,1.0,0.0,0.0,0.0,1.0,0.0,0.0,0.0,1.0,0.0009012960363179445,-0.00019301738939248015,0.0009009154164232314,1.2184696791468346e-07,0.0,0.0,0.0,1.2184696791468346e-07,0.0,0.0,0.0,1.2184696791468346e-07,0.26477955,0.9120184500000013,9.8851032,8.999999999999999e-08,0.0,0.0,0.0,8.999999999999999e-08,0.0,0.0,0.0,8.999999999999999e-08
1729403419.226686,2380,1729403419,224280960,base_link,-0.03941061698720631,0.017967297965372074,-0.3590964377998528,-0.9322948717181532,1.0,0.0,0.0,0.0,1.0,0.0,0.0,0.0,1.0,-0.0003740478423424065,-0.00025353999808430677,-0.0006100296159274876,1.2184696791468346e-07,0.0,0.0,0.0,1.2184696791468346e-07,0.0,0.0,0.0,1.2184696791468346e-07,0.2549729,0.9218251000000013,9.8654899,8.999999999999999e-08,0.0,0.0,0.0,8.999999999999999e-08,0.0,0.0,0.0,8.999999999999999e-08
1729403419.3263628,2381,1729403419,324275584,base_link,-0.039385897828894685,0.017953932298422872,-0.35912510725573993,-0.9322851305828003,1.0,0.0,0.0,0.0,1.0,0.0,0.0,0.0,1.0,-0.0012432578951120377,0.00043826812179759156,0.0010971288429573178,1.2184696791468346e-07,0.0,0.0,0.0,1.2184696791468346e-07,0.0,0.0,0.0,1.2184696791468346e-07,0.2745862,0.9316317500000013,9.87529655,8.999999999999999e-08,0.0,0.0,0.0,8.999999999999999e-08,0.0,0.0,0.0,8.999999999999999e-08
1729403419.4261844,2382,1729403419,424273280,base_link,-0.03941197393143828,0.017963543013847727,-0.35913041177543703,-0.9322818000858015,1.0,0.0,0.0,0.0,1.0,0.0,0.0,0.0,1.0,-0.000748129328712821,-3.066078716074116e-05,3.341079718666152e-05,1.2184696791468346e-07,0.0,0.0,0.0,1.2184696791468346e-07,0.0,0.0,0.0,1.2184696791468346e-07,0.24516625,0.9120184500000013,9.87529655,8.999999999999999e-08,0.0,0.0,0.0,8.999999999999999e-08,0.0,0.0,0.0,8.999999999999999e-08
1729403419.526892,2383,1729403419,524269184,base_link,-0.039443421141691366,0.017983135005240097,-0.3591465223358235,-0.9322738861933795,1.0,0.0,0.0,0.0,1.0,0.0,0.0,0.0,1.0,0.001289507606998086,-0.00036670643021352584,0.0005709597608074546,1.2184696791468346e-07,0.0,0.0,0.0,1.2184696791468346e-07,0.0,0.0,0.0,1.2184696791468346e-07,0.2549729,0.9316317500000013,9.8851032,8.999999999999999e-08,0.0,0.0,0.0,8.999999999999999e-08,0.0,0.0,0.0,8.999999999999999e-08
1729403419.6262047,2384,1729403419,624264832,base_link,-0.03948397949755039,0.01799744748139897,-0.3591713493039025,-0.9322623284711258,1.0,0.0,0.0,0.0,1.0,0.0,0.0,0.0,1.0,0.00021703321544919163,-0.00022037257440388197,0.00037858120049349964,1.2184696791468346e-07,0.0,0.0,0.0,1.2184696791468346e-07,0.0,0.0,0.0,1.2184696791468346e-07,0.24516625,0.9316317500000013,9.87529655,8.999999999999999e-08,0.0,0.0,0.0,8.999999999999999e-08,0.0,0.0,0.0,8.999999999999999e-08
1729403419.726448,2385,1729403419,724260736,base_link,-0.039498957245717656,0.018015193458349146,-0.35919834309425996,-0.9322509509244266,1.0,0.0,0.0,0.0,1.0,0.0,0.0,0.0,1.0,-6.196266622282565e-05,5.6654611398698715e-05,-0.0003874818212352693,1.2184696791468346e-07,0.0,0.0,0.0,1.2184696791468346e-07,0.0,0.0,0.0,1.2184696791468346e-07,0.2745862,0.9218251000000013,9.85568325,8.999999999999999e-08,0.0,0.0,0.0,8.999999999999999e-08,0.0,0.0,0.0,8.999999999999999e-08
1729403419.8293364,2386,1729403419,824255360,base_link,-0.03951277293419766,0.018024078309118605,-0.3592322806393821,-0.9322371167909941,1.0,0.0,0.0,0.0,1.0,0.0,0.0,0.0,1.0,-8.536737004760653e-05,-0.0010384481865912674,0.0013072158908471467,1.2184696791468346e-07,0.0,0.0,0.0,1.2184696791468346e-07,0.0,0.0,0.0,1.2184696791468346e-07,0.2549729,0.9218251000000013,9.85568325,8.999999999999999e-08,0.0,0.0,0.0,8.999999999999999e-08,0.0,0.0,0.0,8.999999999999999e-08
1729403419.9259932,2387,1729403419,924248448,base_link,-0.0395442642007218,0.018047035462370808,-0.35924723154228894,-0.9322295759677679,1.0,0.0,0.0,0.0,1.0,0.0,0.0,0.0,1.0,-0.000908692367374897,-1.3296026736497738e-05,0.0011435160413384438,1.2184696791468346e-07,0.0,0.0,0.0,1.2184696791468346e-07,0.0,0.0,0.0,1.2184696791468346e-07,0.26477955,0.9316317500000013,9.8654899,8.999999999999999e-08,0.0,0.0,0.0,8.999999999999999e-08,0.0,0.0,0.0,8.999999999999999e-08
1729403420.0262067,2388,1729403420,24243328,base_link,-0.03958149984670679,0.01804178252470186,-0.35923623325589893,-0.9322323356703144,1.0,0.0,0.0,0.0,1.0,0.0,0.0,0.0,1.0,0.0005076074739918113,0.00011234771227464085,0.0004797900328412652,1.2184696791468346e-07,0.0,0.0,0.0,1.2184696791468346e-07,0.0,0.0,0.0,1.2184696791468346e-07,0.24516625,0.9218251000000013,9.8654899,8.999999999999999e-08,0.0,0.0,0.0,8.999999999999999e-08,0.0,0.0,0.0,8.999999999999999e-08
1729403420.126242,2389,1729403420,124239744,base_link,-0.03958605002753171,0.0180304396444878,-0.3592418400110713,-0.9322302013316798,1.0,0.0,0.0,0.0,1.0,0.0,0.0,0.0,1.0,0.0006377599784173071,0.0004767239734064788,0.0006500235758721827,1.2184696791468346e-07,0.0,0.0,0.0,1.2184696791468346e-07,0.0,0.0,0.0,1.2184696791468346e-07,0.2549729,0.9120184500000013,9.8654899,8.999999999999999e-08,0.0,0.0,0.0,8.999999999999999e-08,0.0,0.0,0.0,8.999999999999999e-08
1729403420.227005,2390,1729403420,224237952,base_link,-0.03959298198394269,0.018017138988614713,-0.3592385089862019,-0.932231447732619,1.0,0.0,0.0,0.0,1.0,0.0,0.0,0.0,1.0,0.0011233602417632937,-0.000436763046309352,-0.0005625743069685996,1.2184696791468346e-07,0.0,0.0,0.0,1.2184696791468346e-07,0.0,0.0,0.0,1.2184696791468346e-07,0.2745862,0.9120184500000013,9.8654899,8.999999999999999e-08,0.0,0.0,0.0,8.999999999999999e-08,0.0,0.0,0.0,8.999999999999999e-08
1729403420.3261523,2391,1729403420,324234112,base_link,-0.039594565895906396,0.017978735590910795,-0.3592643410206535,-0.9322221670230024,1.0,0.0,0.0,0.0,1.0,0.0,0.0,0.0,1.0,0.001660434645600617,0.0005787136615253985,0.0003977269225288182,1.2184696791468346e-07,0.0,0.0,0.0,1.2184696791468346e-07,0.0,0.0,0.0,1.2184696791468346e-07,0.26477955,0.9022118000000012,9.9047165,8.999999999999999e-08,0.0,0.0,0.0,8.999999999999999e-08,0.0,0.0,0.0,8.999999999999999e-08
1729403420.4261134,2392,1729403420,424230016,base_link,-0.03960666305570686,0.01793764020760115,-0.3592804135731474,-0.9322162505170581,1.0,0.0,0.0,0.0,1.0,0.0,0.0,0.0,1.0,0.0009249091963283718,-0.0006354338838718833,-0.0005266942316666244,1.2184696791468346e-07,0.0,0.0,0.0,1.2184696791468346e-07,0.0,0.0,0.0,1.2184696791468346e-07,0.26477955,0.8924051500000013,9.87529655,8.999999999999999e-08,0.0,0.0,0.0,8.999999999999999e-08,0.0,0.0,0.0,8.999999999999999e-08
1729403420.5259619,2393,1729403420,524224896,base_link,-0.03962490394630784,0.01793808242095163,-0.3593189817085515,-0.932200601571483,1.0,0.0,0.0,0.0,1.0,0.0,0.0,0.0,1.0,-0.00040409713983535767,0.0003147838870063424,0.00017834237951319662,1.2184696791468346e-07,0.0,0.0,0.0,1.2184696791468346e-07,0.0,0.0,0.0,1.2184696791468346e-07,0.26477955,0.9218251000000013,9.8654899,8.999999999999999e-08,0.0,0.0,0.0,8.999999999999999e-08,0.0,0.0,0.0,8.999999999999999e-08
1729403420.6261282,2394,1729403420,624222848,base_link,-0.03959885271829441,0.017954400705745305,-0.35933712722531186,-0.9321943999811155,1.0,0.0,0.0,0.0,1.0,0.0,0.0,0.0,1.0,0.00035379937617108226,-0.0008646349306218326,-1.5651596186216816e-05,1.2184696791468346e-07,0.0,0.0,0.0,1.2184696791468346e-07,0.0,0.0,0.0,1.2184696791468346e-07,0.24516625,0.9316317500000013,9.85568325,8.999999999999999e-08,0.0,0.0,0.0,8.999999999999999e-08,0.0,0.0,0.0,8.999999999999999e-08
1729403420.726504,2395,1729403420,724220800,base_link,-0.03958595736417058,0.017958236815854848,-0.3593427850201805,-0.9321926928290996,1.0,0.0,0.0,0.0,1.0,0.0,0.0,0.0,1.0,-0.0004951028386130929,-1.691643410595126e-05,0.0006367351161316037,1.2184696791468346e-07,0.0,0.0,0.0,1.2184696791468346e-07,0.0,0.0,0.0,1.2184696791468346e-07,0.2549729,0.9218251000000013,9.8654899,8.999999999999999e-08,0.0,0.0,0.0,8.999999999999999e-08,0.0,0.0,0.0,8.999999999999999e-08
1729403420.826388,2396,1729403420,824217216,base_link,-0.03959930087814898,0.017957907498052903,-0.35935020105552834,-0.9321892736615267,1.0,0.0,0.0,0.0,1.0,0.0,0.0,0.0,1.0,-0.0005076955421827734,-0.00044083927059546097,0.0013717996189370751,1.2184696791468346e-07,0.0,0.0,0.0,1.2184696791468346e-07,0.0,0.0,0.0,1.2184696791468346e-07,0.2549729,0.9022118000000012,9.8654899,8.999999999999999e-08,0.0,0.0,0.0,8.999999999999999e-08,0.0,0.0,0.0,8.999999999999999e-08
1729403420.9263194,2397,1729403420,924215424,base_link,-0.03960917498355778,0.01796707741754436,-0.3593708537006594,-0.9321807157931628,1.0,0.0,0.0,0.0,1.0,0.0,0.0,0.0,1.0,-0.00038744014455005527,5.470569885801517e-05,-0.0005294180591590703,1.2184696791468346e-07,0.0,0.0,0.0,1.2184696791468346e-07,0.0,0.0,0.0,1.2184696791468346e-07,0.26477955,0.9022118000000012,9.87529655,8.999999999999999e-08,0.0,0.0,0.0,8.999999999999999e-08,0.0,0.0,0.0,8.999999999999999e-08
1729403421.0263884,2398,1729403421,24207232,base_link,-0.039585746862650574,0.01797025556762577,-0.35939898624441174,-0.9321708036870975,1.0,0.0,0.0,0.0,1.0,0.0,0.0,0.0,1.0,5.8017201808979735e-05,0.0006953245610930027,0.0011936771916225553,1.2184696791468346e-07,0.0,0.0,0.0,1.2184696791468346e-07,0.0,0.0,0.0,1.2184696791468346e-07,0.2549729,0.9120184500000013,9.8654899,8.999999999999999e-08,0.0,0.0,0.0,8.999999999999999e-08,0.0,0.0,0.0,8.999999999999999e-08
1729403421.1264508,2399,1729403421,124203648,base_link,-0.03958792223085136,0.017999803243740627,-0.35942415971397434,-0.9321604351776223,1.0,0.0,0.0,0.0,1.0,0.0,0.0,0.0,1.0,0.0006081282626837492,0.0005138737033121288,0.00013419528841041023,1.2184696791468346e-07,0.0,0.0,0.0,1.2184696791468346e-07,0.0,0.0,0.0,1.2184696791468346e-07,0.26477955,0.9120184500000013,9.8458766,8.999999999999999e-08,0.0,0.0,0.0,8.999999999999999e-08,0.0,0.0,0.0,8.999999999999999e-08
1729403421.23074,2400,1729403421,224209280,base_link,-0.03958137593724534,0.018011249783875208,-0.3594560942102769,-0.9321481780785872,1.0,0.0,0.0,0.0,1.0,0.0,0.0,0.0,1.0,0.00028564853710122406,-0.00014906193246133617,0.0005922255804762244,1.2184696791468346e-07,0.0,0.0,0.0,1.2184696791468346e-07,0.0,0.0,0.0,1.2184696791468346e-07,0.2549729,0.9316317500000013,9.87529655,8.999999999999999e-08,0.0,0.0,0.0,8.999999999999999e-08,0.0,0.0,0.0,8.999999999999999e-08
1729403421.326513,2401,1729403421,324207488,base_link,-0.03958570961383834,0.018029315858847685,-0.3594678146409357,-0.9321431250625092,1.0,0.0,0.0,0.0,1.0,0.0,0.0,0.0,1.0,8.669075032230467e-05,-0.0004343048203736545,-0.001005609636195004,1.2184696791468346e-07,0.0,0.0,0.0,1.2184696791468346e-07,0.0,0.0,0.0,1.2184696791468346e-07,0.26477955,0.9120184500000013,9.8851032,8.999999999999999e-08,0.0,0.0,0.0,8.999999999999999e-08,0.0,0.0,0.0,8.999999999999999e-08
1729403421.4265342,2402,1729403421,424205696,base_link,-0.03957110906078395,0.0180462400239317,-0.3594863089562952,-0.9321362852188928,1.0,0.0,0.0,0.0,1.0,0.0,0.0,0.0,1.0,0.000473373947897926,0.0005889917956665159,0.0005300784250721334,1.2184696791468346e-07,0.0,0.0,0.0,1.2184696791468346e-07,0.0,0.0,0.0,1.2184696791468346e-07,0.2549729,0.9316317500000013,9.89490985,8.999999999999999e-08,0.0,0.0,0.0,8.999999999999999e-08,0.0,0.0,0.0,8.999999999999999e-08
1729403421.5264697,2403,1729403421,524202112,base_link,-0.03953784122716506,0.018037228792155115,-0.3594994266691817,-0.9321328122714726,1.0,0.0,0.0,0.0,1.0,0.0,0.0,0.0,1.0,-0.0005859769298695028,-0.0009823946747928858,-0.0001816947478801011,1.2184696791468346e-07,0.0,0.0,0.0,1.2184696791468346e-07,0.0,0.0,0.0,1.2184696791468346e-07,0.26477955,0.9120184500000013,9.87529655,8.999999999999999e-08,0.0,0.0,0.0,8.999999999999999e-08,0.0,0.0,0.0,8.999999999999999e-08
1729403421.6254928,2404,1729403421,624198784,base_link,-0.03951860583453648,0.017988397383096176,-0.3595116779212224,-0.9321298465293071,1.0,0.0,0.0,0.0,1.0,0.0,0.0,0.0,1.0,-0.0002781161165330559,0.0005658419686369599,0.00046536111040040845,1.2184696791468346e-07,0.0,0.0,0.0,1.2184696791468346e-07,0.0,0.0,0.0,1.2184696791468346e-07,0.2549729,0.9316317500000013,9.87529655,8.999999999999999e-08,0.0,0.0,0.0,8.999999999999999e-08,0.0,0.0,0.0,8.999999999999999e-08
1729403421.7266426,2405,1729403421,724195456,base_link,-0.03952617727994247,0.01797294049305715,-0.35950392430271216,-0.9321328141046303,1.0,0.0,0.0,0.0,1.0,0.0,0.0,0.0,1.0,-0.0003703664115164429,0.0001640645496081562,0.0008220173185691237,1.2184696791468346e-07,0.0,0.0,0.0,1.2184696791468346e-07,0.0,0.0,0.0,1.2184696791468346e-07,0.26477955,0.9218251000000013,9.85568325,8.999999999999999e-08,0.0,0.0,0.0,8.999999999999999e-08,0.0,0.0,0.0,8.999999999999999e-08
1729403421.8257415,2406,1729403421,824190592,base_link,-0.03954442754277367,0.01798516989045767,-0.35951901948207754,-0.9321259821209638,1.0,0.0,0.0,0.0,1.0,0.0,0.0,0.0,1.0,0.0002665604406502098,-0.0004643378779292107,-0.00046559888869523997,1.2184696791468346e-07,0.0,0.0,0.0,1.2184696791468346e-07,0.0,0.0,0.0,1.2184696791468346e-07,0.24516625,0.9218251000000013,9.87529655,8.999999999999999e-08,0.0,0.0,0.0,8.999999999999999e-08,0.0,0.0,0.0,8.999999999999999e-08
1729403421.9266994,2407,1729403421,924184448,base_link,-0.03955359143594749,0.01799042300679029,-0.35952897637102477,-0.9321216515209578,1.0,0.0,0.0,0.0,1.0,0.0,0.0,0.0,1.0,-0.0016108694253489375,-0.0002104469313053412,0.0016605426790192723,1.2184696791468346e-07,0.0,0.0,0.0,1.2184696791468346e-07,0.0,0.0,0.0,1.2184696791468346e-07,0.2549729,0.9218251000000013,9.87529655,8.999999999999999e-08,0.0,0.0,0.0,8.999999999999999e-08,0.0,0.0,0.0,8.999999999999999e-08
1729403422.0254989,2408,1729403422,24179840,base_link,-0.03956419235386869,0.01797675652106982,-0.3595559216851704,-0.9321110717556658,1.0,0.0,0.0,0.0,1.0,0.0,0.0,0.0,1.0,-0.0003312394837848842,0.0003578169562388213,0.001163735636509955,1.2184696791468346e-07,0.0,0.0,0.0,1.2184696791468346e-07,0.0,0.0,0.0,1.2184696791468346e-07,0.2549729,0.8924051500000013,9.8654899,8.999999999999999e-08,0.0,0.0,0.0,8.999999999999999e-08,0.0,0.0,0.0,8.999999999999999e-08
1729403422.1266644,2409,1729403422,124172160,base_link,-0.039574986983621066,0.01798604564954843,-0.3595641220053054,-0.9321072710443217,1.0,0.0,0.0,0.0,1.0,0.0,0.0,0.0,1.0,0.0005207852809689939,-0.0001942481030710043,-0.0010635948274284601,1.2184696791468346e-07,0.0,0.0,0.0,1.2184696791468346e-07,0.0,0.0,0.0,1.2184696791468346e-07,0.26477955,0.9120184500000013,9.8654899,8.999999999999999e-08,0.0,0.0,0.0,8.999999999999999e-08,0.0,0.0,0.0,8.999999999999999e-08
1729403422.2266986,2410,1729403422,224169088,base_link,-0.0395865566762384,0.01798082732243672,-0.35956967125887673,-0.9321047397637795,1.0,0.0,0.0,0.0,1.0,0.0,0.0,0.0,1.0,0.0003449929354246706,0.0007782722823321819,0.00023661194427404542,1.2184696791468346e-07,0.0,0.0,0.0,1.2184696791468346e-07,0.0,0.0,0.0,1.2184696791468346e-07,0.2549729,0.9316317500000013,9.89490985,8.999999999999999e-08,0.0,0.0,0.0,8.999999999999999e-08,0.0,0.0,0.0,8.999999999999999e-08
1729403422.325714,2411,1729403422,324166016,base_link,-0.03955846125016164,0.01797974584100637,-0.3595610410129425,-0.9321092825783368,1.0,0.0,0.0,0.0,1.0,0.0,0.0,0.0,1.0,0.0001566192804602906,-3.628059130278411e-05,0.0003716093488037586,1.2184696791468346e-07,0.0,0.0,0.0,1.2184696791468346e-07,0.0,0.0,0.0,1.2184696791468346e-07,0.2549729,0.9120184500000013,9.8851032,8.999999999999999e-08,0.0,0.0,0.0,8.999999999999999e-08,0.0,0.0,0.0,8.999999999999999e-08
1729403422.4256349,2412,1729403422,424161408,base_link,-0.039533734500619686,0.017972618251214864,-0.3595759579411649,-0.9321047147720714,1.0,0.0,0.0,0.0,1.0,0.0,0.0,0.0,1.0,0.0006623265217058361,0.00015657146286685036,0.0013644960708916187,1.2184696791468346e-07,0.0,0.0,0.0,1.2184696791468346e-07,0.0,0.0,0.0,1.2184696791468346e-07,0.2549729,0.9316317500000013,9.89490985,8.999999999999999e-08,0.0,0.0,0.0,8.999999999999999e-08,0.0,0.0,0.0,8.999999999999999e-08
1729403422.5257201,2413,1729403422,524155776,base_link,-0.03954009145274503,0.01795789151038881,-0.359585822349267,-0.9321009235409066,1.0,0.0,0.0,0.0,1.0,0.0,0.0,0.0,1.0,-0.0008154782699421048,0.00015194765001069752,-0.0003305009158793837,1.2184696791468346e-07,0.0,0.0,0.0,1.2184696791468346e-07,0.0,0.0,0.0,1.2184696791468346e-07,0.2549729,0.9120184500000013,9.8851032,8.999999999999999e-08,0.0,0.0,0.0,8.999999999999999e-08,0.0,0.0,0.0,8.999999999999999e-08
1729403422.625764,2414,1729403422,624150144,base_link,-0.039566894995345485,0.017962100970513276,-0.35959936935038483,-0.9320944787477061,1.0,0.0,0.0,0.0,1.0,0.0,0.0,0.0,1.0,0.0001388072269037366,0.0004777938593178987,-0.00047828513197600847,1.2184696791468346e-07,0.0,0.0,0.0,1.2184696791468346e-07,0.0,0.0,0.0,1.2184696791468346e-07,0.2549729,0.9120184500000013,9.9047165,8.999999999999999e-08,0.0,0.0,0.0,8.999999999999999e-08,0.0,0.0,0.0,8.999999999999999e-08
1729403422.727221,2415,1729403422,724142464,base_link,-0.039597042051078335,0.01796656412578558,-0.3596195238124523,-0.93208533671935,1.0,0.0,0.0,0.0,1.0,0.0,0.0,0.0,1.0,-0.0015957632567733526,-0.00011396275658626093,0.0012752915499731898,1.2184696791468346e-07,0.0,0.0,0.0,1.2184696791468346e-07,0.0,0.0,0.0,1.2184696791468346e-07,0.2549729,0.9120184500000013,9.87529655,8.999999999999999e-08,0.0,0.0,0.0,8.999999999999999e-08,0.0,0.0,0.0,8.999999999999999e-08
1729403422.8258715,2416,1729403422,824135040,base_link,-0.039607867062115526,0.017970294426064706,-0.35964608697871736,-0.9320745557657537,1.0,0.0,0.0,0.0,1.0,0.0,0.0,0.0,1.0,-0.0008312417194247246,-0.0005951375933364032,0.0021116752177476883,1.2184696791468346e-07,0.0,0.0,0.0,1.2184696791468346e-07,0.0,0.0,0.0,1.2184696791468346e-07,0.26477955,0.8924051500000013,9.85568325,8.999999999999999e-08,0.0,0.0,0.0,8.999999999999999e-08,0.0,0.0,0.0,8.999999999999999e-08
1729403422.9256785,2417,1729403422,924127616,base_link,-0.03960594242155203,0.017986503518960487,-0.35968147728995226,-0.9320606685782749,1.0,0.0,0.0,0.0,1.0,0.0,0.0,0.0,1.0,-0.00039042046410031617,0.001144143636338413,0.0011981689603999255,1.2184696791468346e-07,0.0,0.0,0.0,1.2184696791468346e-07,0.0,0.0,0.0,1.2184696791468346e-07,0.24516625,0.9120184500000013,9.87529655,8.999999999999999e-08,0.0,0.0,0.0,8.999999999999999e-08,0.0,0.0,0.0,8.999999999999999e-08
1729403423.0256016,2418,1729403423,24119680,base_link,-0.039599343958699684,0.017986898671411903,-0.3596640518427884,-0.9320676655942168,1.0,0.0,0.0,0.0,1.0,0.0,0.0,0.0,1.0,0.001561914337798953,0.0006177373579703272,0.000591395073570311,1.2184696791468346e-07,0.0,0.0,0.0,1.2184696791468346e-07,0.0,0.0,0.0,1.2184696791468346e-07,0.26477955,0.9218251000000013,9.8654899,8.999999999999999e-08,0.0,0.0,0.0,8.999999999999999e-08,0.0,0.0,0.0,8.999999999999999e-08
1729403423.1256783,2419,1729403423,124115328,base_link,-0.039591226082160244,0.018001842247254325,-0.3596537324812675,-0.9320717038969208,1.0,0.0,0.0,0.0,1.0,0.0,0.0,0.0,1.0,-0.000514722487423569,0.0006170133710838854,1.4478275261353625e-05,1.2184696791468346e-07,0.0,0.0,0.0,1.2184696791468346e-07,0.0,0.0,0.0,1.2184696791468346e-07,0.2549729,0.9120184500000013,9.8654899,8.999999999999999e-08,0.0,0.0,0.0,8.999999999999999e-08,0.0,0.0,0.0,8.999999999999999e-08
1729403423.227241,2420,1729403423,224112000,base_link,-0.039593085712283246,0.01800228854008388,-0.35967197356006564,-0.9320645774872611,1.0,0.0,0.0,0.0,1.0,0.0,0.0,0.0,1.0,0.0007910961285233498,9.657519694883379e-05,0.00023608535411767662,1.2184696791468346e-07,0.0,0.0,0.0,1.2184696791468346e-07,0.0,0.0,0.0,1.2184696791468346e-07,0.24516625,0.9218251000000013,9.8654899,8.999999999999999e-08,0.0,0.0,0.0,8.999999999999999e-08,0.0,0.0,0.0,8.999999999999999e-08
1729403423.3267124,2421,1729403423,324108672,base_link,-0.03960509292638977,0.017983418977497556,-0.35969126061101886,-0.9320569887599299,1.0,0.0,0.0,0.0,1.0,0.0,0.0,0.0,1.0,-0.001430434756912291,0.0006433717207983137,0.0009313955670222639,1.2184696791468346e-07,0.0,0.0,0.0,1.2184696791468346e-07,0.0,0.0,0.0,1.2184696791468346e-07,0.26477955,0.9022118000000012,9.9047165,8.999999999999999e-08,0.0,0.0,0.0,8.999999999999999e-08,0.0,0.0,0.0,8.999999999999999e-08
1729403423.4258156,2422,1729403423,424101504,base_link,-0.03963142413397142,0.017965925364954047,-0.35970527962459153,-0.9320507966613669,1.0,0.0,0.0,0.0,1.0,0.0,0.0,0.0,1.0,-0.000520444824360311,0.001224977313540876,0.00021023269800934924,1.2184696791468346e-07,0.0,0.0,0.0,1.2184696791468346e-07,0.0,0.0,0.0,1.2184696791468346e-07,0.26477955,0.9218251000000013,9.87529655,8.999999999999999e-08,0.0,0.0,0.0,8.999999999999999e-08,0.0,0.0,0.0,8.999999999999999e-08
1729403423.5268521,2423,1729403423,524097408,base_link,-0.039661905036334516,0.01794903458459189,-0.3597299265852757,-0.9320403131653276,1.0,0.0,0.0,0.0,1.0,0.0,0.0,0.0,1.0,6.833590305177495e-05,0.00011446935241110628,0.00044607691233977675,1.2184696791468346e-07,0.0,0.0,0.0,1.2184696791468346e-07,0.0,0.0,0.0,1.2184696791468346e-07,0.2549729,0.9218251000000013,9.85568325,8.999999999999999e-08,0.0,0.0,0.0,8.999999999999999e-08,0.0,0.0,0.0,8.999999999999999e-08
1729403423.62853,2424,1729403423,624093056,base_link,-0.03967258254003607,0.01795372090243417,-0.3597507451456388,-0.9320317330796839,1.0,0.0,0.0,0.0,1.0,0.0,0.0,0.0,1.0,0.0009501344757154584,-0.000850800483021885,0.0011011676397174597,1.2184696791468346e-07,0.0,0.0,0.0,1.2184696791468346e-07,0.0,0.0,0.0,1.2184696791468346e-07,0.24516625,0.9218251000000013,9.8851032,8.999999999999999e-08,0.0,0.0,0.0,8.999999999999999e-08,0.0,0.0,0.0,8.999999999999999e-08
1729403423.7258892,2425,1729403423,724088960,base_link,-0.03966004957935828,0.017940809303835518,-0.35976760633783644,-0.9320260067502568,1.0,0.0,0.0,0.0,1.0,0.0,0.0,0.0,1.0,0.0013266107998788357,-0.00035492182360030716,-0.0005414006882347167,1.2184696791468346e-07,0.0,0.0,0.0,1.2184696791468346e-07,0.0,0.0,0.0,1.2184696791468346e-07,0.26477955,0.9120184500000013,9.87529655,8.999999999999999e-08,0.0,0.0,0.0,8.999999999999999e-08,0.0,0.0,0.0,8.999999999999999e-08
1729403423.8261003,2426,1729403423,824084864,base_link,-0.039653980986902496,0.017947598963412824,-0.35978130985361867,-0.932020844489732,1.0,0.0,0.0,0.0,1.0,0.0,0.0,0.0,1.0,0.0010697335237637162,-0.00041119413799606264,9.972947009373462e-05,1.2184696791468346e-07,0.0,0.0,0.0,1.2184696791468346e-07,0.0,0.0,0.0,1.2184696791468346e-07,0.2549729,0.9316317500000013,9.83606995,8.999999999999999e-08,0.0,0.0,0.0,8.999999999999999e-08,0.0,0.0,0.0,8.999999999999999e-08
1729403423.9259825,2427,1729403423,924079744,base_link,-0.039620456730544346,0.01794196606146478,-0.35979706461790095,-0.9320162968288987,1.0,0.0,0.0,0.0,1.0,0.0,0.0,0.0,1.0,2.8760152417817153e-05,3.5675948311109286e-05,0.0015254875179380178,1.2184696791468346e-07,0.0,0.0,0.0,1.2184696791468346e-07,0.0,0.0,0.0,1.2184696791468346e-07,0.2549729,0.9316317500000013,9.8458766,8.999999999999999e-08,0.0,0.0,0.0,8.999999999999999e-08,0.0,0.0,0.0,8.999999999999999e-08
1729403424.0279136,2428,1729403424,24072832,base_link,-0.039582586517055596,0.017926593642395496,-0.35982248501764846,-0.9320083880313119,1.0,0.0,0.0,0.0,1.0,0.0,0.0,0.0,1.0,-5.824730760650709e-05,0.00024759062216617167,-9.229130228050084e-06,1.2184696791468346e-07,0.0,0.0,0.0,1.2184696791468346e-07,0.0,0.0,0.0,1.2184696791468346e-07,0.26477955,0.9218251000000013,9.8654899,8.999999999999999e-08,0.0,0.0,0.0,8.999999999999999e-08,0.0,0.0,0.0,8.999999999999999e-08
1729403424.1257794,2429,1729403424,124070784,base_link,-0.03959990642644163,0.01791326602359395,-0.35984608422623854,-0.9319987971979513,1.0,0.0,0.0,0.0,1.0,0.0,0.0,0.0,1.0,0.0005210794042795897,-0.000472603365778923,0.000574032310396433,1.2184696791468346e-07,0.0,0.0,0.0,1.2184696791468346e-07,0.0,0.0,0.0,1.2184696791468346e-07,0.26477955,0.9218251000000013,9.8851032,8.999999999999999e-08,0.0,0.0,0.0,8.999999999999999e-08,0.0,0.0,0.0,8.999999999999999e-08
1729403424.2276828,2430,1729403424,224068480,base_link,-0.03963294427141043,0.017908177493258917,-0.3598648757253065,-0.9319902349952272,1.0,0.0,0.0,0.0,1.0,0.0,0.0,0.0,1.0,-0.0003317168157082051,8.191737288143487e-05,9.534008131595327e-05,1.2184696791468346e-07,0.0,0.0,0.0,1.2184696791468346e-07,0.0,0.0,0.0,1.2184696791468346e-07,0.2549729,0.9218251000000013,9.8458766,8.999999999999999e-08,0.0,0.0,0.0,8.999999999999999e-08,0.0,0.0,0.0,8.999999999999999e-08
1729403424.3258586,2431,1729403424,324061824,base_link,-0.03965695061331175,0.017884674647321637,-0.3598994428990832,-0.9319763171249269,1.0,0.0,0.0,0.0,1.0,0.0,0.0,0.0,1.0,0.0008215417619794607,-0.0005892540211789309,0.0007092622108757497,1.2184696791468346e-07,0.0,0.0,0.0,1.2184696791468346e-07,0.0,0.0,0.0,1.2184696791468346e-07,0.26477955,0.9218251000000013,9.8654899,8.999999999999999e-08,0.0,0.0,0.0,8.999999999999999e-08,0.0,0.0,0.0,8.999999999999999e-08
1729403424.4268267,2432,1729403424,425057984,base_link,-0.03967622551279668,0.017865456350308707,-0.35993122027242164,-0.9319635933187831,1.0,0.0,0.0,0.0,1.0,0.0,0.0,0.0,1.0,0.00024120984016917646,0.000493980827741325,0.0007561323000118135,1.2184696791468346e-07,0.0,0.0,0.0,1.2184696791468346e-07,0.0,0.0,0.0,1.2184696791468346e-07,0.26477955,0.9218251000000013,9.8654899,8.999999999999999e-08,0.0,0.0,0.0,8.999999999999999e-08,0.0,0.0,0.0,8.999999999999999e-08
1729403424.5258613,2433,1729403424,524054144,base_link,-0.039655159425671174,0.01785466140889493,-0.35994532211046565,-0.9319592504437579,1.0,0.0,0.0,0.0,1.0,0.0,0.0,0.0,1.0,-0.0005332669243216515,0.0004556126368697734,0.0008455963106825947,1.2184696791468346e-07,0.0,0.0,0.0,1.2184696791468346e-07,0.0,0.0,0.0,1.2184696791468346e-07,0.2745862,0.9316317500000013,9.8851032,8.999999999999999e-08,0.0,0.0,0.0,8.999999999999999e-08,0.0,0.0,0.0,8.999999999999999e-08
1729403424.6260502,2434,1729403424,624049024,base_link,-0.03961075068264759,0.01785809702973873,-0.35996591638172576,-0.9319531189090458,1.0,0.0,0.0,0.0,1.0,0.0,0.0,0.0,1.0,-6.194220623001456e-05,3.8715701521141516e-05,0.0004942496307194233,1.2184696791468346e-07,0.0,0.0,0.0,1.2184696791468346e-07,0.0,0.0,0.0,1.2184696791468346e-07,0.2549729,0.9218251000000013,9.87529655,8.999999999999999e-08,0.0,0.0,0.0,8.999999999999999e-08,0.0,0.0,0.0,8.999999999999999e-08
