Time,header.seq,header.stamp.secs,header.stamp.nsecs,header.frame_id,magnetic_field.x,magnetic_field.y,magnetic_field.z,magnetic_field_covariance_0,magnetic_field_covariance_1,magnetic_field_covariance_2,magnetic_field_covariance_3,magnetic_field_covariance_4,magnetic_field_covariance_5,magnetic_field_covariance_6,magnetic_field_covariance_7,magnetic_field_covariance_8
1729403412.2200391,2309,1729403412,32625968,base_link,279000.0,271000.0,-186000.00000000003,-1.0,0.0,0.0,0.0,0.0,0.0,0.0,0.0,0.0
1729403412.2203763,2310,1729403412,130398592,base_link,283000.0,273000.0,-183000.00000000003,-1.0,0.0,0.0,0.0,0.0,0.0,0.0,0.0,0.0
1729403412.2325165,2311,1729403412,230384216,base_link,279000.0,273000.0,-183000.00000000003,-1.0,0.0,0.0,0.0,0.0,0.0,0.0,0.0,0.0
1729403412.3297627,2312,1729403412,327653840,base_link,284000.0,277000.0,-182000.00000000003,-1.0,0.0,0.0,0.0,0.0,0.0,0.0,0.0,0.0
1729403412.4311953,2313,1729403412,430080232,base_link,274000.0,272000.0,-185000.00000000003,-1.0,0.0,0.0,0.0,0.0,0.0,0.0,0.0,0.0
1729403412.5309806,2314,1729403412,530270416,base_link,266000.0,266000.0,-193000.00000000003,-1.0,0.0,0.0,0.0,0.0,0.0,0.0,0.0,0.0
1729403412.6320257,2315,1729403412,630397040,base_link,276000.0,263000.0,-192000.00000000003,-1.0,0.0,0.0,0.0,0.0,0.0,0.0,0.0,0.0
1729403412.729739,2316,1729403412,727581688,base_link,270000.0,259999.99999999997,-200000.00000000003,-1.0,0.0,0.0,0.0,0.0,0.0,0.0,0.0,0.0
1729403412.8311985,2317,1729403412,829857616,base_link,276000.0,257999.99999999997,-194000.00000000003,-1.0,0.0,0.0,0.0,0.0,0.0,0.0,0.0,0.0
1729403412.9295812,2318,1729403412,927564520,base_link,270000.0,258999.99999999997,-198000.00000000003,-1.0,0.0,0.0,0.0,0.0,0.0,0.0,0.0,0.0
1729403413.0336337,2319,1729403413,30388584,base_link,277000.0,257999.99999999997,-194000.00000000003,-1.0,0.0,0.0,0.0,0.0,0.0,0.0,0.0,0.0
1729403413.1333125,2320,1729403413,130359464,base_link,270000.0,256999.99999999997,-198000.00000000003,-1.0,0.0,0.0,0.0,0.0,0.0,0.0,0.0,0.0
1729403413.23398,2321,1729403413,230359160,base_link,265000.0,258999.99999999997,-198000.00000000003,-1.0,0.0,0.0,0.0,0.0,0.0,0.0,0.0,0.0
1729403413.3317707,2322,1729403413,330406040,base_link,273000.0,264000.0,-194000.00000000003,-1.0,0.0,0.0,0.0,0.0,0.0,0.0,0.0,0.0
1729403413.4348345,2323,1729403413,430327480,base_link,275000.0,260999.99999999997,-193000.00000000003,-1.0,0.0,0.0,0.0,0.0,0.0,0.0,0.0,0.0
1729403413.5318048,2324,1729403413,530377360,base_link,270000.0,261999.99999999997,-195000.00000000003,-1.0,0.0,0.0,0.0,0.0,0.0,0.0,0.0,0.0
1729403413.63057,2325,1729403413,627547752,base_link,274000.0,259999.99999999997,-191000.00000000003,-1.0,0.0,0.0,0.0,0.0,0.0,0.0,0.0,0.0
1729403413.7308958,2326,1729403413,727844424,base_link,275000.0,260999.99999999997,-194000.00000000003,-1.0,0.0,0.0,0.0,0.0,0.0,0.0,0.0,0.0
1729403413.830182,2327,1729403413,827805840,base_link,277000.0,257999.99999999997,-191000.00000000003,-1.0,0.0,0.0,0.0,0.0,0.0,0.0,0.0,0.0
1729403413.9302418,2328,1729403413,927779512,base_link,270000.0,260999.99999999997,-198000.00000000003,-1.0,0.0,0.0,0.0,0.0,0.0,0.0,0.0,0.0
1729403414.0324395,2329,1729403414,30016928,base_link,273000.0,263000.0,-191000.00000000003,-1.0,0.0,0.0,0.0,0.0,0.0,0.0,0.0,0.0
1729403414.1302562,2330,1729403414,127920088,base_link,270000.0,263000.0,-197000.00000000003,-1.0,0.0,0.0,0.0,0.0,0.0,0.0,0.0,0.0
1729403414.2312133,2331,1729403414,228022760,base_link,270000.0,260999.99999999997,-197000.00000000003,-1.0,0.0,0.0,0.0,0.0,0.0,0.0,0.0,0.0
1729403414.330649,2332,1729403414,327828176,base_link,274000.0,260999.99999999997,-197000.00000000003,-1.0,0.0,0.0,0.0,0.0,0.0,0.0,0.0,0.0
1729403414.431829,2333,1729403414,429931848,base_link,278000.0,261999.99999999997,-191000.00000000003,-1.0,0.0,0.0,0.0,0.0,0.0,0.0,0.0,0.0
1729403414.532417,2334,1729403414,529919776,base_link,273000.0,259999.99999999997,-199000.00000000003,-1.0,0.0,0.0,0.0,0.0,0.0,0.0,0.0,0.0
1729403414.6314206,2335,1729403414,629806704,base_link,268000.0,259999.99999999997,-196000.00000000003,-1.0,0.0,0.0,0.0,0.0,0.0,0.0,0.0,0.0
1729403414.7335305,2336,1729403414,730239608,base_link,271000.0,259999.99999999997,-195000.00000000003,-1.0,0.0,0.0,0.0,0.0,0.0,0.0,0.0,0.0
1729403414.8317218,2337,1729403414,830233512,base_link,269000.0,258999.99999999997,-195000.00000000003,-1.0,0.0,0.0,0.0,0.0,0.0,0.0,0.0,0.0
1729403414.9343622,2338,1729403414,930238232,base_link,278000.0,263000.0,-192000.00000000003,-1.0,0.0,0.0,0.0,0.0,0.0,0.0,0.0,0.0
1729403415.034351,2339,1729403415,30191880,base_link,276000.0,261999.99999999997,-191000.00000000003,-1.0,0.0,0.0,0.0,0.0,0.0,0.0,0.0,0.0
1729403415.1348095,2340,1729403415,130381784,base_link,278000.0,261999.99999999997,-190000.00000000003,-1.0,0.0,0.0,0.0,0.0,0.0,0.0,0.0,0.0
1729403415.2332425,2341,1729403415,230168504,base_link,272000.0,259999.99999999997,-190000.00000000003,-1.0,0.0,0.0,0.0,0.0,0.0,0.0,0.0,0.0
1729403415.3345406,2342,1729403415,330326408,base_link,269000.0,260999.99999999997,-200000.00000000003,-1.0,0.0,0.0,0.0,0.0,0.0,0.0,0.0,0.0
1729403415.4321074,2343,1729403415,430250568,base_link,268000.0,261999.99999999997,-193000.00000000003,-1.0,0.0,0.0,0.0,0.0,0.0,0.0,0.0,0.0
1729403415.5324912,2344,1729403415,529869752,base_link,266000.0,261999.99999999997,-197000.00000000003,-1.0,0.0,0.0,0.0,0.0,0.0,0.0,0.0,0.0
1729403415.6332593,2345,1729403415,630257376,base_link,280000.0,261999.99999999997,-189000.00000000003,-1.0,0.0,0.0,0.0,0.0,0.0,0.0,0.0,0.0
1729403415.7299654,2346,1729403415,727466256,base_link,273000.0,263000.0,-198000.00000000003,-1.0,0.0,0.0,0.0,0.0,0.0,0.0,0.0,0.0
1729403415.8306696,2347,1729403415,829780904,base_link,270000.0,260999.99999999997,-193000.00000000003,-1.0,0.0,0.0,0.0,0.0,0.0,0.0,0.0,0.0
1729403415.9307692,2348,1729403415,929742296,base_link,270000.0,258999.99999999997,-197000.00000000003,-1.0,0.0,0.0,0.0,0.0,0.0,0.0,0.0,0.0
1729403416.0306122,2349,1729403416,27523920,base_link,277000.0,255999.99999999997,-195000.00000000003,-1.0,0.0,0.0,0.0,0.0,0.0,0.0,0.0,0.0
1729403416.1309247,2350,1729403416,127469824,base_link,274000.0,258999.99999999997,-193000.00000000003,-1.0,0.0,0.0,0.0,0.0,0.0,0.0,0.0,0.0
1729403416.2309585,2351,1729403416,227432824,base_link,265000.0,259999.99999999997,-200000.00000000003,-1.0,0.0,0.0,0.0,0.0,0.0,0.0,0.0,0.0
1729403416.3307104,2352,1729403416,327474728,base_link,272000.0,257999.99999999997,-193000.00000000003,-1.0,0.0,0.0,0.0,0.0,0.0,0.0,0.0,0.0
1729403416.4305975,2353,1729403416,427659888,base_link,272000.0,255999.99999999997,-194000.00000000003,-1.0,0.0,0.0,0.0,0.0,0.0,0.0,0.0,0.0
1729403416.5323794,2354,1729403416,530201024,base_link,268000.0,256999.99999999997,-201000.00000000003,-1.0,0.0,0.0,0.0,0.0,0.0,0.0,0.0,0.0
1729403416.6340947,2355,1729403416,630116440,base_link,275000.0,255999.99999999997,-194000.00000000003,-1.0,0.0,0.0,0.0,0.0,0.0,0.0,0.0,0.0
1729403416.7322845,2356,1729403416,730160112,base_link,277000.0,255999.99999999997,-196000.00000000003,-1.0,0.0,0.0,0.0,0.0,0.0,0.0,0.0,0.0
1729403416.8320622,2357,1729403416,829819016,base_link,273000.0,254999.99999999997,-194000.00000000003,-1.0,0.0,0.0,0.0,0.0,0.0,0.0,0.0,0.0
1729403416.9344594,2358,1729403416,930325152,base_link,263000.0,257999.99999999997,-207000.00000000003,-1.0,0.0,0.0,0.0,0.0,0.0,0.0,0.0,0.0
1729403417.0346413,2359,1729403417,30205216,base_link,266000.0,256999.99999999997,-196000.00000000003,-1.0,0.0,0.0,0.0,0.0,0.0,0.0,0.0,0.0
1729403417.1330125,2360,1729403417,130340608,base_link,268000.0,257999.99999999997,-196000.00000000003,-1.0,0.0,0.0,0.0,0.0,0.0,0.0,0.0,0.0
1729403417.2359772,2361,1729403417,230157000,base_link,276000.0,256999.99999999997,-191000.00000000003,-1.0,0.0,0.0,0.0,0.0,0.0,0.0,0.0,0.0
1729403417.3343885,2362,1729403417,332649856,base_link,274000.0,258999.99999999997,-195000.00000000003,-1.0,0.0,0.0,0.0,0.0,0.0,0.0,0.0,0.0
1729403417.4321713,2363,1729403417,430330272,base_link,279000.0,260999.99999999997,-192000.00000000003,-1.0,0.0,0.0,0.0,0.0,0.0,0.0,0.0,0.0
1729403417.532195,2364,1729403417,530380920,base_link,274000.0,261999.99999999997,-191000.00000000003,-1.0,0.0,0.0,0.0,0.0,0.0,0.0,0.0,0.0
1729403417.630888,2365,1729403417,630099056,base_link,271000.0,265000.0,-193000.00000000003,-1.0,0.0,0.0,0.0,0.0,0.0,0.0,0.0,0.0
1729403417.7323225,2366,1729403417,730563728,base_link,264000.0,264000.0,-195000.00000000003,-1.0,0.0,0.0,0.0,0.0,0.0,0.0,0.0,0.0
1729403417.8320556,2367,1729403417,830369400,base_link,272000.0,258999.99999999997,-195000.00000000003,-1.0,0.0,0.0,0.0,0.0,0.0,0.0,0.0,0.0
1729403417.9342866,2368,1729403417,932448328,base_link,277000.0,259999.99999999997,-194000.00000000003,-1.0,0.0,0.0,0.0,0.0,0.0,0.0,0.0,0.0
1729403418.0325327,2369,1729403418,30581392,base_link,273000.0,257999.99999999997,-195000.00000000003,-1.0,0.0,0.0,0.0,0.0,0.0,0.0,0.0,0.0
1729403418.1319876,2370,1729403418,130059040,base_link,267000.0,257999.99999999997,-199000.00000000003,-1.0,0.0,0.0,0.0,0.0,0.0,0.0,0.0,0.0
1729403418.2351649,2371,1729403418,232631688,base_link,271000.0,252999.99999999997,-196000.00000000003,-1.0,0.0,0.0,0.0,0.0,0.0,0.0,0.0,0.0
1729403418.3308237,2372,1729403418,328320336,base_link,274000.0,258999.99999999997,-201000.00000000003,-1.0,0.0,0.0,0.0,0.0,0.0,0.0,0.0,0.0
1729403418.4327796,2373,1729403418,430541704,base_link,266000.0,257999.99999999997,-199000.00000000003,-1.0,0.0,0.0,0.0,0.0,0.0,0.0,0.0,0.0
1729403418.5321274,2374,1729403418,530504792,base_link,264000.0,255999.99999999997,-198000.00000000003,-1.0,0.0,0.0,0.0,0.0,0.0,0.0,0.0,0.0
1729403418.6326938,2375,1729403418,630243232,base_link,277000.0,257999.99999999997,-195000.00000000003,-1.0,0.0,0.0,0.0,0.0,0.0,0.0,0.0,0.0
1729403418.734699,2376,1729403418,732418880,base_link,272000.0,256999.99999999997,-197000.00000000003,-1.0,0.0,0.0,0.0,0.0,0.0,0.0,0.0,0.0
1729403418.8345091,2377,1729403418,832547528,base_link,276000.0,256999.99999999997,-194000.00000000003,-1.0,0.0,0.0,0.0,0.0,0.0,0.0,0.0,0.0
1729403418.931254,2378,1729403418,929838176,base_link,271000.0,255999.99999999997,-195000.00000000003,-1.0,0.0,0.0,0.0,0.0,0.0,0.0,0.0,0.0
1729403419.0314007,2379,1729403419,30041080,base_link,275000.0,256999.99999999997,-195000.00000000003,-1.0,0.0,0.0,0.0,0.0,0.0,0.0,0.0,0.0
1729403419.132084,2380,1729403419,130398264,base_link,263000.0,255999.99999999997,-200000.00000000003,-1.0,0.0,0.0,0.0,0.0,0.0,0.0,0.0,0.0
1729403419.231795,2381,1729403419,230262960,base_link,269000.0,256999.99999999997,-199000.00000000003,-1.0,0.0,0.0,0.0,0.0,0.0,0.0,0.0,0.0
1729403419.3323102,2382,1729403419,330144584,base_link,272000.0,257999.99999999997,-193000.00000000003,-1.0,0.0,0.0,0.0,0.0,0.0,0.0,0.0,0.0
1729403419.4320452,2383,1729403419,430526280,base_link,270000.0,256999.99999999997,-203000.00000000003,-1.0,0.0,0.0,0.0,0.0,0.0,0.0,0.0,0.0
1729403419.531683,2384,1729403419,530055184,base_link,275000.0,255999.99999999997,-196000.00000000003,-1.0,0.0,0.0,0.0,0.0,0.0,0.0,0.0,0.0
1729403419.6321807,2385,1729403419,630089832,base_link,270000.0,255999.99999999997,-200000.00000000003,-1.0,0.0,0.0,0.0,0.0,0.0,0.0,0.0,0.0
1729403419.7310195,2386,1729403419,728274736,base_link,275000.0,256999.99999999997,-196000.00000000003,-1.0,0.0,0.0,0.0,0.0,0.0,0.0,0.0,0.0
1729403419.832943,2387,1729403419,830497360,base_link,268000.0,255999.99999999997,-198000.00000000003,-1.0,0.0,0.0,0.0,0.0,0.0,0.0,0.0,0.0
1729403419.9320698,2388,1729403419,930447448,base_link,263000.0,260999.99999999997,-202000.00000000003,-1.0,0.0,0.0,0.0,0.0,0.0,0.0,0.0,0.0
1729403420.0314727,2389,1729403420,30239328,base_link,275000.0,263000.0,-187000.00000000003,-1.0,0.0,0.0,0.0,0.0,0.0,0.0,0.0,0.0
1729403420.129837,2390,1729403420,128366744,base_link,274000.0,264000.0,-194000.00000000003,-1.0,0.0,0.0,0.0,0.0,0.0,0.0,0.0,0.0
1729403420.2339659,2391,1729403420,232353952,base_link,282000.0,268000.0,-187000.00000000003,-1.0,0.0,0.0,0.0,0.0,0.0,0.0,0.0,0.0
1729403420.3315532,2392,1729403420,329991112,base_link,273000.0,265000.0,-191000.00000000003,-1.0,0.0,0.0,0.0,0.0,0.0,0.0,0.0,0.0
1729403420.431384,2393,1729403420,430083016,base_link,278000.0,258999.99999999997,-193000.00000000003,-1.0,0.0,0.0,0.0,0.0,0.0,0.0,0.0,0.0
1729403420.5298188,2394,1729403420,528298896,base_link,270000.0,256999.99999999997,-195000.00000000003,-1.0,0.0,0.0,0.0,0.0,0.0,0.0,0.0,0.0
1729403420.6320708,2395,1729403420,630468848,base_link,267000.0,260999.99999999997,-199000.00000000003,-1.0,0.0,0.0,0.0,0.0,0.0,0.0,0.0,0.0
1729403420.7333906,2396,1729403420,732461800,base_link,270000.0,258999.99999999997,-197000.00000000003,-1.0,0.0,0.0,0.0,0.0,0.0,0.0,0.0,0.0
1729403420.8347762,2397,1729403420,830340216,base_link,270000.0,257999.99999999997,-199000.00000000003,-1.0,0.0,0.0,0.0,0.0,0.0,0.0,0.0,0.0
1729403420.9328403,2398,1729403420,930327424,base_link,276000.0,255999.99999999997,-197000.00000000003,-1.0,0.0,0.0,0.0,0.0,0.0,0.0,0.0,0.0
1729403421.0323493,2399,1729403421,29971232,base_link,273000.0,256999.99999999997,-199000.00000000003,-1.0,0.0,0.0,0.0,0.0,0.0,0.0,0.0,0.0
1729403421.1307003,2400,1729403421,128415648,base_link,267000.0,257999.99999999997,-199000.00000000003,-1.0,0.0,0.0,0.0,0.0,0.0,0.0,0.0,0.0
1729403421.234735,2401,1729403421,230424280,base_link,274000.0,257999.99999999997,-197000.00000000003,-1.0,0.0,0.0,0.0,0.0,0.0,0.0,0.0,0.0
1729403421.3326743,2402,1729403421,330286488,base_link,267000.0,258999.99999999997,-199000.00000000003,-1.0,0.0,0.0,0.0,0.0,0.0,0.0,0.0,0.0
1729403421.4340262,2403,1729403421,432516696,base_link,274000.0,256999.99999999997,-192000.00000000003,-1.0,0.0,0.0,0.0,0.0,0.0,0.0,0.0,0.0
1729403421.5311413,2404,1729403421,529938112,base_link,266000.0,257999.99999999997,-200000.00000000003,-1.0,0.0,0.0,0.0,0.0,0.0,0.0,0.0,0.0
1729403421.6337504,2405,1729403421,632422784,base_link,268000.0,257999.99999999997,-195000.00000000003,-1.0,0.0,0.0,0.0,0.0,0.0,0.0,0.0,0.0
1729403421.732999,2406,1729403421,730148456,base_link,273000.0,257999.99999999997,-195000.00000000003,-1.0,0.0,0.0,0.0,0.0,0.0,0.0,0.0,0.0
1729403421.8310988,2407,1729403421,829885592,base_link,268000.0,255999.99999999997,-199000.00000000003,-1.0,0.0,0.0,0.0,0.0,0.0,0.0,0.0,0.0
1729403421.932234,2408,1729403421,930163448,base_link,273000.0,256999.99999999997,-197000.00000000003,-1.0,0.0,0.0,0.0,0.0,0.0,0.0,0.0,0.0
1729403422.0325031,2409,1729403422,30243840,base_link,267000.0,254999.99999999997,-199000.00000000003,-1.0,0.0,0.0,0.0,0.0,0.0,0.0,0.0,0.0
1729403422.1342185,2410,1729403422,132328160,base_link,264000.0,256999.99999999997,-202000.00000000003,-1.0,0.0,0.0,0.0,0.0,0.0,0.0,0.0,0.0
1729403422.231929,2411,1729403422,230166088,base_link,265000.0,255999.99999999997,-199000.00000000003,-1.0,0.0,0.0,0.0,0.0,0.0,0.0,0.0,0.0
1729403422.3332326,2412,1729403422,330202016,base_link,267000.0,256999.99999999997,-199000.00000000003,-1.0,0.0,0.0,0.0,0.0,0.0,0.0,0.0,0.0
1729403422.4317594,2413,1729403422,429945408,base_link,275000.0,257999.99999999997,-195000.00000000003,-1.0,0.0,0.0,0.0,0.0,0.0,0.0,0.0,0.0
1729403422.5337214,2414,1729403422,532440776,base_link,267000.0,257999.99999999997,-198000.00000000003,-1.0,0.0,0.0,0.0,0.0,0.0,0.0,0.0,0.0
1729403422.633456,2415,1729403422,630272144,base_link,275000.0,256999.99999999997,-194000.00000000003,-1.0,0.0,0.0,0.0,0.0,0.0,0.0,0.0,0.0
1729403422.7355294,2416,1729403422,732376464,base_link,268000.0,256999.99999999997,-199000.00000000003,-1.0,0.0,0.0,0.0,0.0,0.0,0.0,0.0,0.0
1729403422.8330526,2417,1729403422,830382040,base_link,273000.0,257999.99999999997,-194000.00000000003,-1.0,0.0,0.0,0.0,0.0,0.0,0.0,0.0,0.0
1729403422.9336267,2418,1729403422,930356616,base_link,263000.0,256999.99999999997,-201000.00000000003,-1.0,0.0,0.0,0.0,0.0,0.0,0.0,0.0,0.0
1729403423.0328143,2419,1729403423,30110680,base_link,263000.0,256999.99999999997,-195000.00000000003,-1.0,0.0,0.0,0.0,0.0,0.0,0.0,0.0,0.0
1729403423.1317775,2420,1729403423,129853328,base_link,275000.0,256999.99999999997,-197000.00000000003,-1.0,0.0,0.0,0.0,0.0,0.0,0.0,0.0,0.0
1729403423.233756,2421,1729403423,229968000,base_link,270000.0,255999.99999999997,-198000.00000000003,-1.0,0.0,0.0,0.0,0.0,0.0,0.0,0.0,0.0
1729403423.332287,2422,1729403423,329833672,base_link,276000.0,255999.99999999997,-194000.00000000003,-1.0,0.0,0.0,0.0,0.0,0.0,0.0,0.0,0.0
1729403423.4327233,2423,1729403423,430318504,base_link,270000.0,256999.99999999997,-197000.00000000003,-1.0,0.0,0.0,0.0,0.0,0.0,0.0,0.0,0.0
1729403423.5353656,2424,1729403423,532189408,base_link,274000.0,258999.99999999997,-196000.00000000003,-1.0,0.0,0.0,0.0,0.0,0.0,0.0,0.0,0.0
1729403423.6341245,2425,1729403423,632539056,base_link,268000.0,255999.99999999997,-197000.00000000003,-1.0,0.0,0.0,0.0,0.0,0.0,0.0,0.0,0.0
1729403423.7318394,2426,1729403423,729838960,base_link,263000.0,257999.99999999997,-201000.00000000003,-1.0,0.0,0.0,0.0,0.0,0.0,0.0,0.0,0.0
1729403423.8317347,2427,1729403423,829828864,base_link,272000.0,254999.99999999997,-193000.00000000003,-1.0,0.0,0.0,0.0,0.0,0.0,0.0,0.0,0.0
1729403423.9328895,2428,1729403423,930106744,base_link,270000.0,256999.99999999997,-199000.00000000003,-1.0,0.0,0.0,0.0,0.0,0.0,0.0,0.0,0.0
1729403424.0320566,2429,1729403424,30187832,base_link,278000.0,257999.99999999997,-193000.00000000003,-1.0,0.0,0.0,0.0,0.0,0.0,0.0,0.0,0.0
1729403424.1309345,2430,1729403424,130002784,base_link,269000.0,256999.99999999997,-197000.00000000003,-1.0,0.0,0.0,0.0,0.0,0.0,0.0,0.0,0.0
1729403424.2332184,2431,1729403424,230305480,base_link,277000.0,256999.99999999997,-195000.00000000003,-1.0,0.0,0.0,0.0,0.0,0.0,0.0,0.0,0.0
1729403424.3322594,2432,1729403424,329857824,base_link,269000.0,255999.99999999997,-198000.00000000003,-1.0,0.0,0.0,0.0,0.0,0.0,0.0,0.0,0.0
1729403424.4313047,2433,1729403424,429793984,base_link,265000.0,258999.99999999997,-198000.00000000003,-1.0,0.0,0.0,0.0,0.0,0.0,0.0,0.0,0.0
1729403424.53592,2434,1729403424,534844144,base_link,272000.0,255999.99999999997,-198000.00000000003,-1.0,0.0,0.0,0.0,0.0,0.0,0.0,0.0,0.0
1729403424.631242,2435,1729403424,630144024,base_link,270000.0,255999.99999999997,-200000.00000000003,-1.0,0.0,0.0,0.0,0.0,0.0,0.0,0.0,0.0
1729403424.7320004,2436,1729403424,730160832,base_link,276000.0,255999.99999999997,-195000.00000000003,-1.0,0.0,0.0,0.0,0.0,0.0,0.0,0.0,0.0
1729403424.8309581,2437,1729403424,829908640,base_link,272000.0,256999.99999999997,-195000.00000000003,-1.0,0.0,0.0,0.0,0.0,0.0,0.0,0.0,0.0
1729403424.9312615,2438,1729403424,929765056,base_link,276000.0,255999.99999999997,-197000.00000000003,-1.0,0.0,0.0,0.0,0.0,0.0,0.0,0.0,0.0
1729403425.03279,2439,1729403425,30076888,base_link,273000.0,255999.99999999997,-195000.00000000003,-1.0,0.0,0.0,0.0,0.0,0.0,0.0,0.0,0.0
1729403425.1339877,2440,1729403425,132440024,base_link,266000.0,256999.99999999997,-199000.00000000003,-1.0,0.0,0.0,0.0,0.0,0.0,0.0,0.0,0.0
1729403425.2337565,2441,1729403425,230008440,base_link,272000.0,256999.99999999997,-192000.00000000003,-1.0,0.0,0.0,0.0,0.0,0.0,0.0,0.0,0.0
1729403425.332128,2442,1729403425,330112088,base_link,269000.0,257999.99999999997,-197000.00000000003,-1.0,0.0,0.0,0.0,0.0,0.0,0.0,0.0,0.0
1729403425.4322975,2443,1729403425,430089152,base_link,277000.0,255999.99999999997,-194000.00000000003,-1.0,0.0,0.0,0.0,0.0,0.0,0.0,0.0,0.0
1729403425.5314999,2444,1729403425,529927496,base_link,273000.0,255999.99999999997,-197000.00000000003,-1.0,0.0,0.0,0.0,0.0,0.0,0.0,0.0,0.0
1729403425.6331115,2445,1729403425,632085168,base_link,276000.0,256999.99999999997,-193000.00000000003,-1.0,0.0,0.0,0.0,0.0,0.0,0.0,0.0,0.0
1729403425.7344544,2446,1729403425,732309096,base_link,273000.0,255999.99999999997,-197000.00000000003,-1.0,0.0,0.0,0.0,0.0,0.0,0.0,0.0,0.0
1729403425.8348434,2447,1729403425,832652768,base_link,266000.0,256999.99999999997,-199000.00000000003,-1.0,0.0,0.0,0.0,0.0,0.0,0.0,0.0,0.0
1729403425.9317937,2448,1729403425,929963440,base_link,266000.0,260999.99999999997,-200000.00000000003,-1.0,0.0,0.0,0.0,0.0,0.0,0.0,0.0,0.0
1729403426.034056,2449,1729403426,30226992,base_link,266000.0,261999.99999999997,-198000.00000000003,-1.0,0.0,0.0,0.0,0.0,0.0,0.0,0.0,0.0
1729403426.1334465,2450,1729403426,132189312,base_link,276000.0,259999.99999999997,-197000.00000000003,-1.0,0.0,0.0,0.0,0.0,0.0,0.0,0.0,0.0
1729403426.2318268,2451,1729403426,230041936,base_link,273000.0,256999.99999999997,-196000.00000000003,-1.0,0.0,0.0,0.0,0.0,0.0,0.0,0.0,0.0
1729403426.3337214,2452,1729403426,332066864,base_link,277000.0,256999.99999999997,-195000.00000000003,-1.0,0.0,0.0,0.0,0.0,0.0,0.0,0.0,0.0
1729403426.4317412,2453,1729403426,430185928,base_link,272000.0,253999.99999999997,-192000.00000000003,-1.0,0.0,0.0,0.0,0.0,0.0,0.0,0.0,0.0
1729403426.5319126,2454,1729403426,529636576,base_link,266000.0,256999.99999999997,-202000.00000000003,-1.0,0.0,0.0,0.0,0.0,0.0,0.0,0.0,0.0
1729403426.6332197,2455,1729403426,632056504,base_link,266000.0,256999.99999999997,-194000.00000000003,-1.0,0.0,0.0,0.0,0.0,0.0,0.0,0.0,0.0
1729403426.734473,2456,1729403426,732621944,base_link,265000.0,256999.99999999997,-202000.00000000003,-1.0,0.0,0.0,0.0,0.0,0.0,0.0,0.0,0.0
1729403426.832039,2457,1729403426,830194264,base_link,267000.0,256999.99999999997,-195000.00000000003,-1.0,0.0,0.0,0.0,0.0,0.0,0.0,0.0,0.0
1729403426.9322677,2458,1729403426,930038584,base_link,273000.0,257999.99999999997,-197000.00000000003,-1.0,0.0,0.0,0.0,0.0,0.0,0.0,0.0,0.0
1729403427.032171,2459,1729403427,30149904,base_link,268000.0,256999.99999999997,-199000.00000000003,-1.0,0.0,0.0,0.0,0.0,0.0,0.0,0.0,0.0
1729403427.1319053,2460,1729403427,129659088,base_link,276000.0,256999.99999999997,-196000.00000000003,-1.0,0.0,0.0,0.0,0.0,0.0,0.0,0.0,0.0
1729403427.2330914,2461,1729403427,229732992,base_link,270000.0,257999.99999999997,-200000.00000000003,-1.0,0.0,0.0,0.0,0.0,0.0,0.0,0.0,0.0
1729403427.3345087,2462,1729403427,332009640,base_link,274000.0,256999.99999999997,-197000.00000000003,-1.0,0.0,0.0,0.0,0.0,0.0,0.0,0.0,0.0
1729403427.4308975,2463,1729403427,427972080,base_link,264000.0,255999.99999999997,-199000.00000000003,-1.0,0.0,0.0,0.0,0.0,0.0,0.0,0.0,0.0
1729403427.5330975,2464,1729403427,530007912,base_link,264000.0,255999.99999999997,-199000.00000000003,-1.0,0.0,0.0,0.0,0.0,0.0,0.0,0.0,0.0
1729403427.6326234,2465,1729403427,630001000,base_link,276000.0,255999.99999999997,-192000.00000000003,-1.0,0.0,0.0,0.0,0.0,0.0,0.0,0.0,0.0
1729403427.7322495,2466,1729403427,729918832,base_link,269000.0,256999.99999999997,-200000.00000000003,-1.0,0.0,0.0,0.0,0.0,0.0,0.0,0.0,0.0
1729403427.831073,2467,1729403427,829650736,base_link,275000.0,255999.99999999997,-192000.00000000003,-1.0,0.0,0.0,0.0,0.0,0.0,0.0,0.0,0.0
1729403427.9315755,2468,1729403427,929729896,base_link,267000.0,256999.99999999997,-200000.00000000003,-1.0,0.0,0.0,0.0,0.0,0.0,0.0,0.0,0.0
1729403428.032585,2469,1729403428,29973216,base_link,274000.0,255999.99999999997,-192000.00000000003,-1.0,0.0,0.0,0.0,0.0,0.0,0.0,0.0,0.0
1729403428.1331544,2470,1729403428,130087096,base_link,266000.0,256999.99999999997,-199000.00000000003,-1.0,0.0,0.0,0.0,0.0,0.0,0.0,0.0,0.0
1729403428.233194,2471,1729403428,229920488,base_link,263000.0,257999.99999999997,-200000.00000000003,-1.0,0.0,0.0,0.0,0.0,0.0,0.0,0.0,0.0
1729403428.3335874,2472,1729403428,331940576,base_link,271000.0,258999.99999999997,-195000.00000000003,-1.0,0.0,0.0,0.0,0.0,0.0,0.0,0.0,0.0
1729403428.4336023,2473,1729403428,432048664,base_link,270000.0,257999.99999999997,-198000.00000000003,-1.0,0.0,0.0,0.0,0.0,0.0,0.0,0.0,0.0
1729403428.5294373,2474,1729403428,527744568,base_link,275000.0,255999.99999999997,-195000.00000000003,-1.0,0.0,0.0,0.0,0.0,0.0,0.0,0.0,0.0
1729403428.6323602,2475,1729403428,629876728,base_link,272000.0,254999.99999999997,-196000.00000000003,-1.0,0.0,0.0,0.0,0.0,0.0,0.0,0.0,0.0
1729403428.734439,2476,1729403428,731982560,base_link,275000.0,255999.99999999997,-196000.00000000003,-1.0,0.0,0.0,0.0,0.0,0.0,0.0,0.0,0.0
1729403428.8324742,2477,1729403428,830041696,base_link,269000.0,254999.99999999997,-194000.00000000003,-1.0,0.0,0.0,0.0,0.0,0.0,0.0,0.0,0.0
1729403428.9326332,2478,1729403428,929942784,base_link,262000.0,255999.99999999997,-204000.00000000003,-1.0,0.0,0.0,0.0,0.0,0.0,0.0,0.0,0.0
1729403429.0316155,2479,1729403429,30003616,base_link,272000.0,253999.99999999997,-191000.00000000003,-1.0,0.0,0.0,0.0,0.0,0.0,0.0,0.0,0.0
1729403429.1306643,2480,1729403429,129749960,base_link,271000.0,256999.99999999997,-198000.00000000003,-1.0,0.0,0.0,0.0,0.0,0.0,0.0,0.0,0.0
1729403429.2317088,2481,1729403429,229865632,base_link,278000.0,256999.99999999997,-191000.00000000003,-1.0,0.0,0.0,0.0,0.0,0.0,0.0,0.0,0.0
1729403429.3320227,2482,1729403429,329570304,base_link,271000.0,256999.99999999997,-198000.00000000003,-1.0,0.0,0.0,0.0,0.0,0.0,0.0,0.0,0.0
1729403429.4327989,2483,1729403429,430080376,base_link,268000.0,257999.99999999997,-199000.00000000003,-1.0,0.0,0.0,0.0,0.0,0.0,0.0,0.0,0.0
1729403429.532517,2484,1729403429,529863976,base_link,271000.0,255999.99999999997,-198000.00000000003,-1.0,0.0,0.0,0.0,0.0,0.0,0.0,0.0,0.0
1729403429.6308157,2485,1729403429,629705784,base_link,267000.0,258999.99999999997,-199000.00000000003,-1.0,0.0,0.0,0.0,0.0,0.0,0.0,0.0,0.0
1729403429.7322245,2486,1729403429,730022432,base_link,262000.0,260999.99999999997,-200000.00000000003,-1.0,0.0,0.0,0.0,0.0,0.0,0.0,0.0,0.0
1729403429.833761,2487,1729403429,831974776,base_link,270000.0,256999.99999999997,-197000.00000000003,-1.0,0.0,0.0,0.0,0.0,0.0,0.0,0.0,0.0
1729403429.9313686,2488,1729403429,927839448,base_link,268000.0,256999.99999999997,-198000.00000000003,-1.0,0.0,0.0,0.0,0.0,0.0,0.0,0.0,0.0
1729403430.0318174,2489,1729403430,29504792,base_link,273000.0,257999.99999999997,-193000.00000000003,-1.0,0.0,0.0,0.0,0.0,0.0,0.0,0.0,0.0
1729403430.1344314,2490,1729403430,132233976,base_link,267000.0,255999.99999999997,-201000.00000000003,-1.0,0.0,0.0,0.0,0.0,0.0,0.0,0.0,0.0
1729403430.2322774,2491,1729403430,229877040,base_link,274000.0,257999.99999999997,-191000.00000000003,-1.0,0.0,0.0,0.0,0.0,0.0,0.0,0.0,0.0
1729403430.3317254,2492,1729403430,329868432,base_link,266000.0,255999.99999999997,-201000.00000000003,-1.0,0.0,0.0,0.0,0.0,0.0,0.0,0.0,0.0
1729403430.4343555,2493,1729403430,431837496,base_link,265000.0,256999.99999999997,-194000.00000000003,-1.0,0.0,0.0,0.0,0.0,0.0,0.0,0.0,0.0
1729403430.5316484,2494,1729403430,529572424,base_link,265000.0,257999.99999999997,-199000.00000000003,-1.0,0.0,0.0,0.0,0.0,0.0,0.0,0.0,0.0
1729403430.6328228,2495,1729403430,631848352,base_link,268000.0,256999.99999999997,-196000.00000000003,-1.0,0.0,0.0,0.0,0.0,0.0,0.0,0.0,0.0
1729403430.7337594,2496,1729403430,732212536,base_link,276000.0,259999.99999999997,-196000.00000000003,-1.0,0.0,0.0,0.0,0.0,0.0,0.0,0.0,0.0
1729403430.8339684,2497,1729403430,831853440,base_link,272000.0,259999.99999999997,-196000.00000000003,-1.0,0.0,0.0,0.0,0.0,0.0,0.0,0.0,0.0
1729403430.9321187,2498,1729403430,929943344,base_link,276000.0,257999.99999999997,-195000.00000000003,-1.0,0.0,0.0,0.0,0.0,0.0,0.0,0.0,0.0
1729403431.0313349,2499,1729403431,29681456,base_link,268000.0,256999.99999999997,-198000.00000000003,-1.0,0.0,0.0,0.0,0.0,0.0,0.0,0.0,0.0
1729403431.1331537,2500,1729403431,131816032,base_link,266000.0,258999.99999999997,-199000.00000000003,-1.0,0.0,0.0,0.0,0.0,0.0,0.0,0.0,0.0
1729403431.2321553,2501,1729403431,227808864,base_link,269000.0,258999.99999999997,-195000.00000000003,-1.0,0.0,0.0,0.0,0.0,0.0,0.0,0.0,0.0
1729403431.3306706,2502,1729403431,327699048,base_link,267000.0,257999.99999999997,-198000.00000000003,-1.0,0.0,0.0,0.0,0.0,0.0,0.0,0.0,0.0
1729403431.4339821,2503,1729403431,432159976,base_link,275000.0,257999.99999999997,-193000.00000000003,-1.0,0.0,0.0,0.0,0.0,0.0,0.0,0.0,0.0
1729403431.5323446,2504,1729403431,530013392,base_link,269000.0,257999.99999999997,-199000.00000000003,-1.0,0.0,0.0,0.0,0.0,0.0,0.0,0.0,0.0
1729403431.6336913,2505,1729403431,631897968,base_link,277000.0,257999.99999999997,-192000.00000000003,-1.0,0.0,0.0,0.0,0.0,0.0,0.0,0.0,0.0
1729403431.7326844,2506,1729403431,729746544,base_link,269000.0,257999.99999999997,-199000.00000000003,-1.0,0.0,0.0,0.0,0.0,0.0,0.0,0.0,0.0
1729403431.8323083,2507,1729403431,829668984,base_link,273000.0,255999.99999999997,-195000.00000000003,-1.0,0.0,0.0,0.0,0.0,0.0,0.0,0.0,0.0
1729403431.9323308,2508,1729403431,929766816,base_link,264000.0,258999.99999999997,-202000.00000000003,-1.0,0.0,0.0,0.0,0.0,0.0,0.0,0.0,0.0
1729403432.0329719,2509,1729403432,29460904,base_link,263000.0,255999.99999999997,-198000.00000000003,-1.0,0.0,0.0,0.0,0.0,0.0,0.0,0.0,0.0
1729403432.1311119,2510,1729403432,127883088,base_link,277000.0,257999.99999999997,-199000.00000000003,-1.0,0.0,0.0,0.0,0.0,0.0,0.0,0.0,0.0
1729403432.2331321,2511,1729403432,229961480,base_link,270000.0,257999.99999999997,-199000.00000000003,-1.0,0.0,0.0,0.0,0.0,0.0,0.0,0.0,0.0
1729403432.3317513,2512,1729403432,329843312,base_link,276000.0,255999.99999999997,-195000.00000000003,-1.0,0.0,0.0,0.0,0.0,0.0,0.0,0.0,0.0
1729403432.4330633,2513,1729403432,431935400,base_link,268000.0,256999.99999999997,-202000.00000000003,-1.0,0.0,0.0,0.0,0.0,0.0,0.0,0.0,0.0
1729403432.5305347,2514,1729403432,529422840,base_link,275000.0,255999.99999999997,-198000.00000000003,-1.0,0.0,0.0,0.0,0.0,0.0,0.0,0.0,0.0
1729403432.6333263,2515,1729403432,631886536,base_link,269000.0,255999.99999999997,-194000.00000000003,-1.0,0.0,0.0,0.0,0.0,0.0,0.0,0.0,0.0
1729403432.7313843,2516,1729403432,729376232,base_link,264000.0,260999.99999999997,-202000.00000000003,-1.0,0.0,0.0,0.0,0.0,0.0,0.0,0.0,0.0
1729403432.8319066,2517,1729403432,829163392,base_link,273000.0,255999.99999999997,-191000.00000000003,-1.0,0.0,0.0,0.0,0.0,0.0,0.0,0.0,0.0
1729403432.9320066,2518,1729403432,929555040,base_link,271000.0,257999.99999999997,-200000.00000000003,-1.0,0.0,0.0,0.0,0.0,0.0,0.0,0.0,0.0
1729403433.0332413,2519,1729403433,31705640,base_link,278000.0,257999.99999999997,-190000.00000000003,-1.0,0.0,0.0,0.0,0.0,0.0,0.0,0.0,0.0
1729403433.1337647,2520,1729403433,131716776,base_link,270000.0,256999.99999999997,-202000.00000000003,-1.0,0.0,0.0,0.0,0.0,0.0,0.0,0.0,0.0
1729403433.2353525,2521,1729403433,229593960,base_link,277000.0,257999.99999999997,-193000.00000000003,-1.0,0.0,0.0,0.0,0.0,0.0,0.0,0.0,0.0
1729403433.3312383,2522,1729403433,329494304,base_link,273000.0,263000.0,-195000.00000000003,-1.0,0.0,0.0,0.0,0.0,0.0,0.0,0.0,0.0
1729403433.4321365,2523,1729403433,429341720,base_link,263000.0,256999.99999999997,-201000.00000000003,-1.0,0.0,0.0,0.0,0.0,0.0,0.0,0.0,0.0
1729403433.5328448,2524,1729403433,529794856,base_link,272000.0,256999.99999999997,-196000.00000000003,-1.0,0.0,0.0,0.0,0.0,0.0,0.0,0.0,0.0
1729403433.6338713,2525,1729403433,629499992,base_link,270000.0,254999.99999999997,-196000.00000000003,-1.0,0.0,0.0,0.0,0.0,0.0,0.0,0.0,0.0
1729403433.7357438,2526,1729403433,731692128,base_link,276000.0,258999.99999999997,-196000.00000000003,-1.0,0.0,0.0,0.0,0.0,0.0,0.0,0.0,0.0
1729403433.8367805,2527,1729403433,831705472,base_link,275000.0,258999.99999999997,-192000.00000000003,-1.0,0.0,0.0,0.0,0.0,0.0,0.0,0.0,0.0
1729403433.9334188,2528,1729403433,929677072,base_link,267000.0,257999.99999999997,-199000.00000000003,-1.0,0.0,0.0,0.0,0.0,0.0,0.0,0.0,0.0
1729403434.033063,2529,1729403434,29652416,base_link,273000.0,253999.99999999997,-190000.00000000003,-1.0,0.0,0.0,0.0,0.0,0.0,0.0,0.0,0.0
1729403434.1314623,2530,1729403434,129311016,base_link,266000.0,256999.99999999997,-201000.00000000003,-1.0,0.0,0.0,0.0,0.0,0.0,0.0,0.0,0.0
1729403434.2315116,2531,1729403434,229379360,base_link,263000.0,260999.99999999997,-196000.00000000003,-1.0,0.0,0.0,0.0,0.0,0.0,0.0,0.0,0.0
1729403434.3305552,2532,1729403434,329261936,base_link,269000.0,256999.99999999997,-198000.00000000003,-1.0,0.0,0.0,0.0,0.0,0.0,0.0,0.0,0.0
1729403434.4315057,2533,1729403434,429655280,base_link,268000.0,256999.99999999997,-200000.00000000003,-1.0,0.0,0.0,0.0,0.0,0.0,0.0,0.0,0.0
1729403434.531069,2534,1729403434,529508672,base_link,273000.0,257999.99999999997,-200000.00000000003,-1.0,0.0,0.0,0.0,0.0,0.0,0.0,0.0,0.0
1729403434.6310887,2535,1729403434,629257344,base_link,267000.0,255999.99999999997,-198000.00000000003,-1.0,0.0,0.0,0.0,0.0,0.0,0.0,0.0,0.0
1729403434.7304263,2536,1729403434,727564200,base_link,271000.0,258999.99999999997,-199000.00000000003,-1.0,0.0,0.0,0.0,0.0,0.0,0.0,0.0,0.0
1729403434.8335977,2537,1729403434,831966872,base_link,274000.0,254999.99999999997,-197000.00000000003,-1.0,0.0,0.0,0.0,0.0,0.0,0.0,0.0,0.0
1729403434.931499,2538,1729403434,929621264,base_link,266000.0,258999.99999999997,-201000.00000000003,-1.0,0.0,0.0,0.0,0.0,0.0,0.0,0.0,0.0
1729403435.0335104,2539,1729403435,31712120,base_link,266000.0,254999.99999999997,-196000.00000000003,-1.0,0.0,0.0,0.0,0.0,0.0,0.0,0.0,0.0
1729403435.1318526,2540,1729403435,129481512,base_link,276000.0,256999.99999999997,-197000.00000000003,-1.0,0.0,0.0,0.0,0.0,0.0,0.0,0.0,0.0
1729403435.2328193,2541,1729403435,231604112,base_link,274000.0,258999.99999999997,-191000.00000000003,-1.0,0.0,0.0,0.0,0.0,0.0,0.0,0.0,0.0
1729403435.331784,2542,1729403435,329616432,base_link,267000.0,257999.99999999997,-199000.00000000003,-1.0,0.0,0.0,0.0,0.0,0.0,0.0,0.0,0.0
1729403435.4302654,2543,1729403435,427596288,base_link,274000.0,257999.99999999997,-192000.00000000003,-1.0,0.0,0.0,0.0,0.0,0.0,0.0,0.0,0.0
1729403435.5313425,2544,1729403435,529232120,base_link,274000.0,260999.99999999997,-197000.00000000003,-1.0,0.0,0.0,0.0,0.0,0.0,0.0,0.0,0.0
1729403435.6311362,2545,1729403435,629402024,base_link,268000.0,255999.99999999997,-194000.00000000003,-1.0,0.0,0.0,0.0,0.0,0.0,0.0,0.0,0.0
1729403435.732028,2546,1729403435,729575600,base_link,269000.0,259999.99999999997,-199000.00000000003,-1.0,0.0,0.0,0.0,0.0,0.0,0.0,0.0,0.0
1729403435.8333561,2547,1729403435,829384176,base_link,272000.0,257999.99999999997,-191000.00000000003,-1.0,0.0,0.0,0.0,0.0,0.0,0.0,0.0,0.0
1729403435.931414,2548,1729403435,929189848,base_link,272000.0,258999.99999999997,-200000.00000000003,-1.0,0.0,0.0,0.0,0.0,0.0,0.0,0.0,0.0
1729403436.0322158,2549,1729403436,29492960,base_link,268000.0,257999.99999999997,-197000.00000000003,-1.0,0.0,0.0,0.0,0.0,0.0,0.0,0.0,0.0
1729403436.1336105,2550,1729403436,131876768,base_link,273000.0,255999.99999999997,-200000.00000000003,-1.0,0.0,0.0,0.0,0.0,0.0,0.0,0.0,0.0
1729403436.2321792,2551,1729403436,229373696,base_link,269000.0,256999.99999999997,-195000.00000000003,-1.0,0.0,0.0,0.0,0.0,0.0,0.0,0.0,0.0
1729403436.3316343,2552,1729403436,329467112,base_link,270000.0,255999.99999999997,-197000.00000000003,-1.0,0.0,0.0,0.0,0.0,0.0,0.0,0.0,0.0
1729403436.4314408,2553,1729403436,429634088,base_link,264000.0,257999.99999999997,-199000.00000000003,-1.0,0.0,0.0,0.0,0.0,0.0,0.0,0.0,0.0
1729403436.532169,2554,1729403436,529359248,base_link,261000.0,256999.99999999997,-200000.00000000003,-1.0,0.0,0.0,0.0,0.0,0.0,0.0,0.0,0.0
1729403436.6316605,2555,1729403436,629203824,base_link,272000.0,257999.99999999997,-195000.00000000003,-1.0,0.0,0.0,0.0,0.0,0.0,0.0,0.0,0.0
1729403436.7328498,2556,1729403436,731647192,base_link,276000.0,256999.99999999997,-198000.00000000003,-1.0,0.0,0.0,0.0,0.0,0.0,0.0,0.0,0.0
1729403436.8316534,2557,1729403436,829203120,base_link,271000.0,257999.99999999997,-194000.00000000003,-1.0,0.0,0.0,0.0,0.0,0.0,0.0,0.0,0.0
1729403436.9319847,2558,1729403436,929653208,base_link,267000.0,259999.99999999997,-197000.00000000003,-1.0,0.0,0.0,0.0,0.0,0.0,0.0,0.0,0.0
1729403437.0315213,2559,1729403437,29645832,base_link,272000.0,257999.99999999997,-193000.00000000003,-1.0,0.0,0.0,0.0,0.0,0.0,0.0,0.0,0.0
1729403437.13362,2560,1729403437,131686432,base_link,265000.0,255999.99999999997,-203000.00000000003,-1.0,0.0,0.0,0.0,0.0,0.0,0.0,0.0,0.0
1729403437.2317915,2561,1729403437,229474520,base_link,272000.0,258999.99999999997,-195000.00000000003,-1.0,0.0,0.0,0.0,0.0,0.0,0.0,0.0,0.0
1729403437.3329523,2562,1729403437,331488608,base_link,270000.0,257999.99999999997,-202000.00000000003,-1.0,0.0,0.0,0.0,0.0,0.0,0.0,0.0,0.0
1729403437.433195,2563,1729403437,431470696,base_link,278000.0,255999.99999999997,-194000.00000000003,-1.0,0.0,0.0,0.0,0.0,0.0,0.0,0.0,0.0
1729403437.5312297,2564,1729403437,529145040,base_link,271000.0,259999.99999999997,-201000.00000000003,-1.0,0.0,0.0,0.0,0.0,0.0,0.0,0.0,0.0
1729403437.6323774,2565,1729403437,629257128,base_link,277000.0,254999.99999999997,-192000.00000000003,-1.0,0.0,0.0,0.0,0.0,0.0,0.0,0.0,0.0
1729403437.7341843,2566,1729403437,732079448,base_link,271000.0,259999.99999999997,-201000.00000000003,-1.0,0.0,0.0,0.0,0.0,0.0,0.0,0.0,0.0
1729403437.8319304,2567,1729403437,829616048,base_link,267000.0,257999.99999999997,-195000.00000000003,-1.0,0.0,0.0,0.0,0.0,0.0,0.0,0.0,0.0
1729403437.9321175,2568,1729403437,929447136,base_link,272000.0,258999.99999999997,-195000.00000000003,-1.0,0.0,0.0,0.0,0.0,0.0,0.0,0.0,0.0
1729403438.032937,2569,1729403438,31572736,base_link,266000.0,254999.99999999997,-195000.00000000003,-1.0,0.0,0.0,0.0,0.0,0.0,0.0,0.0,0.0
1729403438.130674,2570,1729403438,127408824,base_link,275000.0,255999.99999999997,-195000.00000000003,-1.0,0.0,0.0,0.0,0.0,0.0,0.0,0.0,0.0
1729403438.2317045,2571,1729403438,229438168,base_link,272000.0,256999.99999999997,-194000.00000000003,-1.0,0.0,0.0,0.0,0.0,0.0,0.0,0.0,0.0
1729403438.3317113,2572,1729403438,329300512,base_link,276000.0,260999.99999999997,-197000.00000000003,-1.0,0.0,0.0,0.0,0.0,0.0,0.0,0.0,0.0
1729403438.4340045,2573,1729403438,429250112,base_link,272000.0,256999.99999999997,-195000.00000000003,-1.0,0.0,0.0,0.0,0.0,0.0,0.0,0.0,0.0
1729403438.5355017,2574,1729403438,531383504,base_link,274000.0,257999.99999999997,-200000.00000000003,-1.0,0.0,0.0,0.0,0.0,0.0,0.0,0.0,0.0
1729403438.6364155,2575,1729403438,629519104,base_link,266000.0,256999.99999999997,-196000.00000000003,-1.0,0.0,0.0,0.0,0.0,0.0,0.0,0.0,0.0
1729403438.7327704,2576,1729403438,729557704,base_link,263000.0,255999.99999999997,-204000.00000000003,-1.0,0.0,0.0,0.0,0.0,0.0,0.0,0.0,0.0
1729403438.8313797,2577,1729403438,829067304,base_link,276000.0,256999.99999999997,-193000.00000000003,-1.0,0.0,0.0,0.0,0.0,0.0,0.0,0.0,0.0
1729403438.9304996,2578,1729403438,929011160,base_link,270000.0,257999.99999999997,-200000.00000000003,-1.0,0.0,0.0,0.0,0.0,0.0,0.0,0.0,0.0
1729403439.0332122,2579,1729403439,31530760,base_link,275000.0,255999.99999999997,-195000.00000000003,-1.0,0.0,0.0,0.0,0.0,0.0,0.0,0.0,0.0
1729403439.1331508,2580,1729403439,131737152,base_link,271000.0,257999.99999999997,-196000.00000000003,-1.0,0.0,0.0,0.0,0.0,0.0,0.0,0.0,0.0
1729403439.2341478,2581,1729403439,231492008,base_link,268000.0,255999.99999999997,-199000.00000000003,-1.0,0.0,0.0,0.0,0.0,0.0,0.0,0.0,0.0
1729403439.335527,2582,1729403439,331376608,base_link,270000.0,256999.99999999997,-194000.00000000003,-1.0,0.0,0.0,0.0,0.0,0.0,0.0,0.0,0.0
1729403439.4354997,2583,1729403439,431366464,base_link,265000.0,259999.99999999997,-198000.00000000003,-1.0,0.0,0.0,0.0,0.0,0.0,0.0,0.0,0.0
1729403439.534316,2584,1729403439,529158064,base_link,272000.0,258999.99999999997,-195000.00000000003,-1.0,0.0,0.0,0.0,0.0,0.0,0.0,0.0,0.0
1729403439.6325684,2585,1729403439,629434176,base_link,273000.0,257999.99999999997,-194000.00000000003,-1.0,0.0,0.0,0.0,0.0,0.0,0.0,0.0,0.0
1729403439.7311828,2586,1729403439,729430032,base_link,276000.0,258999.99999999997,-196000.00000000003,-1.0,0.0,0.0,0.0,0.0,0.0,0.0,0.0,0.0
1729403439.8314755,2587,1729403439,829248144,base_link,272000.0,255999.99999999997,-194000.00000000003,-1.0,0.0,0.0,0.0,0.0,0.0,0.0,0.0,0.0
1729403439.9311664,2588,1729403439,929417256,base_link,275000.0,256999.99999999997,-199000.00000000003,-1.0,0.0,0.0,0.0,0.0,0.0,0.0,0.0,0.0
1729403440.0314376,2589,1729403440,29408368,base_link,271000.0,254999.99999999997,-195000.00000000003,-1.0,0.0,0.0,0.0,0.0,0.0,0.0,0.0,0.0
1729403440.1314952,2590,1729403440,129407480,base_link,265000.0,256999.99999999997,-203000.00000000003,-1.0,0.0,0.0,0.0,0.0,0.0,0.0,0.0,0.0
1729403440.2310011,2591,1729403440,228927176,base_link,271000.0,257999.99999999997,-195000.00000000003,-1.0,0.0,0.0,0.0,0.0,0.0,0.0,0.0,0.0
1729403440.3322682,2592,1729403440,329435288,base_link,269000.0,257999.99999999997,-199000.00000000003,-1.0,0.0,0.0,0.0,0.0,0.0,0.0,0.0,0.0
1729403440.4337971,2593,1729403440,431469120,base_link,278000.0,259999.99999999997,-190000.00000000003,-1.0,0.0,0.0,0.0,0.0,0.0,0.0,0.0,0.0
1729403440.5311773,2594,1729403440,529416952,base_link,270000.0,256999.99999999997,-196000.00000000003,-1.0,0.0,0.0,0.0,0.0,0.0,0.0,0.0,0.0
1729403440.6311743,2595,1729403440,629092528,base_link,277000.0,258999.99999999997,-194000.00000000003,-1.0,0.0,0.0,0.0,0.0,0.0,0.0,0.0,0.0
1729403440.7311988,2596,1729403440,729293944,base_link,272000.0,257999.99999999997,-195000.00000000003,-1.0,0.0,0.0,0.0,0.0,0.0,0.0,0.0,0.0
1729403440.8317745,2597,1729403440,829257568,base_link,267000.0,256999.99999999997,-198000.00000000003,-1.0,0.0,0.0,0.0,0.0,0.0,0.0,0.0,0.0
1729403440.9292343,2598,1729403440,927228656,base_link,263000.0,258999.99999999997,-200000.00000000003,-1.0,0.0,0.0,0.0,0.0,0.0,0.0,0.0,0.0
1729403441.0311646,2599,1729403441,28934280,base_link,271000.0,256999.99999999997,-194000.00000000003,-1.0,0.0,0.0,0.0,0.0,0.0,0.0,0.0,0.0
1729403441.1352108,2600,1729403441,131783136,base_link,268000.0,258999.99999999997,-202000.00000000003,-1.0,0.0,0.0,0.0,0.0,0.0,0.0,0.0,0.0
1729403441.2342138,2601,1729403441,231391832,base_link,272000.0,257999.99999999997,-195000.00000000003,-1.0,0.0,0.0,0.0,0.0,0.0,0.0,0.0,0.0
1729403441.3328712,2602,1729403441,331349920,base_link,266000.0,257999.99999999997,-201000.00000000003,-1.0,0.0,0.0,0.0,0.0,0.0,0.0,0.0,0.0
1729403441.433831,2603,1729403441,431393008,base_link,276000.0,255999.99999999997,-195000.00000000003,-1.0,0.0,0.0,0.0,0.0,0.0,0.0,0.0,0.0
1729403441.5331297,2604,1729403441,529023096,base_link,267000.0,256999.99999999997,-201000.00000000003,-1.0,0.0,0.0,0.0,0.0,0.0,0.0,0.0,0.0
1729403441.6320405,2605,1729403441,628900696,base_link,268000.0,257999.99999999997,-197000.00000000003,-1.0,0.0,0.0,0.0,0.0,0.0,0.0,0.0,0.0
1729403441.731029,2606,1729403441,728848552,base_link,266000.0,259999.99999999997,-198000.00000000003,-1.0,0.0,0.0,0.0,0.0,0.0,0.0,0.0,0.0
1729403441.83217,2607,1729403441,829191224,base_link,268000.0,256999.99999999997,-197000.00000000003,-1.0,0.0,0.0,0.0,0.0,0.0,0.0,0.0,0.0
1729403441.9316497,2608,1729403441,929225824,base_link,275000.0,258999.99999999997,-196000.00000000003,-1.0,0.0,0.0,0.0,0.0,0.0,0.0,0.0,0.0
1729403442.031524,2609,1729403442,29047912,base_link,269000.0,256999.99999999997,-196000.00000000003,-1.0,0.0,0.0,0.0,0.0,0.0,0.0,0.0,0.0
1729403442.130796,2610,1729403442,128966512,base_link,274000.0,256999.99999999997,-194000.00000000003,-1.0,0.0,0.0,0.0,0.0,0.0,0.0,0.0,0.0
1729403442.2342474,2611,1729403442,231180952,base_link,269000.0,257999.99999999997,-197000.00000000003,-1.0,0.0,0.0,0.0,0.0,0.0,0.0,0.0,0.0
1729403442.3356922,2612,1729403442,331866784,base_link,272000.0,257999.99999999997,-198000.00000000003,-1.0,0.0,0.0,0.0,0.0,0.0,0.0,0.0,0.0
1729403442.4334624,2613,1729403442,429014384,base_link,264000.0,257999.99999999997,-202000.00000000003,-1.0,0.0,0.0,0.0,0.0,0.0,0.0,0.0,0.0
1729403442.5309772,2614,1729403442,529293728,base_link,264000.0,256999.99999999997,-202000.00000000003,-1.0,0.0,0.0,0.0,0.0,0.0,0.0,0.0,0.0
1729403442.6317062,2615,1729403442,629070840,base_link,277000.0,258999.99999999997,-196000.00000000003,-1.0,0.0,0.0,0.0,0.0,0.0,0.0,0.0,0.0
1729403442.7314553,2616,1729403442,729216184,base_link,269000.0,259999.99999999997,-200000.00000000003,-1.0,0.0,0.0,0.0,0.0,0.0,0.0,0.0,0.0
1729403442.8353746,2617,1729403442,829136528,base_link,276000.0,255999.99999999997,-195000.00000000003,-1.0,0.0,0.0,0.0,0.0,0.0,0.0,0.0,0.0
1729403442.9307902,2618,1729403442,928779872,base_link,268000.0,255999.99999999997,-201000.00000000003,-1.0,0.0,0.0,0.0,0.0,0.0,0.0,0.0,0.0
1729403443.033323,2619,1729403443,28850728,base_link,274000.0,254999.99999999997,-194000.00000000003,-1.0,0.0,0.0,0.0,0.0,0.0,0.0,0.0,0.0
1729403443.1302283,2620,1729403443,128805560,base_link,264000.0,257999.99999999997,-200000.00000000003,-1.0,0.0,0.0,0.0,0.0,0.0,0.0,0.0,0.0
1729403443.235773,2621,1729403443,229327416,base_link,264000.0,258999.99999999997,-195000.00000000003,-1.0,0.0,0.0,0.0,0.0,0.0,0.0,0.0,0.0
1729403443.3312798,2622,1729403443,329128760,base_link,277000.0,261999.99999999997,-192000.00000000003,-1.0,0.0,0.0,0.0,0.0,0.0,0.0,0.0,0.0
1729403443.4328272,2623,1729403443,431381616,base_link,270000.0,258999.99999999997,-194000.00000000003,-1.0,0.0,0.0,0.0,0.0,0.0,0.0,0.0,0.0
1729403443.530196,2624,1729403443,528842216,base_link,276000.0,255999.99999999997,-195000.00000000003,-1.0,0.0,0.0,0.0,0.0,0.0,0.0,0.0,0.0
1729403443.6332328,2625,1729403443,631083816,base_link,269000.0,255999.99999999997,-199000.00000000003,-1.0,0.0,0.0,0.0,0.0,0.0,0.0,0.0,0.0
1729403443.7331433,2626,1729403443,731356160,base_link,275000.0,255999.99999999997,-198000.00000000003,-1.0,0.0,0.0,0.0,0.0,0.0,0.0,0.0,0.0
1729403443.8302245,2627,1729403443,828720760,base_link,270000.0,256999.99999999997,-197000.00000000003,-1.0,0.0,0.0,0.0,0.0,0.0,0.0,0.0,0.0
1729403443.9299238,2628,1729403443,927179616,base_link,263000.0,257999.99999999997,-205000.00000000003,-1.0,0.0,0.0,0.0,0.0,0.0,0.0,0.0,0.0
1729403444.0314922,2629,1729403444,29042728,base_link,272000.0,255999.99999999997,-195000.00000000003,-1.0,0.0,0.0,0.0,0.0,0.0,0.0,0.0,0.0
1729403444.1312273,2630,1729403444,129040096,base_link,269000.0,256999.99999999997,-200000.00000000003,-1.0,0.0,0.0,0.0,0.0,0.0,0.0,0.0,0.0
1729403444.2316666,2631,1729403444,229062000,base_link,278000.0,257999.99999999997,-193000.00000000003,-1.0,0.0,0.0,0.0,0.0,0.0,0.0,0.0,0.0
1729403444.3314345,2632,1729403444,329171112,base_link,269000.0,256999.99999999997,-194000.00000000003,-1.0,0.0,0.0,0.0,0.0,0.0,0.0,0.0,0.0
1729403444.4308033,2633,1729403444,427051480,base_link,277000.0,257999.99999999997,-194000.00000000003,-1.0,0.0,0.0,0.0,0.0,0.0,0.0,0.0,0.0
1729403444.5322604,2634,1729403444,529043592,base_link,267000.0,256999.99999999997,-196000.00000000003,-1.0,0.0,0.0,0.0,0.0,0.0,0.0,0.0,0.0
1729403444.6320894,2635,1729403444,628901704,base_link,266000.0,256999.99999999997,-197000.00000000003,-1.0,0.0,0.0,0.0,0.0,0.0,0.0,0.0,0.0
1729403444.7331924,2636,1729403444,731038816,base_link,270000.0,257999.99999999997,-198000.00000000003,-1.0,0.0,0.0,0.0,0.0,0.0,0.0,0.0,0.0
1729403444.831446,2637,1729403444,828812928,base_link,269000.0,258999.99999999997,-197000.00000000003,-1.0,0.0,0.0,0.0,0.0,0.0,0.0,0.0,0.0
1729403444.9334595,2638,1729403444,931013040,base_link,277000.0,256999.99999999997,-197000.00000000003,-1.0,0.0,0.0,0.0,0.0,0.0,0.0,0.0,0.0
1729403445.0306146,2639,1729403445,28477896,base_link,272000.0,254999.99999999997,-196000.00000000003,-1.0,0.0,0.0,0.0,0.0,0.0,0.0,0.0,0.0
1729403445.130994,2640,1729403445,128635008,base_link,277000.0,257999.99999999997,-197000.00000000003,-1.0,0.0,0.0,0.0,0.0,0.0,0.0,0.0,0.0
1729403445.233125,2641,1729403445,231164376,base_link,274000.0,260999.99999999997,-195000.00000000003,-1.0,0.0,0.0,0.0,0.0,0.0,0.0,0.0,0.0
1729403445.3308759,2642,1729403445,328618976,base_link,267000.0,258999.99999999997,-200000.00000000003,-1.0,0.0,0.0,0.0,0.0,0.0,0.0,0.0,0.0
1729403445.4315195,2643,1729403445,428974552,base_link,271000.0,255999.99999999997,-197000.00000000003,-1.0,0.0,0.0,0.0,0.0,0.0,0.0,0.0,0.0
1729403445.533583,2644,1729403445,530986432,base_link,268000.0,256999.99999999997,-200000.00000000003,-1.0,0.0,0.0,0.0,0.0,0.0,0.0,0.0,0.0
1729403445.6343806,2645,1729403445,631184056,base_link,275000.0,256999.99999999997,-194000.00000000003,-1.0,0.0,0.0,0.0,0.0,0.0,0.0,0.0,0.0
1729403445.7310588,2646,1729403445,728640632,base_link,272000.0,258999.99999999997,-194000.00000000003,-1.0,0.0,0.0,0.0,0.0,0.0,0.0,0.0,0.0
1729403445.8338394,2647,1729403445,828588464,base_link,267000.0,257999.99999999997,-197000.00000000003,-1.0,0.0,0.0,0.0,0.0,0.0,0.0,0.0,0.0
1729403445.9330626,2648,1729403445,931053552,base_link,272000.0,256999.99999999997,-195000.00000000003,-1.0,0.0,0.0,0.0,0.0,0.0,0.0,0.0,0.0
1729403446.0311375,2649,1729403446,28971176,base_link,268000.0,256999.99999999997,-198000.00000000003,-1.0,0.0,0.0,0.0,0.0,0.0,0.0,0.0,0.0
1729403446.13259,2650,1729403446,128730776,base_link,265000.0,257999.99999999997,-200000.00000000003,-1.0,0.0,0.0,0.0,0.0,0.0,0.0,0.0,0.0
1729403446.2331154,2651,1729403446,230936120,base_link,268000.0,259999.99999999997,-198000.00000000003,-1.0,0.0,0.0,0.0,0.0,0.0,0.0,0.0,0.0
1729403446.3307161,2652,1729403446,328577000,base_link,267000.0,259999.99999999997,-197000.00000000003,-1.0,0.0,0.0,0.0,0.0,0.0,0.0,0.0,0.0
1729403446.4309134,2653,1729403446,428655344,base_link,274000.0,254999.99999999997,-196000.00000000003,-1.0,0.0,0.0,0.0,0.0,0.0,0.0,0.0,0.0
1729403446.5330253,2654,1729403446,531263712,base_link,267000.0,257999.99999999997,-200000.00000000003,-1.0,0.0,0.0,0.0,0.0,0.0,0.0,0.0,0.0
1729403446.6326153,2655,1729403446,630897056,base_link,273000.0,256999.99999999997,-195000.00000000003,-1.0,0.0,0.0,0.0,0.0,0.0,0.0,0.0,0.0
1729403446.733195,2656,1729403446,731163400,base_link,268000.0,257999.99999999997,-197000.00000000003,-1.0,0.0,0.0,0.0,0.0,0.0,0.0,0.0,0.0
1729403446.8332856,2657,1729403446,831002000,base_link,273000.0,257999.99999999997,-195000.00000000003,-1.0,0.0,0.0,0.0,0.0,0.0,0.0,0.0,0.0
1729403446.9304147,2658,1729403446,928549344,base_link,264000.0,257999.99999999997,-201000.00000000003,-1.0,0.0,0.0,0.0,0.0,0.0,0.0,0.0,0.0
1729403447.031364,2659,1729403447,28747992,base_link,263000.0,257999.99999999997,-194000.00000000003,-1.0,0.0,0.0,0.0,0.0,0.0,0.0,0.0,0.0
1729403447.1327891,2660,1729403447,131239080,base_link,273000.0,257999.99999999997,-195000.00000000003,-1.0,0.0,0.0,0.0,0.0,0.0,0.0,0.0,0.0
1729403447.2329655,2661,1729403447,228723032,base_link,270000.0,256999.99999999997,-198000.00000000003,-1.0,0.0,0.0,0.0,0.0,0.0,0.0,0.0,0.0
1729403447.3322225,2662,1729403447,328897632,base_link,275000.0,257999.99999999997,-194000.00000000003,-1.0,0.0,0.0,0.0,0.0,0.0,0.0,0.0,0.0
1729403447.4320796,2663,1729403447,428969488,base_link,269000.0,257999.99999999997,-199000.00000000003,-1.0,0.0,0.0,0.0,0.0,0.0,0.0,0.0,0.0
1729403447.5327737,2664,1729403447,528882832,base_link,272000.0,256999.99999999997,-198000.00000000003,-1.0,0.0,0.0,0.0,0.0,0.0,0.0,0.0,0.0
1729403447.633386,2665,1729403447,630987688,base_link,265000.0,255999.99999999997,-201000.00000000003,-1.0,0.0,0.0,0.0,0.0,0.0,0.0,0.0,0.0
1729403447.7326117,2666,1729403447,731033080,base_link,263000.0,259999.99999999997,-203000.00000000003,-1.0,0.0,0.0,0.0,0.0,0.0,0.0,0.0,0.0
1729403447.8336837,2667,1729403447,831381168,base_link,274000.0,258999.99999999997,-194000.00000000003,-1.0,0.0,0.0,0.0,0.0,0.0,0.0,0.0,0.0
1729403447.9302385,2668,1729403447,928472280,base_link,268000.0,258999.99999999997,-198000.00000000003,-1.0,0.0,0.0,0.0,0.0,0.0,0.0,0.0,0.0
1729403448.0316365,2669,1729403448,28948880,base_link,276000.0,258999.99999999997,-193000.00000000003,-1.0,0.0,0.0,0.0,0.0,0.0,0.0,0.0,0.0
1729403448.1327577,2670,1729403448,130952248,base_link,268000.0,256999.99999999997,-196000.00000000003,-1.0,0.0,0.0,0.0,0.0,0.0,0.0,0.0,0.0
1729403448.2320635,2671,1729403448,228801616,base_link,276000.0,256999.99999999997,-194000.00000000003,-1.0,0.0,0.0,0.0,0.0,0.0,0.0,0.0,0.0
1729403448.3329566,2672,1729403448,328837728,base_link,267000.0,257999.99999999997,-197000.00000000003,-1.0,0.0,0.0,0.0,0.0,0.0,0.0,0.0,0.0
1729403448.4301074,2673,1729403448,428505096,base_link,264000.0,258999.99999999997,-197000.00000000003,-1.0,0.0,0.0,0.0,0.0,0.0,0.0,0.0,0.0
1729403448.529804,2674,1729403448,528461208,base_link,272000.0,257999.99999999997,-196000.00000000003,-1.0,0.0,0.0,0.0,0.0,0.0,0.0,0.0,0.0
1729403448.6299086,2675,1729403448,628489064,base_link,271000.0,256999.99999999997,-197000.00000000003,-1.0,0.0,0.0,0.0,0.0,0.0,0.0,0.0,0.0
1729403448.731728,2676,1729403448,728773176,base_link,275000.0,257999.99999999997,-195000.00000000003,-1.0,0.0,0.0,0.0,0.0,0.0,0.0,0.0,0.0
1729403448.8323538,2677,1729403448,830958288,base_link,271000.0,257999.99999999997,-197000.00000000003,-1.0,0.0,0.0,0.0,0.0,0.0,0.0,0.0,0.0
1729403448.9312456,2678,1729403448,928772912,base_link,273000.0,257999.99999999997,-199000.00000000003,-1.0,0.0,0.0,0.0,0.0,0.0,0.0,0.0,0.0
1729403449.0310376,2679,1729403449,28792768,base_link,273000.0,255999.99999999997,-197000.00000000003,-1.0,0.0,0.0,0.0,0.0,0.0,0.0,0.0,0.0
1729403449.132512,2680,1729403449,130766880,base_link,266000.0,256999.99999999997,-199000.00000000003,-1.0,0.0,0.0,0.0,0.0,0.0,0.0,0.0,0.0
1729403449.232784,2681,1729403449,228602504,base_link,270000.0,257999.99999999997,-198000.00000000003,-1.0,0.0,0.0,0.0,0.0,0.0,0.0,0.0,0.0
1729403449.3307571,2682,1729403449,328492872,base_link,270000.0,259999.99999999997,-195000.00000000003,-1.0,0.0,0.0,0.0,0.0,0.0,0.0,0.0,0.0
1729403449.4320328,2683,1729403449,428227728,base_link,268000.0,257999.99999999997,-195000.00000000003,-1.0,0.0,0.0,0.0,0.0,0.0,0.0,0.0,0.0
1729403449.5328074,2684,1729403449,530866608,base_link,271000.0,258999.99999999997,-194000.00000000003,-1.0,0.0,0.0,0.0,0.0,0.0,0.0,0.0,0.0
1729403449.6312778,2685,1729403449,628737720,base_link,267000.0,256999.99999999997,-197000.00000000003,-1.0,0.0,0.0,0.0,0.0,0.0,0.0,0.0,0.0
1729403449.731171,2686,1729403449,728667088,base_link,273000.0,256999.99999999997,-196000.00000000003,-1.0,0.0,0.0,0.0,0.0,0.0,0.0,0.0,0.0
1729403449.8310518,2687,1729403449,828664968,base_link,268000.0,258999.99999999997,-197000.00000000003,-1.0,0.0,0.0,0.0,0.0,0.0,0.0,0.0,0.0
1729403449.9301696,2688,1729403449,928363104,base_link,271000.0,258999.99999999997,-197000.00000000003,-1.0,0.0,0.0,0.0,0.0,0.0,0.0,0.0,0.0
1729403450.0300946,2689,1729403450,26677984,base_link,269000.0,255999.99999999997,-199000.00000000003,-1.0,0.0,0.0,0.0,0.0,0.0,0.0,0.0,0.0
1729403450.1334498,2690,1729403450,131263096,base_link,267000.0,256999.99999999997,-200000.00000000003,-1.0,0.0,0.0,0.0,0.0,0.0,0.0,0.0,0.0
1729403450.2340865,2691,1729403450,230731072,base_link,273000.0,257999.99999999997,-199000.00000000003,-1.0,0.0,0.0,0.0,0.0,0.0,0.0,0.0,0.0
1729403450.3340986,2692,1729403450,330827696,base_link,269000.0,258999.99999999997,-198000.00000000003,-1.0,0.0,0.0,0.0,0.0,0.0,0.0,0.0,0.0
1729403450.4328592,2693,1729403450,430715576,base_link,273000.0,255999.99999999997,-196000.00000000003,-1.0,0.0,0.0,0.0,0.0,0.0,0.0,0.0,0.0
1729403450.529792,2694,1729403450,528547456,base_link,266000.0,257999.99999999997,-199000.00000000003,-1.0,0.0,0.0,0.0,0.0,0.0,0.0,0.0,0.0
1729403450.6317194,2695,1729403450,628364592,base_link,265000.0,256999.99999999997,-197000.00000000003,-1.0,0.0,0.0,0.0,0.0,0.0,0.0,0.0,0.0
1729403450.7308714,2696,1729403450,728711472,base_link,264000.0,256999.99999999997,-201000.00000000003,-1.0,0.0,0.0,0.0,0.0,0.0,0.0,0.0,0.0
1729403450.8303797,2697,1729403450,826588816,base_link,269000.0,256999.99999999997,-193000.00000000003,-1.0,0.0,0.0,0.0,0.0,0.0,0.0,0.0,0.0
1729403450.9330883,2698,1729403450,930698160,base_link,273000.0,255999.99999999997,-195000.00000000003,-1.0,0.0,0.0,0.0,0.0,0.0,0.0,0.0,0.0
1729403451.0339763,2699,1729403451,30646040,base_link,268000.0,257999.99999999997,-197000.00000000003,-1.0,0.0,0.0,0.0,0.0,0.0,0.0,0.0,0.0
1729403451.13009,2700,1729403451,128349384,base_link,272000.0,257999.99999999997,-198000.00000000003,-1.0,0.0,0.0,0.0,0.0,0.0,0.0,0.0,0.0
1729403451.232089,2701,1729403451,230630360,base_link,267000.0,255999.99999999997,-199000.00000000003,-1.0,0.0,0.0,0.0,0.0,0.0,0.0,0.0,0.0
1729403451.333077,2702,1729403451,331040192,base_link,274000.0,260999.99999999997,-196000.00000000003,-1.0,0.0,0.0,0.0,0.0,0.0,0.0,0.0,0.0
1729403451.433288,2703,1729403451,430642072,base_link,264000.0,258999.99999999997,-201000.00000000003,-1.0,0.0,0.0,0.0,0.0,0.0,0.0,0.0,0.0
1729403451.5306728,2704,1729403451,528668928,base_link,263000.0,257999.99999999997,-197000.00000000003,-1.0,0.0,0.0,0.0,0.0,0.0,0.0,0.0,0.0
1729403451.6290197,2705,1729403451,626496296,base_link,274000.0,256999.99999999997,-195000.00000000003,-1.0,0.0,0.0,0.0,0.0,0.0,0.0,0.0,0.0
1729403451.7303815,2706,1729403451,728310152,base_link,267000.0,258999.99999999997,-197000.00000000003,-1.0,0.0,0.0,0.0,0.0,0.0,0.0,0.0,0.0
1729403451.8342416,2707,1729403451,830812800,base_link,275000.0,256999.99999999997,-194000.00000000003,-1.0,0.0,0.0,0.0,0.0,0.0,0.0,0.0,0.0
1729403451.9299831,2708,1729403451,928070144,base_link,268000.0,257999.99999999997,-197000.00000000003,-1.0,0.0,0.0,0.0,0.0,0.0,0.0,0.0,0.0
1729403452.0307539,2709,1729403452,28773792,base_link,275000.0,256999.99999999997,-194000.00000000003,-1.0,0.0,0.0,0.0,0.0,0.0,0.0,0.0,0.0
1729403452.1303897,2710,1729403452,128623160,base_link,264000.0,258999.99999999997,-201000.00000000003,-1.0,0.0,0.0,0.0,0.0,0.0,0.0,0.0,0.0
1729403452.2329447,2711,1729403452,230798272,base_link,269000.0,258999.99999999997,-197000.00000000003,-1.0,0.0,0.0,0.0,0.0,0.0,0.0,0.0,0.0
1729403452.330307,2712,1729403452,328563128,base_link,269000.0,257999.99999999997,-194000.00000000003,-1.0,0.0,0.0,0.0,0.0,0.0,0.0,0.0,0.0
1729403452.4313564,2713,1729403452,428791984,base_link,270000.0,256999.99999999997,-199000.00000000003,-1.0,0.0,0.0,0.0,0.0,0.0,0.0,0.0,0.0
1729403452.531519,2714,1729403452,528286376,base_link,275000.0,256999.99999999997,-195000.00000000003,-1.0,0.0,0.0,0.0,0.0,0.0,0.0,0.0,0.0
1729403452.63191,2715,1729403452,628267488,base_link,269000.0,254999.99999999997,-199000.00000000003,-1.0,0.0,0.0,0.0,0.0,0.0,0.0,0.0,0.0
1729403452.7306907,2716,1729403452,728145088,base_link,276000.0,255999.99999999997,-198000.00000000003,-1.0,0.0,0.0,0.0,0.0,0.0,0.0,0.0,0.0
1729403452.832271,2717,1729403452,830536456,base_link,268000.0,254999.99999999997,-199000.00000000003,-1.0,0.0,0.0,0.0,0.0,0.0,0.0,0.0,0.0
1729403452.934578,2718,1729403452,930658568,base_link,263000.0,258999.99999999997,-201000.00000000003,-1.0,0.0,0.0,0.0,0.0,0.0,0.0,0.0,0.0
1729403453.0335386,2719,1729403453,28349936,base_link,272000.0,256999.99999999997,-193000.00000000003,-1.0,0.0,0.0,0.0,0.0,0.0,0.0,0.0,0.0
1729403453.1319652,2720,1729403453,128766304,base_link,268000.0,257999.99999999997,-199000.00000000003,-1.0,0.0,0.0,0.0,0.0,0.0,0.0,0.0,0.0
1729403453.23054,2721,1729403453,228190672,base_link,276000.0,257999.99999999997,-192000.00000000003,-1.0,0.0,0.0,0.0,0.0,0.0,0.0,0.0,0.0
1729403453.331366,2722,1729403453,328201808,base_link,268000.0,256999.99999999997,-198000.00000000003,-1.0,0.0,0.0,0.0,0.0,0.0,0.0,0.0,0.0
1729403453.4304855,2723,1729403453,428151408,base_link,276000.0,255999.99999999997,-193000.00000000003,-1.0,0.0,0.0,0.0,0.0,0.0,0.0,0.0,0.0
1729403453.530695,2724,1729403453,528674776,base_link,268000.0,257999.99999999997,-199000.00000000003,-1.0,0.0,0.0,0.0,0.0,0.0,0.0,0.0,0.0
1729403453.6320868,2725,1729403453,630528144,base_link,267000.0,257999.99999999997,-197000.00000000003,-1.0,0.0,0.0,0.0,0.0,0.0,0.0,0.0,0.0
1729403453.7326255,2726,1729403453,730525768,base_link,266000.0,257999.99999999997,-198000.00000000003,-1.0,0.0,0.0,0.0,0.0,0.0,0.0,0.0,0.0
1729403453.8330681,2727,1729403453,828390136,base_link,269000.0,256999.99999999997,-197000.00000000003,-1.0,0.0,0.0,0.0,0.0,0.0,0.0,0.0,0.0
1729403453.9324734,2728,1729403453,930497760,base_link,276000.0,257999.99999999997,-197000.00000000003,-1.0,0.0,0.0,0.0,0.0,0.0,0.0,0.0,0.0
1729403454.0320165,2729,1729403454,30616896,base_link,268000.0,255999.99999999997,-198000.00000000003,-1.0,0.0,0.0,0.0,0.0,0.0,0.0,0.0,0.0
1729403454.1301818,2730,1729403454,128122496,base_link,275000.0,257999.99999999997,-198000.00000000003,-1.0,0.0,0.0,0.0,0.0,0.0,0.0,0.0,0.0
1729403454.2323637,2731,1729403454,230511376,base_link,270000.0,256999.99999999997,-200000.00000000003,-1.0,0.0,0.0,0.0,0.0,0.0,0.0,0.0,0.0
1729403454.3327334,2732,1729403454,328317256,base_link,266000.0,257999.99999999997,-200000.00000000003,-1.0,0.0,0.0,0.0,0.0,0.0,0.0,0.0,0.0
1729403454.4320362,2733,1729403454,428593136,base_link,271000.0,256999.99999999997,-196000.00000000003,-1.0,0.0,0.0,0.0,0.0,0.0,0.0,0.0,0.0
1729403454.5314643,2734,1729403454,528480272,base_link,263000.0,257999.99999999997,-198000.00000000003,-1.0,0.0,0.0,0.0,0.0,0.0,0.0,0.0,0.0
1729403454.6305776,2735,1729403454,628107152,base_link,277000.0,260999.99999999997,-192000.00000000003,-1.0,0.0,0.0,0.0,0.0,0.0,0.0,0.0,0.0
1729403454.73115,2736,1729403454,728280544,base_link,267000.0,259999.99999999997,-198000.00000000003,-1.0,0.0,0.0,0.0,0.0,0.0,0.0,0.0,0.0
