Time,header.seq,header.stamp.secs,header.stamp.nsecs,header.frame_id,twist.linear.x,twist.linear.y,twist.linear.z,twist.angular.x,twist.angular.y,twist.angular.z
1729403412.2205596,2309,1729403412,137574592,base_link,-0.011383025906980038,0.02593589946627617,-0.0018915366381406784,-0.00023902481002975256,-0.001574587849907068,0.00016151062196556495
1729403412.2459395,2310,1729403412,236569216,base_link,-0.012497860938310623,0.025595935061573982,-0.0016840174794197083,-9.030115321876431e-05,-0.00014223539882242853,0.0001610535042429099
1729403412.334184,2311,1729403412,332563840,base_link,-0.01286148838698864,0.027668217197060585,-0.0011164590250700712,0.0014504558707458535,0.0007205820049549175,1.543410392855708e-05
1729403412.438985,2312,1729403412,437559232,base_link,-0.012871534563601017,0.02945745550096035,-0.0010883748764172196,-0.0008906419048336811,0.0006051542131223292,0.00043526658123283195
1729403412.5367208,2313,1729403412,534556416,base_link,-0.011733106337487698,0.027600770816206932,0.0005624761688522995,0.00108118422221524,0.001321225910840994,-7.729103693656794e-05
1729403412.6360052,2314,1729403412,634551040,base_link,-0.010199001990258694,0.025789596140384674,0.00169803062453866,-0.0006156319678774996,0.0008101056625947584,0.00022758560267882496
1729403412.7360506,2315,1729403412,734546688,base_link,-0.009593532420694828,0.024006150662899017,0.0018750764429569244,-0.0008633490779485847,0.00023191197625778854,-4.866339775068279e-05
1729403412.8393488,2316,1729403412,837543616,base_link,-0.00935195479542017,0.021932389587163925,0.0020938459783792496,-0.0007283952819570447,0.0006288504505962034,-0.00042178751987849623
1729403412.9363465,2317,1729403412,934539520,base_link,-0.009038662537932396,0.020080512389540672,0.002051199320703745,0.000170790147057797,0.0007309978793298678,-0.00066339313101081
1729403413.0391686,2318,1729403413,36531584,base_link,-0.00885485578328371,0.018972033634781837,0.000959629425778985,-0.0015916044209734754,0.00034083664670018647,-0.0010648351270459125
1729403413.1408746,2319,1729403413,136526464,base_link,-0.01077952329069376,0.017108194530010223,-0.0010690484195947647,-0.001171836007135009,0.00012819621616789185,0.000287193465274867
1729403413.2404618,2320,1729403413,237524160,base_link,-0.011842857114970684,0.016535691916942596,-0.0013363518519327044,0.0006469302736645725,-0.00029914421149790306,-0.00011800794477925767
1729403413.3397973,2321,1729403413,336519040,base_link,-0.013587874360382557,0.01605093851685524,-0.00234529422596097,-0.0009811420832705924,5.9990433256166796e-05,-0.001228939744672341
1729403413.4371939,2322,1729403413,434516480,base_link,-0.014926682226359844,0.016006898134946823,-0.005340350791811943,-0.00016238396049654292,0.00014122974542066404,1.7432745859270408e-05
1729403413.5365953,2323,1729403413,534511360,base_link,-0.016824593767523766,0.015268709510564804,-0.007560300640761852,0.0001966521183529161,0.0005919541065543201,0.0010408672287388757
1729403413.63404,2324,1729403413,632506752,base_link,-0.017668813467025757,0.014589195139706135,-0.009830537252128124,-0.00027268387667519394,0.0007226142575635625,0.0008614750401033808
1729403413.7400353,2325,1729403413,737503424,base_link,-0.017970826476812363,0.013975516892969608,-0.009631838649511337,-0.00029090332022085305,-0.0009883952279499109,0.0008445022838925201
1729403413.8399882,2326,1729403413,837499840,base_link,-0.017230713739991188,0.013025810942053795,-0.006846604868769646,0.00014545104307714412,0.0001318643817397426,0.0005744132012930749
1729403413.9366467,2327,1729403413,934496512,base_link,-0.015175794251263142,0.010223587974905968,-0.001555645721964538,0.0006895560373393935,0.0002695404824700715,-5.7859163836092075e-05
1729403414.0404592,2328,1729403414,37492928,base_link,-0.01253226213157177,0.006928382441401482,0.0031075021252036095,-0.00016288028250962644,0.0003118601113921572,-0.0008913009591878832
1729403414.140578,2329,1729403414,137489088,base_link,-0.011197812855243683,0.004957203753292561,0.007497003767639399,-0.0005275323711148853,-0.00010737284590049497,-9.030255526383711e-05
1729403414.240057,2330,1729403414,237485760,base_link,-0.010335863567888737,0.002743214601650834,0.011813308112323284,-0.0006609463822040758,-0.0011255268759805303,0.0009116564449800663
1729403414.3369834,2331,1729403414,334482176,base_link,-0.009175609797239304,0.0029184739105403423,0.014605156145989895,-4.159574861119122e-05,0.0003763110626485585,-0.0002395043421671395
1729403414.4404223,2332,1729403414,437478848,base_link,-0.008760652504861355,0.0018018237315118313,0.01709868013858795,0.0005618922394055271,1.6357456316663627e-05,-0.000419667595632083
1729403414.540261,2333,1729403414,537475776,base_link,-0.00830524880439043,0.0030645665246993303,0.017852336168289185,-3.570421152479018e-05,-0.0006434091185053375,0.0006563276792388921
1729403414.6390207,2334,1729403414,636472704,base_link,-0.007671767845749855,0.0037917348090559244,0.01652025617659092,0.0001370222750322319,0.0011211008977109057,0.0009207252775650806
1729403414.7369993,2335,1729403414,734468608,base_link,-0.007658000104129314,0.003600704250857234,0.017938127741217613,-0.001008713995107472,-7.870657129953526e-05,0.00029561418628851107
1729403414.8370576,2336,1729403414,834464512,base_link,-0.008884302340447903,0.003206660272553563,0.017873434349894524,-0.00044316864899258165,-0.0009538723406302288,0.0003377592989012461
1729403414.937289,2337,1729403414,934463232,base_link,-0.010185038670897484,0.0033585107885301113,0.018985023722052574,-0.0007011200130202918,0.00032899571734306603,0.00101447094742281
1729403415.0390983,2338,1729403415,36458880,base_link,-0.011826667003333569,0.003157150698825717,0.021019404754042625,-0.0007358352019410615,0.001045668063125348,0.0004726027726940334
1729403415.1406782,2339,1729403415,136454784,base_link,-0.010568096302449703,0.0018680746434256434,0.025191349908709526,0.0008152620402479905,0.0005040958998199444,4.953597589399142e-05
1729403415.2362812,2340,1729403415,234453504,base_link,-0.008808106184005737,0.0015410197665914893,0.02813662216067314,-0.00011962858659676109,0.00044139128087718763,0.0002393996604721163
1729403415.339169,2341,1729403415,337449408,base_link,-0.008027562871575356,0.0015245272079482675,0.029137149453163147,0.00043362017938412226,0.0006978306037962233,-0.0011838796134938296
1729403415.4389625,2342,1729403415,436445568,base_link,-0.0063540274277329445,0.001211329479701817,0.029713181778788567,-0.0002561541600918943,0.0013754987442249058,-0.0009182619074468183
1729403415.5391405,2343,1729403415,537442752,base_link,-0.004763356409966946,0.0001932518498506397,0.03155519440770149,0.0021132071147789496,0.0005690696136996618,0.0009072063805080938
1729403415.6372118,2344,1729403415,634437376,base_link,-0.004023700021207333,-0.0007172806654125452,0.030173612758517265,-0.0002928944017464052,3.118408414694491e-05,2.882500618502452e-07
1729403415.73727,2345,1729403415,734432256,base_link,-0.005599878262728453,-0.0014452367322519422,0.027261869981884956,0.0005459342953998157,0.0006548447883989716,-0.00033321099584462683
1729403415.839287,2346,1729403415,837427904,base_link,-0.006426496431231499,-0.0016165683045983315,0.025607071816921234,-0.00040735335134674526,-0.0007506920819189243,0.0013524510003860585
1729403415.9378846,2347,1729403415,934423296,base_link,-0.006979160942137241,-0.002203987678512931,0.025899216532707214,0.00032052301699691946,0.0007135417047626242,0.0002428908362325087
1729403416.037583,2348,1729403416,34417920,base_link,-0.006768960040062666,-0.0030095819383859634,0.025273675099015236,0.0021727781176260693,0.0012028422250257482,0.00014402168567349222
1729403416.1373277,2349,1729403416,134413824,base_link,-0.006347947753965855,-0.004653417970985174,0.023243838921189308,-0.00012366023612174777,0.00025089774641402887,0.00032353027119796864
1729403416.2373018,2350,1729403416,234413824,base_link,-0.006054280325770378,-0.004516686778515577,0.021177412942051888,0.00021761401298916032,-0.00021603632903739446,0.000568788489425461
1729403416.33821,2351,1729403416,335409728,base_link,-0.004973701201379299,-0.003434189362451434,0.019378874450922012,-0.0003990070702251018,0.00017771439684817028,0.0008159930259844804
1729403416.4380133,2352,1729403416,435405888,base_link,-0.00359349581412971,-0.0029336432926356792,0.018315190449357033,-0.00047816349728926357,-1.5864952718121865e-05,-0.00010054397934340688
1729403416.5377567,2353,1729403416,534401024,base_link,-0.005755175370723009,-0.0009728119475767016,0.016144024208188057,0.0003587763051584139,-0.0003161611385212316,0.0005686148070740236
1729403416.639881,2354,1729403416,636397440,base_link,-0.007363202981650829,0.0009060588199645281,0.011837013997137547,-8.120593192463821e-05,-9.468052435338097e-05,-5.965716985221621e-05
1729403416.7368555,2355,1729403416,734394112,base_link,-0.009843628853559494,0.0035083156544715166,0.010011994279921055,8.245230055957857e-05,-0.00041039833324787924,0.0002395221351654565
1729403416.8392637,2356,1729403416,836390016,base_link,-0.011238070204854012,0.004687387961894274,0.008353284560143948,7.361906428492692e-05,-0.00045484293507018335,0.0004101903590847306
1729403416.9370468,2357,1729403416,934385152,base_link,-0.011651339940726757,0.005125752650201321,0.006458523217588663,-0.00044620518703925233,-0.0008210965538598008,0.0009779134646652964
1729403417.0392394,2358,1729403417,36377216,base_link,-0.011560539714992046,0.005914722103625536,0.005369852297008038,0.0009653425426045815,0.0006356578602040782,0.0003591703968681788
1729403417.1392112,2359,1729403417,136372608,base_link,-0.010419941507279873,0.006190326530486345,0.0026313590351492167,-0.0009027400550371078,0.000912346779349539,-0.0002405265345281359
1729403417.2400293,2360,1729403417,236368000,base_link,-0.010804599151015282,0.006744343787431717,0.001517371740192175,-0.0006142082475108566,-0.0004612149092935419,0.0005853538748118071
1729403417.3420818,2361,1729403417,340361856,base_link,-0.010939882136881351,0.00590498186647892,0.00034781877184286714,0.0005141613499453509,0.00027300178728361106,0.00039535113021315173
1729403417.4390469,2362,1729403417,437358272,base_link,-0.010396379046142101,0.004529968835413456,-3.165803354931995e-05,-0.00015880987428701986,7.878311921544328e-05,-0.0022492084167637563
1729403417.5390017,2363,1729403417,537353920,base_link,-0.010200900956988335,0.003452950157225132,-0.0004730332875624299,-0.00013540347573625888,-0.0005508829787555818,-0.0005265811983601
1729403417.638739,2364,1729403417,637349056,base_link,-0.008916915394365788,0.003773972624912858,-0.0018422293942421675,0.0018484160851608973,0.0008938056037879957,0.0003564660045084258
1729403417.7418144,2365,1729403417,740345728,base_link,-0.005913109984248877,0.0027596172876656055,-0.0022727849427610636,-0.00039174964077122286,0.0008382952225173333,0.00038839350777765186
1729403417.838995,2366,1729403417,837342400,base_link,-0.004474257584661245,0.0020560116972774267,-0.002317218342795968,0.0006517138641499053,-0.00028393212224894873,2.9840807848473994e-06
1729403417.94183,2367,1729403417,940339328,base_link,-0.0032489513978362083,0.002375886309891939,-0.0019333332311362028,0.00024475114076632153,0.00042136753845563297,-1.5012031552647862e-05
1729403418.0422206,2368,1729403418,39331392,base_link,-0.0030294060707092285,0.002730925101786852,-0.0004173616471234709,0.0004360494784745958,-0.0002964115057688517,0.0015401845079931126
1729403418.1393383,2369,1729403418,137327040,base_link,-0.002461695112287998,0.004064180888235569,0.0011132846120744944,-0.00030295814849852097,0.00010957781913029586,-0.0010181608302775517
1729403418.2426631,2370,1729403418,239322688,base_link,-0.0013064674567431211,0.006098106037825346,0.002403074176982045,1.2304183101117045e-05,-0.00012769052765390534,0.0013497736556172153
1729403418.339527,2371,1729403418,337318336,base_link,-0.00018770921451505274,0.007329432759433985,0.0021631172858178616,-8.65628984762517e-05,0.00018025867959062692,0.0008498715362511584
1729403418.4424489,2372,1729403418,440312704,base_link,0.0008443461265414953,0.007856623269617558,0.002256179926916957,0.00042671759691931846,-0.0002764969627047615,0.0008702928411269555
1729403418.5394142,2373,1729403418,537305792,base_link,0.0006180967902764678,0.007354660890996456,0.0033887242898344994,0.0006493234762934339,0.00024795450826949246,0.0011516219648793759
1729403418.6394484,2374,1729403418,637303232,base_link,0.0006901197484694421,0.006413123104721308,0.00559778930619359,-0.00022946619797127748,0.00034397551488055784,0.0007776090632458651
1729403418.74174,2375,1729403418,740298880,base_link,0.0006285061244852841,0.00612602336332202,0.006027482450008392,0.0008731769329224843,0.000339210299160564,0.0007558620795823589
1729403418.842959,2376,1729403418,840294528,base_link,0.00013627756561618298,0.004953120369464159,0.007030729204416275,-0.0002881478495987988,0.0013688408205137434,0.0008189542799014815
1729403418.9420557,2377,1729403418,939290176,base_link,-0.0008715986041352153,0.005541439633816481,0.00707085058093071,0.00024813239168418663,-0.0007830795790744739,0.00023230739203382626
1729403419.039694,2378,1729403419,37286080,base_link,-0.0018062075832858682,0.006404027342796326,0.0065055047161877155,0.0010326350195166512,-0.00013038944582267493,0.0017144596199502244
1729403419.1430054,2379,1729403419,140283264,base_link,-0.002348619047552347,0.00815127044916153,0.007339800242334604,0.0007930830724632353,0.0003816449036216871,0.0009415971818942739
1729403419.2392795,2380,1729403419,237280960,base_link,-0.002218770794570446,0.009829992428421974,0.00859473180025816,-0.00010404754128624169,-0.000384585258193657,-0.0006462188016690974
1729403419.3396642,2381,1729403419,337275584,base_link,-0.002538898028433323,0.010171656496822834,0.010313725098967552,-0.0012215499288112189,-0.0006016024461706452,0.0010427612893534495
1729403419.441516,2382,1729403419,440273280,base_link,-0.003007337683811784,0.01042179949581623,0.012402502819895744,-0.0005342657970474403,-0.0005254470799442635,-1.480817347179823e-05
1729403419.5396197,2383,1729403419,537269184,base_link,-0.003934719134122133,0.009744876064360142,0.013817977160215378,0.0011991316735319821,0.0005413529094361947,0.0006263535582277302
1729403419.639662,2384,1729403419,637264832,base_link,-0.00406332453712821,0.009640712291002274,0.013827132992446423,0.00030682321555605685,-5.0557501000016e-05,0.00037721965353515707
1729403419.7388625,2385,1729403419,737260736,base_link,-0.004873000085353851,0.006945799570530653,0.012455004267394543,-8.193675317974249e-05,3.399970916165821e-05,-0.0003864216182374696
1729403419.8438344,2386,1729403419,840255360,base_link,-0.00570744788274169,0.0053304750472307205,0.01198273804038763,0.0006269116847989915,-0.0009374736588579788,0.0012339369869635807
1729403419.9413674,2387,1729403419,939248448,base_link,-0.006013110280036926,0.0016030705301091075,0.010437672026455402,-0.0006706137139562786,-0.0007163068303741164,0.0010819932121154325
1729403420.0382264,2388,1729403420,37243328,base_link,-0.0057891071774065495,-0.0006306929863058031,0.009313211776316166,0.0002983588363532958,0.0003806336106304763,0.000516319562817282
1729403420.1391943,2389,1729403420,137239744,base_link,-0.004727475810796022,-0.002816250314936042,0.007260855752974749,0.00014938300343142951,0.0007220423467956096,0.0007161520465659919
1729403420.2410989,2390,1729403420,239237952,base_link,-0.003777210833504796,-0.0038662822917103767,0.00616360642015934,0.0011287425477142221,0.0004769575959700457,-0.0005173410431071488
1729403420.341238,2391,1729403420,339234112,base_link,-0.0017284323694184422,-0.004246188327670097,0.004600259475409985,0.0008402543122224489,0.0015028523362486555,0.0005343659471511656
1729403420.4422414,2392,1729403420,440230016,base_link,-7.843737694201991e-05,-0.004679643549025059,0.0008123136358335614,0.0011147107401038438,0.0001945282822066296,-0.0005061805697723641
1729403420.5381901,2393,1729403420,537224896,base_link,-0.00012156584853073582,-0.004723936785012484,-0.0018802399281412363,-0.0005117028473833654,-5.3098725570450576e-05,0.0001718432995345403
1729403420.641667,2394,1729403420,640222848,base_link,0.0005742512876167893,-0.005125915165990591,-0.0037818222772330046,0.0008427689262359334,-0.00040075430295110953,-4.6357954343851365e-05
1729403420.7419128,2395,1729403420,740220800,base_link,0.0015694871544837952,-0.005892449989914894,-0.0056313457898795605,-0.0003587672540758992,-0.00039869776704796144,0.0006026364929329611
1729403420.838855,2396,1729403420,837217216,base_link,0.002339182887226343,-0.005440806970000267,-0.006709208711981773,-8.71611101666771e-05,-0.0007840016479524658,0.0013083090527278459
1729403420.9422224,2397,1729403420,939215424,base_link,0.0010554833570495248,-0.006537590175867081,-0.009645556099712849,-0.00032118464013114223,-0.00017269644867453677,-0.0005480897955803412
1729403421.0419652,2398,1729403421,40207232,base_link,0.0002643657207954675,-0.006845297757536173,-0.011749614030122757,-0.00042992074236269175,0.00044879626187635876,0.001235094145956878
1729403421.1391187,2399,1729403421,137203648,base_link,-0.0012320076348260045,-0.007428982760757208,-0.014255987480282784,0.00010485701947949595,0.0007744812259758624,0.00020267801641725194
1729403421.2423892,2400,1729403421,240209280,base_link,-0.0021323002874851227,-0.008231867104768753,-0.01596563123166561,0.0003087166335855889,2.957086353798478e-05,0.0005986361906907879
1729403421.3418255,2401,1729403421,339207488,base_link,-0.003886187681928277,-0.008911039680242538,-0.01641322672367096,0.00036108136352163474,-0.00017548460594388893,-0.001022845103421608
1729403421.441915,2402,1729403421,439205696,base_link,-0.0055310591123998165,-0.008941282518208027,-0.01756473258137703,-4.760746430902938e-05,0.0007055035874882753,0.0005932753020488266
1729403421.5388947,2403,1729403421,537202112,base_link,-0.0060228086076676846,-0.007719672750681639,-0.01667502336204052,0.00022661651371631334,-0.0011015326564450122,-0.0002770415190980946
1729403421.6422303,2404,1729403421,639198784,base_link,-0.006253146566450596,-0.005957193672657013,-0.016037922352552414,-0.0005884714913789199,0.00019149799602658483,0.0004807457666704426
1729403421.7419581,2405,1729403421,739195456,base_link,-0.006990354508161545,-0.004810950718820095,-0.014090328477323055,-0.0003887648462374291,-0.0001977487625587981,0.0008059517656049391
1729403421.8392348,2406,1729403421,837190592,base_link,-0.00649609649553895,-0.0047805351205170155,-0.01147395744919777,0.0005117277636364336,-0.00012422649906671147,-0.0004755511869472745
1729403421.939267,2407,1729403421,937184448,base_link,-0.006591439712792635,-0.0059808846563100815,-0.008860594592988491,-0.0010604939037551415,-0.0013767004484941314,0.0015416350931652376
1729403422.0421095,2408,1729403422,39179840,base_link,-0.0062865326181054115,-0.006657225079834461,-0.0070051513612270355,-0.0004916210264873914,-5.825371934236303e-05,0.0011605810923720865
1729403422.1419692,2409,1729403422,139172160,base_link,-0.00682044168934226,-0.007447388488799334,-0.006760038435459137,0.0005216622165022392,0.00029715590873281936,-0.0010391104316348463
1729403422.238802,2410,1729403422,237169088,base_link,-0.005884108599275351,-0.008643927052617073,-0.006339049898087978,-0.0002684280917771375,0.0007848280582891561,0.00030447390952194255
1729403422.3373325,2411,1729403422,334166016,base_link,-0.0064130788668990135,-0.008185464888811111,-0.0063870991580188274,0.00013850738218988844,4.5763804699082524e-05,0.0003777046037499421
1729403422.4421504,2412,1729403422,440161408,base_link,-0.007238093297928572,-0.007766480091959238,-0.007428387179970741,0.0003785281485655299,0.0004404286427179332,0.0014098863866408076
1729403422.5422006,2413,1729403422,540155776,base_link,-0.006388932466506958,-0.009386764839291573,-0.00961059145629406,-0.0007044728187399809,-0.0004046819954979467,-0.00037050544215301237
1729403422.64223,2414,1729403422,640150144,base_link,-0.00526386545971036,-0.01048310473561287,-0.011965981684625149,-0.00021574977730775456,0.00048703987700755077,-0.0004388112094147429
1729403422.7424548,2415,1729403422,740142464,base_link,-0.003893721615895629,-0.012601995840668678,-0.015824798494577408,-0.0011118161874000031,-0.0012622614226718727,0.0011646361171024013
1729403422.8424275,2416,1729403422,839135040,base_link,-0.0031680322717875242,-0.014189804904162884,-0.01921072043478489,-0.00022640160123194185,-0.0011786339201579066,0.0020159087711444142
1729403422.9421706,2417,1729403422,940127616,base_link,-0.0035812596324831247,-0.014395017176866531,-0.021722156554460526,-0.0010639530943439364,0.0004793358983696801,0.001239089410251708
1729403423.0391755,2418,1729403423,37119680,base_link,-0.004106305539608002,-0.014993558637797832,-0.023185648024082184,0.000738777395062204,0.001449653436153282,0.0007236275635238208
1729403423.1420743,2419,1729403423,140115328,base_link,-0.0039297607727348804,-0.01585215888917446,-0.022832034155726433,-0.0007958566254054918,0.00010984069289799662,2.0040299204869578e-05
1729403423.2402923,2420,1729403423,237112000,base_link,-0.003294349182397127,-0.015822526067495346,-0.021373769268393517,0.0005198171004845969,0.0005800862412980264,0.0002901487245529806
1729403423.3423955,2421,1729403423,339108672,base_link,-0.001974546816200018,-0.01650199666619301,-0.021054664626717567,-0.0014963639933578885,-0.0005630123031011929,0.0008783395773350743
1729403423.4425848,2422,1729403423,439101504,base_link,-0.0017650701338425279,-0.0169967208057642,-0.02102055586874485,-0.0012096020908868453,0.0005376549709329422,0.0002518331494438656
1729403423.5423863,2423,1729403423,540097408,base_link,-0.0009674950269982219,-0.018298469483852386,-0.019295185804367065,-2.851258647305775e-05,9.146940820534588e-05,0.0004556073087485414
1729403423.6427593,2424,1729403423,639093056,base_link,-0.00022708042524755,-0.019767599180340767,-0.017299048602581024,0.0012699249157793436,-8.775347802670065e-05,0.001103982422863393
1729403423.7427177,2425,1729403423,739088960,base_link,-0.0005254727439023554,-0.020862611010670662,-0.016213759779930115,0.0012235238010671876,0.0006728567706114442,-0.00047878355747497833
1729403423.842193,2426,1729403423,840084864,base_link,-0.0010493705049157143,-0.021227534860372543,-0.0152063500136137,0.0010679669370058805,0.0004037827856537176,0.0001405790939771674
1729403423.9394534,2427,1729403423,937079744,base_link,-0.0007389380480162799,-0.01886727660894394,-0.013289299793541431,-1.0208618485222092e-05,-8.678361289791207e-05,0.0015236720367850477
1729403424.039196,2428,1729403424,37072832,base_link,-0.0006324881687760353,-0.01698235422372818,-0.010567220859229565,-0.0002094957059397242,0.00014451788922742668,2.2739302696384044e-06
1729403424.1396353,2429,1729403424,137070784,base_link,0.00041742061148397624,-0.01772177964448929,-0.008499055169522762,0.0007006596062065192,-4.97233058703675e-05,0.0005753212053912603
1729403424.2412925,2430,1729403424,240068480,base_link,0.0019011750118806958,-0.018275542184710503,-0.006399460602551699,-0.00030111541511356523,-0.0001698676112169343,7.944013059630302e-05
1729403424.339386,2431,1729403424,337061824,base_link,0.004108368884772062,-0.01874983124434948,-0.004323477856814861,0.0010009217187761656,5.364442862017424e-05,0.000721444412334308
1729403424.43951,2432,1729403424,437057984,base_link,0.006151704583317041,-0.018999392166733742,-0.001088000601157546,-0.00015712967858974117,0.0004602738445080725,0.0007983693083151699
1729403424.5419238,2433,1729403424,539054144,base_link,0.006569319404661655,-0.018252408131957054,0.0013913647271692753,-0.0007050673771293556,-9.426770845813172e-05,0.0008372473953025479
1729403424.639445,2434,1729403424,637049024,base_link,0.00778196519240737,-0.017484204843640327,0.0035897355992347,-7.423807584395989e-05,-5.575622338566533e-05,0.0004909158701569509
1729403424.7422066,2435,1729403424,739040832,base_link,0.009161427617073059,-0.016702361404895782,0.005859872326254845,0.0006848094656744714,0.0006062333745629937,5.038200260602133e-05
1729403424.8365605,2436,1729403424,834032640,base_link,0.010542032308876514,-0.016563519835472107,0.008296445943415165,0.0008434285784675751,0.0001282578349947172,-0.00014179016863780924
1729403424.9398024,2437,1729403424,937029056,base_link,0.01177992019802332,-0.01602267660200596,0.00790470838546753,-0.00015862314684605012,0.0008864264659896347,1.798139998551946e-05
1729403425.0403059,2438,1729403425,37021888,base_link,0.011799667961895466,-0.016214223578572273,0.007746108341962099,0.00043588411293198905,0.0015503112020033344,-0.0003498590038355106
1729403425.141877,2439,1729403425,140017024,base_link,0.010553596541285515,-0.015725186094641685,0.005788753740489483,-0.00023709066521282755,0.0018916957754971158,0.00034684137150818334
1729403425.2399437,2440,1729403425,237013440,base_link,0.009422976523637772,-0.015572533942759037,0.004790421575307846,-0.00016628306100764876,0.0008143156977784725,7.387739164142643e-06
1729403425.3424902,2441,1729403425,340009088,base_link,0.008520010858774185,-0.015571154654026031,0.003393148770555854,0.0015087580242529133,0.00022677138557906224,0.00011336250192894439
1729403425.4413958,2442,1729403425,439001152,base_link,0.008218115195631981,-0.014895333908498287,0.0012243343517184258,-0.0006082918795952202,-0.00032484520024751907,0.00015421846007573737
1729403425.5390553,2443,1729403425,536994496,base_link,0.00870897714048624,-0.014346643351018429,-6.817758549004793e-05,-0.0002870657825198102,0.0013181794026994654,0.0004823038374003432
1729403425.6434243,2444,1729403425,639991168,base_link,0.009208506904542446,-0.01444297470152378,0.00034257187508046627,0.00024830765147467213,-0.0004950108408212085,1.717042682410356e-05
1729403425.7416604,2445,1729403425,739988096,base_link,0.010654949583113194,-0.013632489368319511,0.0034784474410116673,0.001743836639413009,0.0003121705804422035,0.0009392312064576326
1729403425.8420675,2446,1729403425,839984768,base_link,0.011422799900174141,-0.012876753695309162,0.00595959322527051,0.0005553052785793331,0.0008809616893101915,0.00048594201399402713
1729403425.9387577,2447,1729403425,936981440,base_link,0.011918684467673302,-0.012689691036939621,0.008375141769647598,0.00048465556363684695,-0.00033328065995729235,-2.0031111481359773e-05
1729403426.0394268,2448,1729403426,36972992,base_link,0.011937285773456097,-0.011506911367177963,0.01037732046097517,0.0009258264198093389,0.0007947581894449432,-0.00040599010341967263
1729403426.1423476,2449,1729403426,139965312,base_link,0.009286144748330116,-0.011881430633366108,0.010267904959619045,-0.0007587516272653538,-1.835940990101184e-05,0.00020947272205473725
1729403426.2417703,2450,1729403426,238959936,base_link,0.007906845770776272,-0.011871177703142166,0.008239496499300003,0.0002475200406390016,-0.00044858769761837303,0.00010474814700770887
1729403426.3414733,2451,1729403426,338956864,base_link,0.0056075346656143665,-0.01226058416068554,0.005862801801413298,0.0005771925775866515,-0.0004549369775353011,0.0009426033289149489
1729403426.4387066,2452,1729403426,436948928,base_link,0.00465505151078105,-0.013720347546041012,0.004805578850209713,-3.96375585452673e-05,-0.0002619953676756176,0.0008674148410513687
1729403426.5388477,2453,1729403426,536944576,base_link,0.00481015257537365,-0.013135298155248165,0.0038484300021082163,-0.00013661801754918883,0.0006224208905048063,0.0012183669246218223
1729403426.6418698,2454,1729403426,639941504,base_link,0.006627713330090046,-0.012173837050795555,0.0038219208363443613,-0.000494038234965452,-0.00034762259799672247,0.000933259444723963
1729403426.7417653,2455,1729403426,739938944,base_link,0.006766326725482941,-0.011967040598392487,0.003402125556021929,-0.00039221523187171466,-0.00021817615625967346,0.0006320407280468554
1729403426.8417213,2456,1729403426,839931264,base_link,0.006980986800044775,-0.012769700028002262,0.0029841542709618807,0.0002557805449822812,0.0005827111220515068,0.00018061291124773192
1729403426.9415915,2457,1729403426,939923584,base_link,0.006110984832048416,-0.010888866148889065,-0.00012895133113488555,-0.00035368095595270045,0.0008628017342867476,6.65787463392624e-05
1729403427.0389144,2458,1729403427,36915904,base_link,0.006521934177726507,-0.009811241179704666,-0.002865752438083291,-0.00039938967474908115,-0.00022619210237011594,-0.0005807131694209293
1729403427.1430326,2459,1729403427,139913088,base_link,0.003986682742834091,-0.008446600288152695,-0.006081270053982735,0.00010234571469655358,0.0006457902683063938,0.0007053753904391437
1729403427.2386637,2460,1729403427,236908992,base_link,0.003516769502311945,-0.008749142289161682,-0.00818419735878706,0.0003342234629245226,0.0004027170000165009,0.0008764723392961643
1729403427.341784,2461,1729403427,339904640,base_link,0.002659899415448308,-0.01063771452754736,-0.010321946814656258,0.0003884108063594054,-0.00017626410088428,0.0008774931602301873
1729403427.4387705,2462,1729403427,436902080,base_link,0.0009404636221006513,-0.01266500074416399,-0.011818070895969868,0.0006397044560164708,-0.000771267825822214,9.427451100384502e-05
1729403427.5387785,2463,1729403427,536894912,base_link,-0.0019295793026685715,-0.013301785103976727,-0.0133850472047925,-0.0005357134072174523,-8.708340488999206e-05,-0.00019335124172874412
1729403427.641945,2464,1729403427,639888000,base_link,-0.004611251875758171,-0.013403130695223808,-0.01388502772897482,-0.0011686240949743785,0.00047799866336196024,-0.0003534938242145568
1729403427.7391238,2465,1729403427,736880832,base_link,-0.006464975420385599,-0.014652551151812077,-0.015041437931358814,-0.0013036596582125495,-0.0012844371645294116,0.0010324690222834633
1729403427.8419945,2466,1729403427,839876736,base_link,-0.00821484811604023,-0.015055272728204727,-0.01702338643372059,0.0004013043752958356,0.0001706834758564099,0.0012711568091870263
1729403427.9425328,2467,1729403427,939872896,base_link,-0.008459650911390781,-0.015790129080414772,-0.0177994966506958,-0.0005417788271933595,0.0005003974761769586,0.00028122027566599203
1729403428.0389922,2468,1729403428,36865216,base_link,-0.008888076059520245,-0.016146689653396606,-0.01779579371213913,-0.0006412824366153492,0.0011890720375178957,-0.000828900059862537
1729403428.1418855,2469,1729403428,139860096,base_link,-0.010852862149477005,-0.015108371153473854,-0.018820030614733696,-0.0009492662422514172,0.0014442886703227402,0.0008361947544993421
1729403428.239348,2470,1729403428,236855488,base_link,-0.012277762405574322,-0.014691848307847977,-0.019466115161776543,-0.0005598593129436715,0.0004015764036432195,0.0016033733043015399
1729403428.342295,2471,1729403428,339848576,base_link,-0.013158914633095264,-0.012895895168185234,-0.019214261323213577,-0.0007889995640944322,-0.0011336477165968658,-0.0002064696248037308
1729403428.4424272,2472,1729403428,439841664,base_link,-0.013205664232373238,-0.011893313378095627,-0.018862897530198097,0.0005359551228032904,0.0005461969579657759,-0.0002242794152446345
1729403428.5357301,2473,1729403428,533837568,base_link,-0.013469401746988297,-0.010671915486454964,-0.019375858828425407,-0.0019792217361839664,-0.0004510986855006881,0.0005585739710445639
1729403428.6387713,2474,1729403428,636833728,base_link,-0.01391134038567543,-0.009157487191259861,-0.020444361492991447,0.0008301662438269491,-0.00046048409930647064,-0.0014824536786299711
1729403428.7418537,2475,1729403428,739826560,base_link,-0.011617832817137241,-0.005839731078594923,-0.020466994494199753,-0.0005427662907159433,-0.00014358380322000814,-0.00034823629791050446
1729403428.8388176,2476,1729403428,836821696,base_link,-0.01067053247243166,-0.0038351998664438725,-0.021062111482024193,-0.0006983252908574354,-2.2404559628117865e-05,0.0006535304085717057
1729403428.940959,2477,1729403428,939814784,base_link,-0.010596719570457935,-0.0007961061783134937,-0.020070431753993034,-0.0006619151828106901,-0.0004899978025146622,0.0015996527013966244
1729403429.0420535,2478,1729403429,39807616,base_link,-0.011095508933067322,0.0018631876446306705,-0.017820026725530624,0.0006715825629028644,6.139690589689686e-05,-0.0008507730650810519
1729403429.1391013,2479,1729403429,136800960,base_link,-0.011403861455619335,0.0036477409303188324,-0.016494782641530037,0.000261522702189675,-0.0006091848844269884,0.0007468755694153174
1729403429.2414525,2480,1729403429,238797632,base_link,-0.011468899436295033,0.0049173105508089066,-0.01296874601393938,-0.0013009574267580117,6.233873398615922e-05,0.0002882627084282131
1729403429.3422382,2481,1729403429,339794304,base_link,-0.010544250719249249,0.005897833034396172,-0.009201857261359692,-0.001480786038874239,0.0010593708247607387,0.0009447847727347275
1729403429.4424126,2482,1729403429,439797376,base_link,-0.010465807281434536,0.006702638231217861,-0.007276007439941168,-0.000791305671749983,0.00018140994418063173,0.00015177192221321674
1729403429.5422702,2483,1729403429,539790976,base_link,-0.008656389079988003,0.006982089951634407,-0.0036758133210241795,-0.0016411628343646722,-0.0009204990920678173,0.0003258114815060648
1729403429.6390517,2484,1729403429,636782784,base_link,-0.006954743526875973,0.006916141603142023,-0.0013830246170982718,-0.0005484425188448008,0.0003552828958911486,0.0009808186765449818
1729403429.7414382,2485,1729403429,738778432,base_link,-0.0030718466732650995,0.0055931550450623035,0.004884662572294474,-0.00042238289576735565,-0.00035066627881499455,0.0003040946986328141
1729403429.841233,2486,1729403429,838771776,base_link,-0.00045119141577742994,0.0041086613200604916,0.009795643389225006,0.0005010525590567288,-0.0005355657023424447,0.0007500942370547319
1729403429.939622,2487,1729403429,936768448,base_link,9.68029344221577e-05,0.0029862213414162397,0.01484642829746008,-0.0011785806628576095,0.0002979718443342097,0.0006755909300060912
1729403430.0395346,2488,1729403430,36761792,base_link,0.0005140620633028448,0.0014635601546615362,0.016730928793549538,0.0011308454038051448,0.00013798900765032748,-0.0010579922282833794
1729403430.1416917,2489,1729403430,139758976,base_link,0.00027379317907616496,0.001884233090095222,0.01937859132885933,-0.0010913434514148931,-0.00042585592457396616,0.0009321567419084471
1729403430.2415009,2490,1729403430,238751040,base_link,0.0003326431615278125,0.002336073201149702,0.02201188914477825,-0.0008145343667646155,-0.0010353329160294623,-0.0010909018808091995
1729403430.339225,2491,1729403430,336746432,base_link,-3.239615762140602e-05,0.0030217019375413656,0.022532423958182335,-0.0008423586649812034,0.00250609564145701,0.0013749971389958406
1729403430.4409728,2492,1729403430,438738496,base_link,-2.870782554964535e-05,0.003234519623219967,0.024934442713856697,-0.0008802711727691891,8.566426896919682e-05,0.0008523448922762016
1729403430.5391214,2493,1729403430,536735424,base_link,-0.0005662801559083164,0.005353751592338085,0.0278462041169405,8.969511538241752e-05,-8.009000845413407e-05,0.0002620734383206587
1729403430.6391554,2494,1729403430,636732352,base_link,-0.0009404973825439811,0.00743287056684494,0.028113897889852524,-0.00030285030710219596,-0.0014082018013619939,0.0005596676596562363
1729403430.7414372,2495,1729403430,739729536,base_link,-0.0008855041232891381,0.007085207384079695,0.029681025072932243,-0.0006727947187091339,0.0011248945804312159,5.627744800250031e-05
1729403430.8427134,2496,1729403430,839725440,base_link,-0.0006199859199114144,0.006534927058964968,0.03126738220453262,-0.0006571540526885574,0.0012110368365835988,0.0003939659672531544
1729403430.9414058,2497,1729403430,938721344,base_link,-0.0009549959795549512,0.005140474531799555,0.03228504955768585,0.0008195992916052728,-0.00010340416791568632,0.0013108251286085715
1729403431.038645,2498,1729403431,36715456,base_link,-0.001642275252379477,0.004758249968290329,0.032490357756614685,0.0006774609406294496,-0.00014328204334648802,0.000366973709937956
1729403431.1416616,2499,1729403431,139708032,base_link,-0.002397173782810569,0.0059419781900942326,0.033249735832214355,-0.00030363453020145327,-0.0002843329737706902,0.0005266066719446975
1729403431.239162,2500,1729403431,236700864,base_link,-0.0029733104165643454,0.0075405375100672245,0.03430091589689255,0.000917604715046987,-0.0007373087760092583,-5.802803146435991e-07
1729403431.336288,2501,1729403431,333698048,base_link,-0.004847277421504259,0.007951976731419563,0.034036021679639816,0.000564812429007251,0.0007793771160614858,0.00018751436379924356
1729403431.4417257,2502,1729403431,439694976,base_link,-0.006484736688435078,0.007021491881459951,0.0336487777531147,-0.001124523937078389,-0.00018450184557471423,0.0008700886074427772
1729403431.5421426,2503,1729403431,539691392,base_link,-0.0065193260088562965,0.006849989295005798,0.03255171328783035,0.0007247753530311418,-0.0005164046352676291,0.0011879139339355704
1729403431.6420224,2504,1729403431,639683968,base_link,-0.0064524151384830475,0.0069109671749174595,0.03306980058550835,0.0010064036497471184,-0.00013446687404196733,-0.00012385818659907486
1729403431.7412493,2505,1729403431,739676544,base_link,-0.006067592650651932,0.006617164239287376,0.03671681135892868,-1.6490906819900227e-06,0.0005334914507256261,9.407693780793095e-05
1729403431.8381958,2506,1729403431,836673984,base_link,-0.005138353910297155,0.006872355472296476,0.038792937994003296,-0.00018669740932647817,0.0005387509646197954,0.0010496725360849232
1729403431.9414496,2507,1729403431,938666816,base_link,-0.004703917540609837,0.005835628602653742,0.03842020034790039,0.0011311490656319002,-0.00020452680017082444,-0.0008880791851428229
1729403432.0415707,2508,1729403432,39659904,base_link,-0.004843475297093391,0.005865197628736496,0.039177849888801575,0.000829529155270613,-8.241032375964276e-05,0.0016256567846239212
1729403432.1387036,2509,1729403432,136657088,base_link,-0.0046611144207417965,0.004539162386208773,0.03825027868151665,0.0003708105276919223,0.00025241022639707384,2.5339666894355104e-05
1729403432.2414722,2510,1729403432,239652480,base_link,-0.004389818757772446,0.002592729404568672,0.03644852340221405,0.0008468463545190686,-1.4557046738932904e-05,0.0003365118553203507
1729403432.341825,2511,1729403432,338645312,base_link,-0.004413321614265442,4.0191225707530975e-05,0.03446882590651512,0.00011313597386689212,0.00016704762532648084,0.0010879500759980274
1729403432.4419246,2512,1729403432,439638400,base_link,-0.004706965293735266,-0.002056956058368087,0.03311552852392197,-0.00021909879755267005,-0.0007817197233162609,-0.00010472414404704951
1729403432.5382717,2513,1729403432,536635840,base_link,-0.0037738163955509663,-0.004259211476892233,0.030430765822529793,-0.0003817224874359649,0.0006857559325771624,-0.00020549600316860513
1729403432.638338,2514,1729403432,636633536,base_link,-0.002730017527937889,-0.005531777627766132,0.02810485102236271,-0.0001678508853174286,-0.0009197225416671431,0.0005454028706666971
1729403432.7383347,2515,1729403432,736631232,base_link,-0.0029321270994842052,-0.0046028816141188145,0.02441851794719696,4.6472825227597626e-05,-6.264521212569744e-05,0.0011337862441596366
1729403432.838544,2516,1729403432,836627392,base_link,-0.0027771443128585815,-0.00396801857277751,0.022769149392843246,-0.0005866219765974383,-0.0004387470160172373,0.0007992772151882702
1729403432.9385207,2517,1729403432,936623040,base_link,-0.0028683608397841454,-0.0026919813826680183,0.02014777809381485,-0.0006377135280482343,-0.0009088061270424389,0.0009811532178612202
1729403433.041764,2518,1729403433,39616640,base_link,-0.0018003073055297136,-0.002131612505763769,0.01849440671503544,0.00021283864755683272,-3.353397006134876e-05,0.001291079112620197
1729403433.141511,2519,1729403433,139611776,base_link,-0.0016437772428616881,-0.0021352022886276245,0.018004344776272774,-0.0007411125739883276,0.000444391186421226,0.0014625965250290207
1729403433.239173,2520,1729403433,236608960,base_link,-0.0019445734797045588,-0.001507624052464962,0.017344409599900246,0.00010250421068639207,-0.0005563115734701486,0.001156172961100828
1729403433.341554,2521,1729403433,339602304,base_link,-0.002411309164017439,-0.000571954355109483,0.014995885081589222,-0.00021464783407059955,-0.0008320125979488592,0.001794570303090213
1729403433.4420817,2522,1729403433,439598720,base_link,-0.0037788955960422754,-0.0003586196980904788,0.012534256093204021,-5.246593778475132e-05,4.958057544991446e-05,1.673755336097495e-05
1729403433.5415404,2523,1729403433,539593856,base_link,-0.004885910544544458,0.0012194206938147545,0.009625553153455257,0.0004222787181034975,-0.00019556958353295718,0.0010761489904923286
1729403433.638907,2524,1729403433,636588992,base_link,-0.0058418819680809975,0.0024073119275271893,0.00796816311776638,0.0005892291694433343,-0.000183599409443466,-0.000838989084291076
1729403433.7421534,2525,1729403433,739584128,base_link,-0.007634660229086876,0.006051919423043728,0.007451126351952553,-0.001256412720814459,-0.0009330595649714007,-0.0011073498515562369
1729403433.8422334,2526,1729403433,839577472,base_link,-0.008469652384519577,0.008714569732546806,0.007680668029934168,-0.00040678669333203747,0.00023754629732963516,-0.00021439261704540426
1729403433.942041,2527,1729403433,939571072,base_link,-0.007950245402753353,0.008555623702704906,0.007242078427225351,5.5634033790517865e-05,0.00021129879009130763,-0.0003068492396228873
1729403434.0389075,2528,1729403434,36564416,base_link,-0.00776188587769866,0.007656280416995287,0.007383408956229687,0.0009867468831167069,0.0011323886543407964,0.0006096154188347175
1729403434.1418126,2529,1729403434,139558016,base_link,-0.006565903313457966,0.0082160122692585,0.005555160343647003,8.024936432195783e-05,-9.233378286506409e-05,0.0006735387486398528
1729403434.2410283,2530,1729403434,239551360,base_link,-0.005614196415990591,0.008374474011361599,0.004883992485702038,0.00042112691662851486,-0.00018925408684579924,0.0004204987368619951
1729403434.3407352,2531,1729403434,338543936,base_link,-0.003891517873853445,0.007407593075186014,0.006846188567578793,-0.0001718337787258825,-0.00032453999185505554,0.0014456291561464444
1729403434.4387243,2532,1729403434,436537280,base_link,-0.002807748969644308,0.00703259464353323,0.005810254719108343,-0.001217550520388867,0.0011063556793946448,0.0012459421232650896
1729403434.5390265,2533,1729403434,536532672,base_link,-0.0025004653725773096,0.006068648770451546,0.005144777707755566,-0.0006532685023609048,0.0002241146445187717,0.0008599480768667204
1729403434.6388001,2534,1729403434,636529344,base_link,-0.0024380446411669254,0.005348266568034887,0.003925585653632879,-0.0010508354449187151,0.0003134356955466121,-0.0006679668504117128
1729403434.738777,2535,1729403434,736523200,base_link,-0.0002684767823666334,0.0037915417924523354,0.0038778388407081366,0.00041310045425265915,0.0006552021237418546,-0.00032188654936317194
1729403434.8407726,2536,1729403434,839519872,base_link,0.0007710359641350806,0.0019347983179613948,0.002350193914026022,0.00033946569388767215,0.00032899875884009265,-0.00011614727453097931
1729403434.939093,2537,1729403434,936515264,base_link,0.0028860585298389196,0.0006749043241143227,0.0014542540302500129,0.00016469021685168553,0.0009835924297737254,-0.00049925632174827
1729403435.0419588,2538,1729403435,39509120,base_link,0.004352889489382505,-0.0006760433898307383,0.0016318432753905654,9.958100488793461e-05,-0.0011714614405682153,-0.0007385000834613038
1729403435.1400933,2539,1729403435,136504512,base_link,0.005253244191408157,-0.0008623825269751251,0.0018948004581034184,-0.00026600351156852073,-0.00014274866195176347,0.00044940329989111847
1729403435.242169,2540,1729403435,239498112,base_link,0.0065294974483549595,-0.001782753854058683,-0.0007288803462870419,0.0011299762456350583,0.0011114079413789108,-0.00018175072056259847
1729403435.3410096,2541,1729403435,339490432,base_link,0.0058338516391813755,-0.000814331229776144,-0.0015986624639481306,3.203785319283048e-05,0.0001819326194841687,0.000748370636446245
1729403435.438886,2542,1729403435,436484288,base_link,0.005436934530735016,9.141707414528355e-05,-0.000928929599467665,-0.0006782780120320279,1.6853608762452973e-05,0.0007170783137831766
1729403435.5388575,2543,1729403435,536477120,base_link,0.006833793595433235,0.0007845698855817318,-0.001899022958241403,0.00010405002891439304,0.0003626069343799502,-0.00029151122688036405
1729403435.6378248,2544,1729403435,636473024,base_link,0.008304881863296032,0.0020993021316826344,-0.001365453703328967,-0.000285485622839183,-0.00018543516385199828,-0.0001849781399542028
1729403435.7417176,2545,1729403435,738465600,base_link,0.009009896777570248,0.0014519687974825501,0.0006909865187481046,-0.0006985551984087361,0.00021350465405798856,0.000864219119007049
1729403435.8393435,2546,1729403435,836458176,base_link,0.010196453891694546,0.0018851876957342029,0.0027227061800658703,-0.0004764625009965074,-0.0007453722173533459,-5.518907905457166e-05
1729403435.938996,2547,1729403435,936454848,base_link,0.010920158587396145,0.0007819915190339088,0.005414873361587524,6.45375316716565e-05,0.0010209270400436188,-0.0007327449653878299
1729403436.0392237,2548,1729403436,36448960,base_link,0.011050625704228878,-0.0010263891890645027,0.007820171304047108,0.0010711839495383714,0.0009855810104869658,0.00031747156714168924
1729403436.1445482,2549,1729403436,141440768,base_link,0.01191090326756239,-0.0033815791830420494,0.009214513935148716,0.0005103163912444911,0.00023927755914447088,0.00036532725071694236
1729403436.2380528,2550,1729403436,236437696,base_link,0.01234739925712347,-0.0043275728821754456,0.007655477151274681,7.546775439950135e-05,0.0002458500761712483,0.00045059631184560543
1729403436.338655,2551,1729403436,336434112,base_link,0.012226213701069355,-0.005602801218628883,0.007196496240794659,-0.0005959472711994536,-0.0003773558963984471,0.00035417818146029056
1729403436.4412987,2552,1729403436,439433088,base_link,0.013067945837974548,-0.006627063266932964,0.0070085469633340836,2.1939294616164057e-05,-0.0006126963408565096,0.0008298357117577872
1729403436.538109,2553,1729403436,536429248,base_link,0.012388553470373154,-0.005148308351635933,0.0052833231166005135,0.0002825040634427262,-0.0004476711751317656,-0.0005279972881486104
1729403436.6380413,2554,1729403436,636421824,base_link,0.0122373066842556,-0.004664243198931217,0.003917020745575428,-0.0005354909409753623,-0.0010518158170762433,0.0008680047009239484
1729403436.7412622,2555,1729403436,738416192,base_link,0.010532708838582039,-0.0012544853379949927,0.002302802400663495,0.0010702121683680034,-2.9551280310863546e-05,0.00037663646666946275
1729403436.841527,2556,1729403436,838413120,base_link,0.009897546842694283,0.0010144058614969254,0.0016380439046770334,0.00026293235438485773,0.00017925292329058342,-0.0008414499560298915
1729403436.9410813,2557,1729403436,939406208,base_link,0.010686909779906273,0.0007725097821094096,0.0011624506441876292,-0.0013042549312414341,0.00017166092708476577,-0.00011420191866483298
1729403437.0381072,2558,1729403437,36400832,base_link,0.011509832926094532,3.878031930071302e-05,0.0006523519405163825,0.0010098868615632769,0.00024714546984741336,0.0020728440350823584
1729403437.1418118,2559,1729403437,139394432,base_link,0.009765936061739922,0.0005315507296472788,-0.00029750081012025476,-2.9811371988829893e-05,-0.000319990160905907,0.0011555468703903847
1729403437.2410977,2560,1729403437,238387520,base_link,0.008513064123690128,0.00047719795838929713,0.00029191887006163597,0.00044890616702457207,0.0008120199859336746,0.0006405888174000076
1729403437.3411186,2561,1729403437,339380608,base_link,0.008211438544094563,5.501361738424748e-05,-0.0008507473394274712,-0.00024782544893485047,-6.026819273203598e-05,0.0009154597947101722
1729403437.441301,2562,1729403437,439373696,base_link,0.008706948719918728,-0.0006389470072463155,-0.0018806641455739737,9.67004983691786e-06,-0.0010547274964517427,0.0008113064615318057
1729403437.54105,2563,1729403437,539367040,base_link,0.007494277320802212,-0.0010744233150035143,-0.0047036451287567616,-0.00034589217523296354,0.0006227997140357469,0.0007520562424540406
1729403437.6381223,2564,1729403437,636360128,base_link,0.007016931194812059,-0.0016109163407236338,-0.0059965988621115685,-0.001583807597105791,0.001106719636234962,0.0005749316202895385
1729403437.7415526,2565,1729403437,739352448,base_link,0.004396271891891956,-0.003339868737384677,-0.010280260816216469,-0.0014170906353520823,0.00015601052395682074,0.0008226327733875086
1729403437.84131,2566,1729403437,839346048,base_link,0.00228218175470829,-0.0039970045909285545,-0.012695377692580223,-0.00018659095620175847,-0.0006654108701761724,0.00041362249065858396
1729403437.9387472,2567,1729403437,936339136,base_link,0.0016112175071612,-0.0027054818347096443,-0.014390174299478531,-0.0002585641086235703,0.00045343620747444576,0.0003438664364857119
1729403438.041536,2568,1729403438,39332736,base_link,0.0006473323446698487,-0.0015531847020611167,-0.015823788940906525,0.0006427254711779785,-0.00048676087636660486,0.0005902507717817782
1729403438.1383755,2569,1729403438,136325824,base_link,-0.00031018679146654904,-0.0012912674574181437,-0.015815870836377144,-0.00038502941481773735,0.00037057638667578716,0.00018200610992427586
1729403438.2414794,2570,1729403438,239319168,base_link,-0.0007891317363828421,-0.00048540759598836303,-0.015775587409734726,-0.001117495228118428,0.000689034419823521,4.634767525074675e-06
1729403438.3386462,2571,1729403438,336312512,base_link,-0.0006285429699346423,-0.0013425503857433796,-0.016372721642255783,0.0005789621886090115,0.0007877889482837452,0.0014641610750969131
1729403438.4386687,2572,1729403438,436306112,base_link,-0.001177722355350852,-0.002752884989604354,-0.0166939664632082,-0.00024233553569466115,0.001035080550844315,0.00044027843855693453
1729403438.542429,2573,1729403438,538301504,base_link,-0.0013932731235399842,-0.003115347120910883,-0.016563327983021736,-5.652538163843642e-05,9.693009323600276e-05,-8.114524454503126e-05
1729403438.6419847,2574,1729403438,639295104,base_link,-0.0010146716376766562,-0.003379947505891323,-0.017476147040724754,-0.0007671516232674383,-0.0002984621798447248,0.0011670520451429387
1729403438.7418242,2575,1729403438,738288704,base_link,1.3632350601255894e-05,-0.0032165884040296078,-0.018406152725219727,-1.4380092649488379e-05,0.0007457949003409154,0.0007512542102727249
1729403438.8366568,2576,1729403438,833282304,base_link,0.0014639018336310983,-0.0028021098114550114,-0.019702132791280746,0.0004811322747075851,0.0020372273415304684,0.0014120149085102012
1729403438.941758,2577,1729403438,939276160,base_link,0.003687690943479538,-0.0015069424407556653,-0.019555533304810524,0.0009984462206673983,0.00018803457868917162,0.00021181598294491903
1729403439.0414734,2578,1729403439,39269760,base_link,0.005437199026346207,-0.001629002159461379,-0.02063603699207306,0.000708549851662287,-0.0007236232191513484,0.0010819451359282395
1729403439.1414745,2579,1729403439,138265152,base_link,0.0052956221625208855,-0.0006110321264714003,-0.020592879503965378,0.0007103244008016893,0.001072363057730679,0.0003366180646732841
1729403439.2414315,2580,1729403439,239259008,base_link,0.00418993690982461,0.0006892954115755856,-0.021823741495609283,-0.00044816404297497316,0.00022080022648700092,0.00016460855317073348
1729403439.3416955,2581,1729403439,339252608,base_link,0.003919877111911774,0.002625615568831563,-0.02251741848886013,3.990085292446461e-05,-0.0006567855786941937,-3.478602919178548e-05
1729403439.442012,2582,1729403439,439246464,base_link,0.004338816739618778,0.0035229064524173737,-0.023774130269885063,-0.0003368837282825975,0.0007585560055453057,-8.162342513257681e-05
1729403439.5384307,2583,1729403439,536240064,base_link,0.0036887945607304573,0.00521062221378088,-0.023813379928469658,-1.1566919035983086e-05,-0.0004373984693536286,-0.0007397537966423002
1729403439.6385086,2584,1729403439,636234176,base_link,0.0044927410781383514,0.006953003816306591,-0.02529584802687168,-0.0003531538069022792,0.00065860670901556,-0.00014247950451426057
1729403439.741493,2585,1729403439,739228032,base_link,0.005338126327842474,0.008989919908344746,-0.023147789761424065,0.0006220764770048772,0.0008584711984346402,0.00015163152652505912
1729403439.8384879,2586,1729403439,836222144,base_link,0.00611262209713459,0.010594562627375126,-0.02199689857661724,-0.0005238186848474443,-0.001366817954635058,0.0005781318676744696
1729403439.9405234,2587,1729403439,938216256,base_link,0.007796700578182936,0.011747327633202076,-0.0190297681838274,0.0005220871476219289,-3.2493479514113626e-05,0.0008873564204162823
1729403440.0406637,2588,1729403440,39210368,base_link,0.009698780253529549,0.012497986666858196,-0.017504040151834488,-0.00020876760365904132,0.0015711124849307333,-0.0004811217316964386
1729403440.141284,2589,1729403440,138204480,base_link,0.011110775172710419,0.013512911275029182,-0.014778289943933487,0.0001628219581733824,0.0020079316153456196,0.0005562376569463403
1729403440.2423916,2590,1729403440,239202176,base_link,0.011536214500665665,0.015751464292407036,-0.01214517094194889,0.0006221473921337544,0.0007968490657150176,0.000370411007684576
1729403440.338591,2591,1729403440,336196288,base_link,0.011523016728460789,0.01490696333348751,-0.009127859026193619,0.0005146048874808373,-0.00022301714750903526,0.0002451348436674868
1729403440.4435852,2592,1729403440,441189120,base_link,0.012303140014410019,0.01402385625988245,-0.004934059455990791,2.8210900186973237e-05,0.0015464918132573708,-0.0013486731529215674
1729403440.5407243,2593,1729403440,539181952,base_link,0.011051907204091549,0.014123496599495411,-0.0011744112707674503,2.513840316626326e-05,0.0011353007888397944,-0.0007339696333645923
1729403440.6390457,2594,1729403440,636174528,base_link,0.010146278887987137,0.013488135300576687,0.0011418347712606192,-0.00026984769652203935,0.0008645531461045501,-0.00017405776359519869
1729403440.73853,2595,1729403440,736170944,base_link,0.009791342541575432,0.013790654018521309,0.001615742570720613,0.0007096618730017662,-0.0003212870369950738,-0.0007078462417664205
1729403440.8386521,2596,1729403440,836165568,base_link,0.008961058221757412,0.013969643041491508,0.0004986581625416875,0.00118446883235697,0.00030390555591588183,0.0002953009913902956
1729403440.9387782,2597,1729403440,936158656,base_link,0.006249741651117802,0.013825008645653725,-0.000973548972979188,-0.00026673608277629667,0.0011943458681139057,0.0008994917740385029
1729403441.0406904,2598,1729403441,38153280,base_link,0.005349654238671064,0.013104995712637901,-0.0010113146854564548,0.0007479496672894049,0.00020079556694197108,-0.00037764250697914153
1729403441.1439962,2599,1729403441,141147136,base_link,0.005049410741776228,0.011286796070635319,-0.0009992399718612432,0.00029778679729396053,-0.0003450369502637193,0.0006177527320530658
1729403441.241496,2600,1729403441,238144832,base_link,0.003932117018848658,0.009986558929085732,-0.0010818300070241094,-0.0004959461786383634,-0.00010848889837612571,0.00015281912897713282
1729403441.340531,2601,1729403441,339137920,base_link,0.0037004195619374514,0.008939585648477077,0.0017894012853503227,-0.0012096276538261271,-0.0011976446259980224,0.0003430419692844871
1729403441.44105,2602,1729403441,438131008,base_link,0.003726881230250001,0.00746881915256381,0.0037090068217366934,-0.00042453281301361675,0.0009589847218913986,0.00152036104845342
1729403441.5383039,2603,1729403441,536124096,base_link,0.00081913877511397,0.006428981199860573,0.002079226076602936,-0.0017767957053958286,2.648089253272377e-05,-0.001060256663035621
1729403441.6388986,2604,1729403441,636117696,base_link,-0.0011346344836056232,0.006471524015069008,0.0011978148249909282,-0.000388368731592083,-0.0020173457258231852,0.000709907136314132
1729403441.741416,2605,1729403441,738111552,base_link,-0.003305375576019287,0.006967177148908377,-0.0004020160704385489,-0.00013536462525395634,0.0007201367208017833,7.383789305149135e-05
1729403441.839306,2606,1729403441,836108224,base_link,-0.003450046991929412,0.0060133361257612705,-0.0003039698058273643,0.0004674272566150289,-0.00039063162463159255,0.000856288049439291
1729403441.9409971,2607,1729403441,938101824,base_link,-0.0019640508107841015,0.0063223764300346375,0.0014256048016250134,-0.0006359863720032148,0.0005601910735335264,0.0003850573151848581
1729403442.0377085,2608,1729403442,36094912,base_link,-0.0009051996166817844,0.006372443865984678,0.00395723432302475,-9.802920536443239e-06,-0.000455078745149598,6.159104069674757e-05
1729403442.1408193,2609,1729403442,139088512,base_link,0.000982634723186493,0.005833637900650501,0.006323858629912138,0.0010705543674507103,0.00046625012986342495,0.0008175143512345744
1729403442.2393105,2610,1729403442,236085952,base_link,0.001785548753105104,0.0055600362829864025,0.008831126615405083,0.00023808917154583573,0.00018212128099488989,0.0005517106668661404
1729403442.3413804,2611,1729403442,339078784,base_link,0.0044467151165008545,0.003907404374331236,0.009985529817640781,0.0020561814172453635,-0.0001736353746376988,0.0013975938507665817
1729403442.4382277,2612,1729403442,436072384,base_link,0.0064252037554979324,0.0035505250561982393,0.011845442466437817,-0.00011719741090977014,0.0008072379115187632,0.0006354804200648957
1729403442.5412092,2613,1729403442,539065728,base_link,0.008116602897644043,0.002346253953874111,0.012351756915450096,-0.00025098764902731555,-0.0010071533894331895,0.00022939234921505718
1729403442.638424,2614,1729403442,636059840,base_link,0.00919493567198515,0.001124031376093626,0.012712658382952213,-0.00016452159856556172,0.0008228676030505309,0.0008804623896169072
1729403442.7413504,2615,1729403442,739053184,base_link,0.009774272330105305,-8.217288996092975e-05,0.011270001530647278,-0.0002169135842658957,-0.0003986966719048497,0.0005104579623925108
1729403442.8390665,2616,1729403442,836046528,base_link,0.011459504254162312,-0.001717657083645463,0.011354176327586174,-0.0009374690003074133,0.00044942677214918433,0.0007184637944975631
1729403442.9408112,2617,1729403442,939039872,base_link,0.012457861565053463,-0.0022343576420098543,0.010121898725628853,4.1971232169793355e-05,0.0014205835639654841,0.00038540962272301174
1729403443.0381343,2618,1729403443,36033728,base_link,0.012892540544271469,-0.0022811300586909056,0.009815111756324768,0.00017495387503359418,-0.00031469604948274087,-0.0007176357054094392
1729403443.1412122,2619,1729403443,139026560,base_link,0.013154491782188416,-0.0020912466570734978,0.006607821676880121,0.00022391083077724337,0.0010273834681518732,0.0008206391819330402
1729403443.2420917,2620,1729403443,239020416,base_link,0.013580973260104656,-0.001909989514388144,0.004918661434203386,-0.001474532957438475,0.00034021289261901695,9.319709764335141e-05
1729403443.341242,2621,1729403443,338013760,base_link,0.014501557685434818,-0.0012698876671493053,0.0015790821053087711,0.00016780738900054444,0.0010423603394074765,-0.0010372618986656949
1729403443.4413533,2622,1729403443,438007616,base_link,0.01611974649131298,-0.0012952364049851894,-0.0005573316011577845,-0.0002452204770260972,0.0006183474949897318,0.0004159008238192284
1729403443.5380363,2623,1729403443,536001216,base_link,0.017653634771704674,-1.0272669896949083e-05,-0.0016334648244082928,-0.0004524553846538639,-0.0005224524513616508,-0.0009948100155148989
1729403443.641069,2624,1729403443,637994816,base_link,0.018487172201275826,0.001430224860087037,-0.0032321151811629534,0.0003918785512251925,0.0011650237031218154,0.0001906850105207227
1729403443.741342,2625,1729403443,738988160,base_link,0.018754811957478523,0.0033555333502590656,-0.0038649055641144514,6.244293062365277e-06,-0.0010573921812755398,0.0010580633253231175
1729403443.8414001,2626,1729403443,838981760,base_link,0.01910775899887085,0.005029811058193445,-0.004553029779344797,-0.00011041138837166596,-0.0008440790355713475,-0.0008118829128956545
1729403443.9352953,2627,1729403443,932975616,base_link,0.01969814859330654,0.006978947669267654,-0.005517553072422743,-0.0006693102167697384,-0.00021610204195604375,-0.00032365655860510143
