Time,header.seq,header.stamp.secs,header.stamp.nsecs,header.frame_id,pose.position.x,pose.position.y,pose.position.z,pose.orientation.x,pose.orientation.y,pose.orientation.z,pose.orientation.w
1729403412.2207572,0,1729403412,137574592,map,1.4500484466552734,0.043364956974983215,0.36446526646614075,-0.039089822299160366,0.018192331622598985,-0.3583070915405557,-0.9326076629614948
1729403412.2459006,1,1729403412,236569216,map,1.446140170097351,0.04612860083580017,0.3660522997379303,-0.03908393902347966,0.018213071487711688,-0.35831707043226596,-0.9326036707917416
1729403412.3341715,2,1729403412,332563840,map,1.4437557458877563,0.05144128203392029,0.37189847230911255,-0.03904711130023393,0.018206988441789917,-0.35832266688378533,-0.9326031819955791
1729403412.4389007,3,1729403412,437559232,map,1.4416940212249756,0.05696496367454529,0.37537017464637756,-0.039033125570904735,0.01817680437301784,-0.3583122256411849,-0.9326083678838677
1729403412.5366554,4,1729403412,534556416,map,1.4424574375152588,0.058102041482925415,0.3801729679107666,-0.03907634291460099,0.01816283332024069,-0.3583033092782171,-0.9326102559324985
1729403412.636001,5,1729403412,634551040,map,1.4432796239852905,0.05891112610697746,0.38756781816482544,-0.03915028177872635,0.018136423325919738,-0.35828450620807334,-0.9326148927595068
1729403412.7360327,6,1729403412,734546688,map,1.442971110343933,0.05907081440091133,0.3909973204135895,-0.03919594896030582,0.018124419623019073,-0.3582804158185578,-0.9326147793378095
1729403412.8392284,7,1729403412,837543616,map,1.442539930343628,0.059167783707380295,0.392339825630188,-0.039222620336646495,0.018155690531790704,-0.35831203770253467,-0.9326009010250302
1729403412.9362469,8,1729403412,934539520,map,1.4418251514434814,0.05913122743368149,0.3928266763687134,-0.03923380978349131,0.018164297488117487,-0.35832482834652185,-0.9325953483998682
1729403413.0389512,9,1729403413,36531584,map,1.4411206245422363,0.05939650535583496,0.3920297920703888,-0.039234578470342625,0.018165252243541815,-0.35834058536486785,-0.9325892430987754
1729403413.1406596,10,1729403413,136526464,map,1.4387197494506836,0.05980879068374634,0.3892042338848114,-0.03924263691011256,0.018190344029508497,-0.3583569329279504,-0.9325821333560393
1729403413.2403996,11,1729403413,237524160,map,1.4363552331924438,0.0603555366396904,0.38850346207618713,-0.03925342153064239,0.01821104668014316,-0.3583652422981229,-0.9325780824089527
1729403413.3395395,12,1729403413,336519040,map,1.433072566986084,0.061483949422836304,0.381384938955307,-0.039246513976428185,0.018244051090141614,-0.3583776759563184,-0.9325729500241073
1729403413.4371696,13,1729403413,434516480,map,1.4296143054962158,0.06280981004238129,0.37357258796691895,-0.039241554833596676,0.018270987280974114,-0.35838170373686123,-0.9325710835237628
1729403413.5365732,14,1729403413,534511360,map,1.4252499341964722,0.06438153982162476,0.3659287989139557,-0.03923424692554949,0.018299193810793785,-0.3583899955287814,-0.9325676514221048
1729403413.6339672,15,1729403413,632506752,map,1.4214184284210205,0.06579720228910446,0.35277870297431946,-0.03922563863702035,0.01831314364298505,-0.3583913149996669,-0.9325672326305694
1729403413.7397938,16,1729403413,737503424,map,1.4198472499847412,0.0663205236196518,0.34578990936279297,-0.039255042957568584,0.01831220627777378,-0.35840202120565573,-0.9325618992320781
1729403413.839829,17,1729403413,837499840,map,1.4191886186599731,0.06657126545906067,0.3461593985557556,-0.039294992374052554,0.01828403369925645,-0.35841260672383435,-0.9325567012398943
1729403413.9365506,18,1729403413,934496512,map,1.4203866720199585,0.06438571214675903,0.35647323727607727,-0.039355183476736465,0.018250619697929158,-0.35842586148582567,-0.9325497231956577
1729403414.040385,19,1729403414,37492928,map,1.421811580657959,0.061964355409145355,0.3681352436542511,-0.03943978007722318,0.018215230194145438,-0.35843407462086413,-0.9325436843854122
1729403414.140353,20,1729403414,137489088,map,1.42209792137146,0.06016036868095398,0.37993860244750977,-0.03947657605231235,0.018210013388351234,-0.3584318214470137,-0.9325430953740197
1729403414.2399468,21,1729403414,237485760,map,1.4222215414047241,0.05869827792048454,0.3910577893257141,-0.039471863306718306,0.018203273626643368,-0.3584406518496567,-0.9325400323514066
1729403414.3366187,22,1729403414,334482176,map,1.4211983680725098,0.05991528555750847,0.3984511196613312,-0.03944255580922319,0.01819087845416452,-0.35844368899021545,-0.9325403468780253
1729403414.440244,23,1729403414,437478848,map,1.4203218221664429,0.06107091158628464,0.4064459800720215,-0.03942126365122598,0.01818367872426502,-0.3584604125386666,-0.932534959367638
1729403414.54008,24,1729403414,537475776,map,1.4197779893875122,0.06398043036460876,0.4125116169452667,-0.03938368168624469,0.018163757321581715,-0.3584767768903115,-0.9325306450552351
1729403414.638851,25,1729403414,636472704,map,1.4192841053009033,0.06632882356643677,0.41333696246147156,-0.03937454657298703,0.018135334077114422,-0.35848996714397785,-0.9325265134017331
1729403414.7369192,26,1729403414,734468608,map,1.4172189235687256,0.06727688759565353,0.4194345474243164,-0.0393785554881852,0.018152170774732884,-0.3585188442201551,-0.9325149148420486
1729403414.8368554,27,1729403414,834464512,map,1.4152880907058716,0.06788270175457001,0.42222926020622253,-0.03938246997285239,0.01816203120601681,-0.3585309227623879,-0.9325099136762351
1729403414.9371948,28,1729403414,934463232,map,1.4117363691329956,0.06939493119716644,0.4263537526130676,-0.03938512468293737,0.018163095627949336,-0.3585378305701507,-0.9325071248848286
1729403415.0390573,29,1729403415,36458880,map,1.4084893465042114,0.07069803774356842,0.434545636177063,-0.039376350950080664,0.018177086222873867,-0.3585454305517865,-0.9325043006617914
1729403415.1403818,30,1729403415,136454784,map,1.4077423810958862,0.07056744396686554,0.4481324553489685,-0.039373785654006156,0.01814695799815456,-0.3585717343363195,-0.9324948816233415
1729403415.236199,31,1729403415,234453504,map,1.4074375629425049,0.07024940103292465,0.4566299021244049,-0.03941138434632276,0.018101338079572055,-0.3585962323889268,-0.9324847593714884
1729403415.3391037,32,1729403415,337449408,map,1.4072633981704712,0.07074172794818878,0.46333110332489014,-0.03943465309220461,0.018092423315862,-0.3586048820429876,-0.9324806222806948
1729403415.4387672,33,1729403415,436445568,map,1.4071815013885498,0.0714811161160469,0.4708280563354492,-0.03944988770418898,0.018078421094743245,-0.35859929114068323,-0.9324823995359093
1729403415.5389566,34,1729403415,537442752,map,1.4068080186843872,0.07139895856380463,0.4762354791164398,-0.039480688913977054,0.01808752455982695,-0.35858625175677783,-0.9324859337862423
1729403415.6369777,35,1729403415,634437376,map,1.4065574407577515,0.07111992686986923,0.4747927784919739,-0.03949421621322303,0.01808914886096613,-0.3585780766557433,-0.9324884731303956
1729403415.737101,36,1729403415,734432256,map,1.403350830078125,0.07136242091655731,0.4683775305747986,-0.039508523397882245,0.018102061091864942,-0.3585732246278258,-0.9324894822694507
1729403415.8389628,37,1729403415,837427904,map,1.4001448154449463,0.07153793424367905,0.46418580412864685,-0.039500229457850894,0.018128378495579453,-0.3585873758586049,-0.9324838806331923
1729403415.937732,38,1729403415,934423296,map,1.3972647190093994,0.0714380294084549,0.4644797742366791,-0.03951034721795784,0.018128771635127817,-0.35860231420208954,-0.9324776996532536
1729403416.037472,39,1729403416,34417920,map,1.3949819803237915,0.07124162465333939,0.4631781578063965,-0.03953219876273471,0.018120628390549814,-0.3586174417067482,-0.9324711140788341
1729403416.137159,40,1729403416,134413824,map,1.3928674459457397,0.07073774933815002,0.4571150839328766,-0.03955476435533812,0.018114226617112802,-0.358626349918665,-0.9324668554725538
1729403416.2371078,41,1729403416,234413824,map,1.3912416696548462,0.07014920562505722,0.4504557251930237,-0.03955507086565655,0.01810442755608912,-0.3586571628176272,-0.9324551815670763
1729403416.3376513,42,1729403416,335409728,map,1.389990210533142,0.07243555039167404,0.44146502017974854,-0.03954537884821948,0.01809245803419089,-0.35867366219054275,-0.9324494785375004
1729403416.437488,43,1729403416,435405888,map,1.389169692993164,0.07446564733982086,0.43651914596557617,-0.039514644432797376,0.018060820916976295,-0.35867328397428333,-0.9324515402884259
1729403416.5375607,44,1729403416,534401024,map,1.3845481872558594,0.07804235070943832,0.4298112988471985,-0.039461592834404334,0.01807756989054431,-0.35870084220826487,-0.9324428614971029
1729403416.6397762,45,1729403416,636397440,map,1.3803082704544067,0.08110441267490387,0.42267879843711853,-0.039419610954492736,0.018101270408885352,-0.3587187181734929,-0.9324373005804449
1729403416.736658,46,1729403416,734394112,map,1.375154733657837,0.08441305160522461,0.4171057343482971,-0.03939567348455206,0.018110889711207334,-0.358724231610784,-0.9324360043669591
1729403416.8392003,47,1729403416,836390016,map,1.370721459388733,0.08719846606254578,0.4188254773616791,-0.039391806816022036,0.01812411391934504,-0.3587349112504559,-0.9324318020641162
1729403416.9368508,48,1729403416,934385152,map,1.367119312286377,0.0896502286195755,0.41826561093330383,-0.03939497066535266,0.018114475126110273,-0.3587679590208361,-0.9324191405463559
1729403417.0390382,49,1729403417,36377216,map,1.3641564846038818,0.09167735278606415,0.4162808954715729,-0.03940910216780125,0.018100009748556647,-0.35876200610840286,-0.9324211147794242
1729403417.1389763,50,1729403417,136372608,map,1.3625375032424927,0.09419237077236176,0.4120185673236847,-0.03941700077042765,0.018081200432297787,-0.35876425880426255,-0.9324202790833217
1729403417.2398996,51,1729403417,236368000,map,1.3613146543502808,0.09630680829286575,0.41442540287971497,-0.039421163168900465,0.018053852767498747,-0.3587697325457641,-0.9324185268985711
1729403417.3420417,52,1729403417,340361856,map,1.3585301637649536,0.09652244299650192,0.41855430603027344,-0.03944739605250798,0.018053616892305793,-0.3587938433488464,-0.9324081444500288
1729403417.4389815,53,1729403417,437358272,map,1.3560484647750854,0.0961432233452797,0.4227654039859772,-0.03946512776128276,0.01805918249949945,-0.35880789406654384,-0.9324018794349178
1729403417.5389595,54,1729403417,537353920,map,1.3546671867370605,0.09609194099903107,0.4259057641029358,-0.03947985369714503,0.018056390803610406,-0.3588333538564289,-0.9323915122218489
1729403417.638691,55,1729403417,637349056,map,1.3536673784255981,0.09612307697534561,0.43008285760879517,-0.039497421188178984,0.018055258196165637,-0.35883108100682454,-0.9323916648460704
1729403417.7417018,56,1729403417,740345728,map,1.3549641370773315,0.09561936557292938,0.4330436885356903,-0.03950143477983361,0.01800258639957228,-0.35880882192535424,-0.9324010793868696
1729403417.8386555,57,1729403417,837342400,map,1.3559552431106567,0.0952872484922409,0.4312187433242798,-0.039524654361278534,0.017967632273530366,-0.35878906471017835,-0.9324083724058359
1729403417.9417365,58,1729403417,940339328,map,1.3553452491760254,0.09707749634981155,0.43068575859069824,-0.03951821526842674,0.017961124803733616,-0.3587836842573821,-0.9324108410826647
1729403418.042049,59,1729403418,39331392,map,1.3548166751861572,0.0985465869307518,0.43537968397140503,-0.03951386721133415,0.017972354849777893,-0.35881328716407973,-0.9323994174781891
1729403418.1390874,60,1729403418,137327040,map,1.354040265083313,0.10252242535352707,0.44179561734199524,-0.03947527244180361,0.017960300569667548,-0.3588283970040726,-0.9323954697297602
1729403418.2425735,61,1729403418,239322688,map,1.353418231010437,0.10655290633440018,0.4489205777645111,-0.03944469685244926,0.01793759854435442,-0.3588492289750927,-0.9323891833953575
1729403418.3394392,62,1729403418,337318336,map,1.3524599075317383,0.10845652967691422,0.4529293477535248,-0.03942409473407493,0.01792662732982822,-0.35887304485238924,-0.9323810993715773
1729403418.4422798,63,1729403418,440312704,map,1.3517193794250488,0.11038857698440552,0.4587974548339844,-0.039425382891874826,0.017929609325428544,-0.35889041433051105,-0.9323743018739528
1729403418.539385,64,1729403418,537305792,map,1.3504730463027954,0.11087369918823242,0.46166977286338806,-0.03943904981909343,0.017946559555818704,-0.358893755659679,-0.9323721116045713
1729403418.6393502,65,1729403418,637303232,map,1.3494622707366943,0.11124542355537415,0.4694846272468567,-0.03946495773545225,0.01794691771927065,-0.35892119617826973,-0.9323604454229473
1729403418.7415738,66,1729403418,740298880,map,1.3465250730514526,0.11146688461303711,0.4789807200431824,-0.03947027386029023,0.017962342976932853,-0.35894441971213886,-0.9323509828780623
1729403418.8428497,67,1729403418,840294528,map,1.3444586992263794,0.11168491840362549,0.48421990871429443,-0.039476775456127045,0.017963495244936213,-0.358970837604803,-0.9323405143977592
1729403418.9419467,68,1729403418,939290176,map,1.3408764600753784,0.11295994371175766,0.4875813126564026,-0.039464947279620036,0.01799607508540039,-0.35900455710655066,-0.9323274034342588
1729403419.0394065,69,1729403419,37286080,map,1.3384177684783936,0.11402147263288498,0.49056488275527954,-0.03945731718919516,0.018006883277491573,-0.3590428561992732,-0.9323127692395563
1729403419.142892,70,1729403419,140283264,map,1.336535096168518,0.11762617528438568,0.4964025616645813,-0.03943357956184392,0.017994418609108106,-0.3590782801585266,-0.9323003713504863
1729403419.239143,71,1729403419,237280960,map,1.3354911804199219,0.12035226076841354,0.5033037066459656,-0.03941061698720631,0.017967297965372074,-0.3590964377998528,-0.9322948717181532
1729403419.3394556,72,1729403419,337275584,map,1.3334436416625977,0.12233330309391022,0.5101474523544312,-0.039385897828894685,0.017953932298422872,-0.35912510725573993,-0.9322851305828003
1729403419.4412847,73,1729403419,440273280,map,1.331088900566101,0.12374474108219147,0.5150519013404846,-0.03941197393143828,0.017963543013847727,-0.35913041177543703,-0.9322818000858015
1729403419.539376,74,1729403419,537269184,map,1.3287502527236938,0.12316938489675522,0.5168936848640442,-0.039443421141691366,0.017983135005240097,-0.3591465223358235,-0.9322738861933795
1729403419.6394203,75,1729403419,637264832,map,1.3266866207122803,0.12272937595844269,0.5137449502944946,-0.03948397949755039,0.01799744748139897,-0.3591713493039025,-0.9322623284711258
1729403419.7386613,76,1729403419,737260736,map,1.3232088088989258,0.121017225086689,0.5071079730987549,-0.039498957245717656,0.018015193458349146,-0.35919834309425996,-0.9322509509244266
1729403419.8430107,77,1729403419,840255360,map,1.320042371749878,0.1193096861243248,0.4988945722579956,-0.03951277293419766,0.018024078309118605,-0.3592322806393821,-0.9322371167909941
1729403419.9413068,78,1729403419,939248448,map,1.3176226615905762,0.11535314470529556,0.4892256259918213,-0.0395442642007218,0.018047035462370808,-0.35924723154228894,-0.9322295759677679
1729403420.0381763,79,1729403420,37243328,map,1.3159635066986084,0.11249738186597824,0.48220980167388916,-0.03958149984670679,0.01804178252470186,-0.35923623325589893,-0.9322323356703144
1729403420.1391208,80,1729403420,137239744,map,1.3138238191604614,0.10983510315418243,0.4763137400150299,-0.03958605002753171,0.0180304396444878,-0.3592418400110713,-0.9322302013316798
1729403420.2409878,81,1729403420,239237952,map,1.3121556043624878,0.10750340670347214,0.46980589628219604,-0.03959298198394269,0.018017138988614713,-0.3592385089862019,-0.932231447732619
1729403420.3411314,82,1729403420,339234112,map,1.311566948890686,0.1053089126944542,0.46129482984542847,-0.039594565895906396,0.017978735590910795,-0.3592643410206535,-0.9322221670230024
1729403420.442136,83,1729403420,440230016,map,1.3114129304885864,0.10359425097703934,0.4459565281867981,-0.03960666305570686,0.01793764020760115,-0.3592804135731474,-0.9322162505170581
1729403420.5380876,84,1729403420,537224896,map,1.3102365732192993,0.10218414664268494,0.43416401743888855,-0.03962490394630784,0.01793808242095163,-0.3593189817085515,-0.932200601571483
1729403420.6415958,85,1729403420,640222848,map,1.3093022108078003,0.10084669291973114,0.4216490089893341,-0.03959885271829441,0.017954400705745305,-0.35933712722531186,-0.9321943999811155
1729403420.7417846,86,1729403420,740220800,map,1.3077125549316406,0.0989714115858078,0.4129335284233093,-0.03958595736417058,0.017958236815854848,-0.3593427850201805,-0.9321926928290996
1729403420.838745,87,1729403420,837217216,map,1.3068852424621582,0.09760057926177979,0.4095642864704132,-0.03959930087814898,0.017957907498052903,-0.35935020105552834,-0.9321892736615267
1729403420.9420156,88,1729403420,939215424,map,1.303449273109436,0.09658446907997131,0.4034266471862793,-0.03960917498355778,0.01796707741754436,-0.3593708537006594,-0.9321807157931628
1729403421.0417528,89,1729403421,40207232,map,1.301012635231018,0.09576234966516495,0.3971906900405884,-0.039585746862650574,0.01797025556762577,-0.35939898624441174,-0.9321708036870975
1729403421.1389194,90,1729403421,137203648,map,1.2969743013381958,0.09386131167411804,0.3879906237125397,-0.03958792223085136,0.017999803243740627,-0.35942415971397434,-0.9321604351776223
1729403421.2416925,91,1729403421,240209280,map,1.2930675745010376,0.09197796136140823,0.37996524572372437,-0.03958137593724534,0.018011249783875208,-0.3594560942102769,-0.9321481780785872
1729403421.3417172,92,1729403421,339207488,map,1.288217306137085,0.0904906764626503,0.375079482793808,-0.03958570961383834,0.018029315858847685,-0.3594678146409357,-0.9321431250625092
1729403421.4418283,93,1729403421,439205696,map,1.2837989330291748,0.08921127021312714,0.3742232620716095,-0.03957110906078395,0.0180462400239317,-0.3594863089562952,-0.9321362852188928
1729403421.5386882,94,1729403421,537202112,map,1.281528353691101,0.09008505940437317,0.37705424427986145,-0.03953784122716506,0.018037228792155115,-0.3594994266691817,-0.9321328122714726
1729403421.6420233,95,1729403421,639198784,map,1.2794535160064697,0.09115196019411087,0.3834209442138672,-0.03951860583453648,0.017988397383096176,-0.3595116779212224,-0.9321298465293071
1729403421.74175,96,1729403421,739195456,map,1.2771705389022827,0.09052668511867523,0.392291396856308,-0.03952617727994247,0.01797294049305715,-0.35950392430271216,-0.9321328141046303
1729403421.8390393,97,1729403421,837190592,map,1.2756145000457764,0.09004460275173187,0.3998459279537201,-0.03954442754277367,0.01798516989045767,-0.35951901948207754,-0.9321259821209638
1729403421.9390237,98,1729403421,937184448,map,1.2741836309432983,0.08829180151224136,0.40852394700050354,-0.03955359143594749,0.01799042300679029,-0.35952897637102477,-0.9321216515209578
1729403422.0419126,99,1729403422,39179840,map,1.2730683088302612,0.08650581538677216,0.41342413425445557,-0.03956419235386869,0.01797675652106982,-0.3595559216851704,-0.9321110717556658
1729403422.1419268,100,1729403422,139172160,map,1.2709238529205322,0.08367222547531128,0.41723597049713135,-0.039574986983621066,0.01798604564954843,-0.3595641220053054,-0.9321072710443217
1729403422.2386928,101,1729403422,237169088,map,1.2694239616394043,0.08152612298727036,0.420242577791214,-0.0395865566762384,0.01798082732243672,-0.35956967125887673,-0.9321047397637795
1729403422.3371143,102,1729403422,334166016,map,1.2668347358703613,0.08069399744272232,0.4180964231491089,-0.03955846125016164,0.01797974584100637,-0.3595610410129425,-0.9321092825783368
1729403422.4419026,103,1729403422,440161408,map,1.2644654512405396,0.08013968169689178,0.4153994917869568,-0.039533734500619686,0.017972618251214864,-0.3595759579411649,-0.9321047147720714
1729403422.5419996,104,1729403422,540155776,map,1.2625885009765625,0.07663797587156296,0.41084912419319153,-0.03954009145274503,0.01795789151038881,-0.359585822349267,-0.9321009235409066
1729403422.642026,105,1729403422,640150144,map,1.2612354755401611,0.07374072074890137,0.40594837069511414,-0.039566894995345485,0.017962100970513276,-0.35959936935038483,-0.9320944787477061
1729403422.7422445,106,1729403422,740142464,map,1.2599982023239136,0.06941340863704681,0.39357227087020874,-0.039597042051078335,0.01796656412578558,-0.3596195238124523,-0.93208533671935
1729403422.8422186,107,1729403422,839135040,map,1.2592153549194336,0.06576499342918396,0.38104093074798584,-0.039607867062115526,0.017970294426064706,-0.35964608697871736,-0.9320745557657537
1729403422.9420614,108,1729403422,940127616,map,1.256334900856018,0.06286492943763733,0.372161865234375,-0.03960594242155203,0.017986503518960487,-0.35968147728995226,-0.9320606685782749
1729403423.0390768,109,1729403423,37119680,map,1.2543421983718872,0.060565341264009476,0.3681824207305908,-0.039599343958699684,0.017986898671411903,-0.3596640518427884,-0.9320676655942168
1729403423.1419866,110,1729403423,140115328,map,1.252356767654419,0.05783408507704735,0.36662012338638306,-0.039591226082160244,0.018001842247254325,-0.3596537324812675,-0.9320717038969208
1729403423.240059,111,1729403423,237112000,map,1.251183032989502,0.05573475733399391,0.3653336763381958,-0.039593085712283246,0.01800228854008388,-0.35967197356006564,-0.9320645774872611
1729403423.3420973,112,1729403423,339108672,map,1.2501928806304932,0.05183223634958267,0.36499276757240295,-0.03960509292638977,0.017983418977497556,-0.35969126061101886,-0.9320569887599299
1729403423.4424949,113,1729403423,439101504,map,1.2497026920318604,0.048108868300914764,0.3646726906299591,-0.03963142413397142,0.017965925364954047,-0.35970527962459153,-0.9320507966613669
1729403423.5421822,114,1729403423,540097408,map,1.249607801437378,0.043605804443359375,0.3655374050140381,-0.039661905036334516,0.01794903458459189,-0.3597299265852757,-0.9320403131653276
1729403423.6425498,115,1729403423,639093056,map,1.249716877937317,0.03974348306655884,0.3673321306705475,-0.03967258254003607,0.01795372090243417,-0.3597507451456388,-0.9320317330796839
1729403423.7425168,116,1729403423,739088960,map,1.247929334640503,0.03591040521860123,0.3694627285003662,-0.03966004957935828,0.017940809303835518,-0.35976760633783644,-0.9320260067502568
1729403423.8420846,117,1729403423,840084864,map,1.2466788291931152,0.03258542716503143,0.3691321611404419,-0.039653980986902496,0.017947598963412824,-0.35978130985361867,-0.932020844489732
1729403423.939254,118,1729403423,937079744,map,1.245091438293457,0.031524162739515305,0.37086740136146545,-0.039620456730544346,0.01794196606146478,-0.35979706461790095,-0.9320162968288987
1729403424.0390625,119,1729403424,37072832,map,1.2438242435455322,0.03068600222468376,0.3747618496417999,-0.039582586517055596,0.017926593642395496,-0.35982248501764846,-0.9320083880313119
1729403424.1394045,120,1729403424,137070784,map,1.2435449361801147,0.02755589783191681,0.38344189524650574,-0.03959990642644163,0.01791326602359395,-0.35984608422623854,-0.9319987971979513
1729403424.2410088,121,1729403424,240068480,map,1.2436751127243042,0.02435946837067604,0.3881940543651581,-0.03963294427141043,0.017908177493258917,-0.3598648757253065,-0.9319902349952272
1729403424.3392825,122,1729403424,337061824,map,1.244649052619934,0.021035702899098396,0.3922744691371918,-0.03965695061331175,0.017884674647321637,-0.3598994428990832,-0.9319763171249269
1729403424.4393492,123,1729403424,437057984,map,1.2458910942077637,0.017938297241926193,0.39832621812820435,-0.03967622551279668,0.017865456350308707,-0.35993122027242164,-0.9319635933187831
1729403424.5418239,124,1729403424,539054144,map,1.2455527782440186,0.016710255295038223,0.4085112512111664,-0.039655159425671174,0.01785466140889493,-0.35994532211046565,-0.9319592504437579
1729403424.639118,125,1729403424,637049024,map,1.2456159591674805,0.015665004029870033,0.4167497158050537,-0.03961075068264759,0.01785809702973873,-0.35996591638172576,-0.9319531189090458
1729403424.7413347,126,1729403424,739040832,map,1.2455867528915405,0.013998297974467278,0.4272327721118927,-0.039595127823112065,0.017844166938450444,-0.3600094140585566,-0.9319372475377079
1729403424.8363621,127,1729403424,834032640,map,1.2460622787475586,0.012538403272628784,0.431943416595459,-0.03959530759503803,0.017834422039994115,-0.36003956726852254,-0.9319257776282663
1729403424.9394867,128,1729403424,937029056,map,1.2455642223358154,0.010205991566181183,0.43239858746528625,-0.03960392746185463,0.017812680328291173,-0.3600665459407266,-0.9319154038019934
1729403425.040048,129,1729403425,37021888,map,1.2454510927200317,0.008080612868070602,0.4320642352104187,-0.039608041155368146,0.017802999364266003,-0.36009789989942975,-0.9319032990485068
1729403425.14157,130,1729403425,140017024,map,1.2416067123413086,0.005700642243027687,0.4319562017917633,-0.03959421260978236,0.01782034255209682,-0.36011588917717435,-0.9318966037502606
1729403425.23899,131,1729403425,237013440,map,1.2393929958343506,0.003824985586106777,0.43255794048309326,-0.03956569229345344,0.017856531373882774,-0.3601222278251166,-0.9318946728611062
1729403425.3420243,132,1729403425,340009088,map,1.2371490001678467,0.0011489717289805412,0.4286210238933563,-0.039564988193663345,0.01785415528788093,-0.36013740739752054,-0.931888882131976
1729403425.4412007,133,1729403425,439001152,map,1.2359933853149414,-0.00128941610455513,0.42301619052886963,-0.03957783631486273,0.01785124916364339,-0.36015211499243033,-0.9318827082001311
1729403425.5388222,134,1729403425,536994496,map,1.2351487874984741,-0.0033565862104296684,0.42133575677871704,-0.03956988392607821,0.01782149698966352,-0.3601852997971517,-0.9318707895095543
1729403425.6429071,135,1729403425,639991168,map,1.2346813678741455,-0.005334824323654175,0.41915658116340637,-0.03957450747173449,0.017798795318672588,-0.3602217571525244,-0.9318569347907012
1729403425.7415602,136,1729403425,739988096,map,1.233582854270935,-0.006780810654163361,0.4239619970321655,-0.039552431399926626,0.01779032544061644,-0.3602485225834927,-0.9318476868391539
1729403425.84183,137,1729403425,839984768,map,1.233282208442688,-0.008057823404669762,0.4315778911113739,-0.039526956086209236,0.01778798107923963,-0.36027629795549215,-0.9318380742399233
1729403425.9385636,138,1729403425,936981440,map,1.2320547103881836,-0.009599162265658379,0.4369763731956482,-0.039523525335264466,0.01777009508509309,-0.3602745997502404,-0.931839217590966
1729403426.0391932,139,1729403426,36972992,map,1.2313508987426758,-0.010980994440615177,0.4419975280761719,-0.039507766191324636,0.017783245163340185,-0.36026814781306904,-0.9318421294797594
1729403426.1421754,140,1729403426,139965312,map,1.2268955707550049,-0.012944561429321766,0.4436347484588623,-0.03948447680947701,0.01780589937994692,-0.3602565618400431,-0.9318471632674235
1729403426.2412107,141,1729403426,238959936,map,1.2238627672195435,-0.01459521148353815,0.44145214557647705,-0.0394586902342497,0.017833534416881607,-0.3602818451490294,-0.9318379520448876
1729403426.3412325,142,1729403426,338956864,map,1.2196820974349976,-0.0181167833507061,0.43493103981018066,-0.03946668351386141,0.017867853684291377,-0.36030557707019883,-0.9318277801338852
1729403426.4385948,143,1729403426,436948928,map,1.2170886993408203,-0.020882023498415947,0.4303463399410248,-0.03947785385328006,0.01789450682268693,-0.3603309450387033,-0.9318169861771284
1729403426.5387433,144,1729403426,536944576,map,1.215917706489563,-0.02190498448908329,0.4264492690563202,-0.03948503301921126,0.017860944170064216,-0.36037138325375334,-0.9318016875776745
1729403426.6416728,145,1729403426,639941504,map,1.215525507926941,-0.022560132667422295,0.42459800839424133,-0.03945753690792028,0.017833025736684306,-0.3603777023694004,-0.9318009431252936
1729403426.7415392,146,1729403426,739938944,map,1.2139991521835327,-0.02483862265944481,0.42213353514671326,-0.039459435735755985,0.017822810904398016,-0.3603866993010729,-0.9317975785060615
1729403426.8416982,147,1729403426,839931264,map,1.2132244110107422,-0.026803502812981606,0.4174504280090332,-0.03946190310368348,0.017807857900826847,-0.3603905534849142,-0.9317962692344592
1729403426.9414825,148,1729403426,939923584,map,1.2105633020401,-0.026797063648700714,0.4062733054161072,-0.03944071009207701,0.017806121532768202,-0.36039418940663814,-0.9317957934361614
1729403427.0387163,149,1729403427,36915904,map,1.2091102600097656,-0.026915045455098152,0.39859309792518616,-0.03941929932605664,0.01781916484937323,-0.3604090992183657,-0.9317906832574145
1729403427.142827,150,1729403427,139913088,map,1.204442024230957,-0.027097828686237335,0.38967078924179077,-0.03940449325006481,0.01782889824831439,-0.3604098822392888,-0.9317908204544725
1729403427.2385416,151,1729403427,236908992,map,1.2016535997390747,-0.027439232915639877,0.3823830187320709,-0.039385911519089,0.017854689008611382,-0.3604458883602521,-0.9317771845341593
1729403427.341604,152,1729403427,339904640,map,1.1965446472167969,-0.031365878880023956,0.37405580282211304,-0.03941077044038064,0.01786939689212648,-0.3604568456695169,-0.9317716127023775
1729403427.438527,153,1729403427,436902080,map,1.192847728729248,-0.035404548048973083,0.3686051666736603,-0.03943630028713636,0.01791420239059383,-0.3604731064995042,-0.9317633814778132
1729403427.5385718,154,1729403427,536894912,map,1.1869535446166992,-0.03858495131134987,0.3639514744281769,-0.03944685212393826,0.017944876173165057,-0.3604696999866692,-0.9317636624531795
1729403427.6417375,155,1729403427,639888000,map,1.1804680824279785,-0.04105984419584274,0.3620072901248932,-0.03940301508793607,0.01797379443473624,-0.3604738008664059,-0.9317633733971971
1729403427.7389233,156,1729403427,736880832,map,1.1745799779891968,-0.04355224221944809,0.35494041442871094,-0.039337818735638415,0.018005998290783556,-0.36049254532293945,-0.9317582544894693
1729403427.8417714,157,1729403427,839876736,map,1.1689269542694092,-0.046089448034763336,0.34432804584503174,-0.03932308771052188,0.018037428249246354,-0.3605244905109098,-0.9317459083338724
1729403427.9415612,158,1729403427,939872896,map,1.1650673151016235,-0.0497361496090889,0.33830830454826355,-0.03934420904537839,0.018032755398474466,-0.36055330982207906,-0.9317339554420435
1729403428.0387611,159,1729403428,36865216,map,1.1624810695648193,-0.05265839397907257,0.3370540142059326,-0.03935343229092836,0.01802601170816656,-0.36057211741767786,-0.9317264182203661
1729403428.1416614,160,1729403428,139860096,map,1.1569265127182007,-0.05442887917160988,0.3370431363582611,-0.03932636691812429,0.01803012054474891,-0.3605962456862701,-0.9317181436545764
1729403428.2386775,161,1729403428,236855488,map,1.153113603591919,-0.05576310679316521,0.33717676997184753,-0.039313135579358935,0.018035701292929057,-0.36061465261533737,-0.9317114699137876
1729403428.3418756,162,1729403428,339848576,map,1.1487401723861694,-0.0565212108194828,0.3394468128681183,-0.039272471535057356,0.01803041129900978,-0.36061836087038945,-0.9317118519430083
1729403428.4422154,163,1729403428,439841664,map,1.1456379890441895,-0.05721600353717804,0.3392050862312317,-0.03926614699393855,0.018013326254636718,-0.3606229978591357,-0.9317106542229645
1729403428.5356514,164,1729403428,533837568,map,1.141735553741455,-0.05701720714569092,0.3349815309047699,-0.03923793186914394,0.018013317772440696,-0.36064667273150286,-0.9317026792561873
1729403428.6387432,165,1729403428,636833728,map,1.1382642984390259,-0.056878410279750824,0.32947781682014465,-0.03924114167401152,0.01800918923028947,-0.36068388553337793,-0.9316882185688156
1729403428.7417765,166,1729403428,739826560,map,1.1366994380950928,-0.05402243509888649,0.32714980840682983,-0.03922650709991564,0.01795958018218477,-0.3607150424906341,-0.9316777300877164
1729403428.8387017,167,1729403428,836821696,map,1.1358098983764648,-0.05212782323360443,0.3261511027812958,-0.03919901696852212,0.01791981622823806,-0.3607563528227185,-0.9316636577397972
1729403428.9408822,168,1729403428,939814784,map,1.1324294805526733,-0.04868004098534584,0.3337344229221344,-0.039164164894846615,0.017916236494560756,-0.36078659043018024,-0.9316534832349019
1729403429.0418603,169,1729403429,39807616,map,1.1298481225967407,-0.04610303044319153,0.34084823727607727,-0.039134105950116446,0.017931903162094517,-0.36078688275221155,-0.931654331731685
1729403429.1389031,170,1729403429,136800960,map,1.1270569562911987,-0.04391175135970116,0.35064515471458435,-0.039118700260562744,0.017936252479204072,-0.3607963995860654,-0.931651209510651
1729403429.2413921,171,1729403429,238797632,map,1.124457597732544,-0.04167287424206734,0.3654303252696991,-0.03910638963952101,0.017940655672288145,-0.3608298366716873,-0.9316386918386835
1729403429.3421562,172,1729403429,339794304,map,1.1229984760284424,-0.040048565715551376,0.3755074143409729,-0.03909003912877241,0.0179220286368794,-0.3608672976147016,-0.9316252268174755
1729403429.4422188,173,1729403429,439797376,map,1.122004508972168,-0.03868773952126503,0.38307303190231323,-0.039078222576684175,0.01788896694026386,-0.360893288762367,-0.9316162898470272
1729403429.5420663,174,1729403429,539790976,map,1.1214030981063843,-0.0378914438188076,0.39266136288642883,-0.03906510614151649,0.017863711786616367,-0.360896918018494,-0.9316159186317658
1729403429.6388447,175,1729403429,636782784,map,1.1210612058639526,-0.03718969598412514,0.40074294805526733,-0.03906254694954415,0.01784301888010057,-0.3609153226987818,-0.9316092925386119
1729403429.7412004,176,1729403429,738778432,map,1.1225327253341675,-0.03916836157441139,0.41739141941070557,-0.03910152941059377,0.017829130055387644,-0.3608995059030605,-0.9316140505371027
1729403429.841023,177,1729403429,838771776,map,1.1240177154541016,-0.040726438164711,0.432242214679718,-0.03916292967060039,0.017819726886438028,-0.3608848525737636,-0.9316173277994142
1729403429.939339,178,1729403429,936768448,map,1.123832106590271,-0.043218135833740234,0.44394147396087646,-0.03919293089451628,0.017810437749354535,-0.3609008292206367,-0.9316100546596364
1729403430.0393198,179,1729403430,36761792,map,1.1238963603973389,-0.04554234445095062,0.4502898156642914,-0.03923038227868995,0.017819254533870014,-0.36090890215272253,-0.9316051822639466
1729403430.1415985,180,1729403430,139758976,map,1.1216453313827515,-0.045633938163518906,0.456557035446167,-0.039216907632909415,0.017823572922165805,-0.36091760324688754,-0.9316022960848274
1729403430.241303,181,1729403430,238751040,map,1.1200915575027466,-0.04537738487124443,0.4626254439353943,-0.039174282540401194,0.017825917121288306,-0.3609281194067507,-0.9315999704206392
1729403430.3390155,182,1729403430,336746432,map,1.1172573566436768,-0.045211926102638245,0.47047555446624756,-0.03916513246262759,0.017816511240609994,-0.360954640514753,-0.9315902596191435
1729403430.440886,183,1729403430,438738496,map,1.1147044897079468,-0.04498555138707161,0.48378899693489075,-0.039137541115308844,0.017841762642177416,-0.3609616902596633,-0.9315882043833288
1729403430.5390265,184,1729403430,536735424,map,1.111850380897522,-0.042704399675130844,0.4931737184524536,-0.039109028550111335,0.017841976402990446,-0.3609587657351615,-0.9315905308679615
1729403430.6389582,185,1729403430,636732352,map,1.1094889640808105,-0.040411219000816345,0.5019365549087524,-0.03907358526278624,0.017835973549547413,-0.3609592343163738,-0.9315919515238358
1729403430.741231,186,1729403430,739729536,map,1.1065983772277832,-0.04122130200266838,0.5140738487243652,-0.03908784834973418,0.017845668014438706,-0.36097064412429236,-0.9315867465378628
1729403430.8425014,187,1729403430,839725440,map,1.1048064231872559,-0.04188891500234604,0.5212916731834412,-0.03912542568881353,0.017852745256186846,-0.3609758981638295,-0.9315829976423483
1729403430.9411962,188,1729403430,938721344,map,1.1014463901519775,-0.04345741868019104,0.5246518850326538,-0.03917736880276284,0.017867613788147288,-0.3609897717058322,-0.9315751536376338
1729403431.0384552,189,1729403431,36715456,map,1.0992857217788696,-0.04444257915019989,0.5315130352973938,-0.039203717699460655,0.017887439325778784,-0.3610104376310106,-0.9315656562767725
1729403431.1415586,190,1729403431,139708032,map,1.09602689743042,-0.04341597110033035,0.5371891856193542,-0.03918313571972759,0.017882400034356545,-0.36102724322432783,-0.9315601061091134
1729403431.2384117,191,1729403431,236700864,map,1.0940524339675903,-0.04232700541615486,0.541574239730835,-0.039154131248354,0.017881879976045602,-0.36102979631018156,-0.9315603461670842
1729403431.3360422,192,1729403431,333698048,map,1.0899500846862793,-0.042162664234638214,0.5433648228645325,-0.03916024739777001,0.01789489155714115,-0.3610333338710175,-0.9315584682207994
1729403431.44101,193,1729403431,439694976,map,1.085108995437622,-0.042508792132139206,0.5450300574302673,-0.039165196738416876,0.017917095641555025,-0.3610500062674556,-0.9315513716497243
1729403431.5412967,194,1729403431,539691392,map,1.0815600156784058,-0.04261584207415581,0.5445075631141663,-0.03920608455329108,0.01795465399498017,-0.3610822461443107,-0.931536432381096
1729403431.6413493,195,1729403431,639683968,map,1.0789625644683838,-0.04256635531783104,0.5470960736274719,-0.03921974431404722,0.017965846649266155,-0.3610887153248109,-0.9315331339652893
1729403431.7411096,196,1729403431,739676544,map,1.0768744945526123,-0.042688723653554916,0.5558766722679138,-0.03922094861320238,0.01793575474379272,-0.36110139777520295,-0.9315287469619203
1729403431.8381536,197,1729403431,836673984,map,1.0755494832992554,-0.04256189614534378,0.5629993081092834,-0.03922705983925407,0.01790008270994611,-0.36112096805938915,-0.9315215892523342
1729403431.941212,198,1729403431,938666816,map,1.0721880197525024,-0.0435035303235054,0.5676509737968445,-0.039244308229335494,0.01791216544493382,-0.3611382710748123,-0.9315139224755417
1729403432.0413556,199,1729403432,39659904,map,1.069814920425415,-0.044086065143346786,0.5705970525741577,-0.03926095575570402,0.01792942603006776,-0.36114894669843056,-0.9315087500039895
1729403432.1386628,200,1729403432,136657088,map,1.0675294399261475,-0.046036116778850555,0.5688014626502991,-0.03929077354380641,0.017940026684824306,-0.3611610274141065,-0.9315026048455604
1729403432.241319,201,1729403432,239652480,map,1.0655264854431152,-0.048056382685899734,0.566911518573761,-0.039320107086723344,0.017949125564125097,-0.36116619898677715,-0.9314991866768405
1729403432.3410966,202,1729403432,338645312,map,1.0624920129776,-0.051561787724494934,0.5624345541000366,-0.039362053943613494,0.017963136961128542,-0.36118933393042063,-0.9314881746295842
1729403432.4413636,203,1729403432,439638400,map,1.060287594795227,-0.05438041687011719,0.5606895089149475,-0.03938949443952903,0.01798940265523445,-0.3612143062885767,-0.9314768242164528
1729403432.538151,204,1729403432,536635840,map,1.058792233467102,-0.056931253522634506,0.5543745160102844,-0.039413479508467554,0.01798413043908505,-0.36123357239839476,-0.9314684400760335
1729403432.6382554,205,1729403432,636633536,map,1.0577408075332642,-0.05935675650835037,0.5479821562767029,-0.03941743114465864,0.017984018307582648,-0.36126416872173145,-0.9314564088594083
1729403432.7381077,206,1729403432,736631232,map,1.0551565885543823,-0.0591798797249794,0.5420687794685364,-0.03940008025016648,0.017974136222059678,-0.36127575186592387,-0.9314528411127763
1729403432.8384593,207,1729403432,836627392,map,1.0530753135681152,-0.058759212493896484,0.5378542542457581,-0.03935761283228513,0.01798516859272361,-0.3612781563731934,-0.9314534909218077
1729403432.9383037,208,1729403432,936623040,map,1.0515648126602173,-0.057732876390218735,0.5329779982566833,-0.039339723153172,0.017987704187042455,-0.3613008642881126,-0.931445389781373
1729403433.0415435,209,1729403433,39616640,map,1.050525426864624,-0.05668359249830246,0.532843291759491,-0.03935758337047294,0.017979565492474085,-0.3613194901640993,-0.9314375673567679
1729403433.1414437,210,1729403433,139611776,map,1.0482604503631592,-0.05614551901817322,0.5339915156364441,-0.039342314153283084,0.017975754088595898,-0.3613597687541882,-0.9314226602933442
1729403433.239063,211,1729403433,236608960,map,1.046829104423523,-0.0557800717651844,0.5345072746276855,-0.03933800790141518,0.01798712361617269,-0.3613886717121412,-0.9314114088180898
1729403433.3413014,212,1729403433,339602304,map,1.0432806015014648,-0.054831817746162415,0.5294479727745056,-0.03933164090932503,0.01800638469198932,-0.3614185997647847,-0.9313996928696971
1729403433.4412553,213,1729403433,439598720,map,1.0400843620300293,-0.05392523854970932,0.5248124599456787,-0.039309485552258355,0.01802463534504136,-0.3614368302661086,-0.93139320085208
1729403433.541324,214,1729403433,539593856,map,1.0360952615737915,-0.05235880985856056,0.51841801404953,-0.039280756364821895,0.018039079799512345,-0.361451098709627,-0.9313885961407289
1729403433.6387086,215,1729403433,636588992,map,1.0333102941513062,-0.051126629114151,0.5138312578201294,-0.039260511987744294,0.01805353980441171,-0.36146089852523283,-0.9313853663958449
1729403433.7419066,216,1729403433,739584128,map,1.0290825366973877,-0.045331671833992004,0.5119289755821228,-0.039182925505928584,0.018024329685236776,-0.36145207579124855,-0.9313926233304579
1729403433.8420074,217,1729403433,839577472,map,1.0259943008422852,-0.04062558338046074,0.5120739340782166,-0.03911550174951641,0.018022838794156365,-0.3614593154034045,-0.9313926766476027
1729403433.9418278,218,1729403433,939571072,map,1.0235576629638672,-0.038592033088207245,0.5101591944694519,-0.03911275587675292,0.018016520931479735,-0.3614810662179525,-0.9313844727432294
1729403434.0388377,219,1729403434,36564416,map,1.0218631029129028,-0.03705817461013794,0.5089946389198303,-0.0391388270629781,0.018000550200951163,-0.3614923135174107,-0.931379321048319
1729403434.1415966,220,1729403434,139558016,map,1.0211739540100098,-0.03622640669345856,0.5054383277893066,-0.03916549178717339,0.01798272243798152,-0.36149856055642027,-0.9313761198691017
1729403434.2409322,221,1729403434,239551360,map,1.0208632946014404,-0.035461362451314926,0.5004156231880188,-0.039195620932175,0.017986361527646134,-0.36149031910527335,-0.9313779808927766
1729403434.3406453,222,1729403434,338543936,map,1.0209840536117554,-0.03560219332575798,0.5001858472824097,-0.03920874729343609,0.01797689594990723,-0.3614792076202148,-0.9313819237058165
1729403434.438644,223,1729403434,436537280,map,1.0212193727493286,-0.03557036072015762,0.4963264465332031,-0.039233330601535985,0.017954205554477146,-0.36147825498206637,-0.9313816958948347
1729403434.5389354,224,1729403434,536532672,map,1.0207407474517822,-0.03648104518651962,0.49058884382247925,-0.03924508493906889,0.01794115806730162,-0.36148387023783085,-0.9313792727526248
1729403434.6385949,225,1729403434,636529344,map,1.0203707218170166,-0.03722269460558891,0.484958291053772,-0.03923385100092024,0.01793279826545425,-0.3614847563325791,-0.9313795631326596
1729403434.738748,226,1729403434,736523200,map,1.0213619470596313,-0.03952839970588684,0.4781419336795807,-0.03927722658669205,0.017909269245622448,-0.36149665836367484,-0.9313735681984121
1729403434.8406682,227,1729403434,839519872,map,1.0226589441299438,-0.04181957617402077,0.46169036626815796,-0.03930892990526234,0.017907185864508728,-0.36149358928624764,-0.9313734619523272
1729403434.938891,228,1729403434,936515264,map,1.0238925218582153,-0.04382212087512016,0.45393598079681396,-0.03933323632940779,0.017876751410686127,-0.361505015831956,-0.9313685853662839
1729403435.041746,229,1729403435,39509120,map,1.0254334211349487,-0.04586966335773468,0.44762977957725525,-0.03936303025627378,0.017882063622292,-0.36150835667041503,-0.9313659279290327
1729403435.14006,230,1729403435,136504512,map,1.025748372077942,-0.04704776778817177,0.4431646764278412,-0.03936996868576747,0.017885479739001908,-0.3614971679137511,-0.9313699118881417
1729403435.241959,231,1729403435,239498112,map,1.0263128280639648,-0.048176251351833344,0.43485820293426514,-0.03938207226590359,0.017891443191627866,-0.36150793766813566,-0.9313651054487146
1729403435.3408027,232,1729403435,339490432,map,1.0256545543670654,-0.0476510114967823,0.43126896023750305,-0.03937044628866922,0.01789965313468813,-0.361508137893619,-0.931365361506094
1729403435.439227,233,1729403435,436484288,map,1.025069236755371,-0.04687730222940445,0.4277885854244232,-0.039342380187672,0.01788222243546761,-0.3615270372087182,-0.9313595463670424
1729403435.5387347,234,1729403435,536477120,map,1.026100754737854,-0.04619434103369713,0.42526885867118835,-0.03934175605050485,0.017865389604528197,-0.36153993639211635,-0.9313548885783149
1729403435.637617,235,1729403435,636473024,map,1.0274969339370728,-0.04556511342525482,0.42535659670829773,-0.039357409105800434,0.017835042497736833,-0.3615416989762056,-0.9313541246534431
1729403435.7416916,236,1729403435,738465600,map,1.0281579494476318,-0.04589274898171425,0.4329281151294708,-0.03936784432868031,0.017832712318964578,-0.3615640917494558,-0.9313450352912462
1729403435.8391416,237,1729403435,836458176,map,1.0289779901504517,-0.04608162119984627,0.44226759672164917,-0.039381439347564134,0.01782515467782393,-0.3615705196900711,-0.9313421097462938
1729403435.9387653,238,1729403435,936454848,map,1.0290048122406006,-0.04804772138595581,0.45421087741851807,-0.039401562442644165,0.017827883696625853,-0.3615786381619337,-0.9313380545564209
1729403436.0390174,239,1729403436,36448960,map,1.0292918682098389,-0.04988642781972885,0.46276915073394775,-0.03942415090447587,0.017834238032519174,-0.36159292612908783,-0.9313314297567028
1729403436.1444032,240,1729403436,141440768,map,1.0300673246383667,-0.05228278040885925,0.4663344621658325,-0.03944084157020986,0.017826284740541834,-0.361595285438979,-0.9313299593253113
1729403436.237849,241,1729403436,236437696,map,1.0310910940170288,-0.053970012813806534,0.4667145907878876,-0.03945328735276252,0.017821525697322083,-0.36159868838720005,-0.931328202029519
1729403436.3385413,242,1729403436,336434112,map,1.0311245918273926,-0.05601104348897934,0.4655859172344208,-0.03944344643726811,0.017812259738765136,-0.36159984559740865,-0.9313283468251567
1729403436.4407134,243,1729403436,439433088,map,1.031356692314148,-0.05793996527791023,0.46260949969291687,-0.039450405667992315,0.0178295682578164,-0.3616023354896498,-0.9313267541291839
1729403436.5379887,244,1729403436,536429248,map,1.0303367376327515,-0.05732173100113869,0.4597179591655731,-0.03945292378451471,0.01783469071034998,-0.36159147896924,-0.9313307645240531
1729403436.6379242,245,1729403436,636421824,map,1.0296268463134766,-0.056702904403209686,0.45625853538513184,-0.03939356882292989,0.017849435840653523,-0.36158829200218406,-0.9313342318751667
1729403436.741175,246,1729403436,738416192,map,1.027327060699463,-0.052815452218055725,0.4490443170070648,-0.039341983006061544,0.0178416103537783,-0.36158784357317186,-0.9313367364671267
1729403436.8414297,247,1729403436,838413120,map,1.025957465171814,-0.049706943333148956,0.4465801417827606,-0.03929377726337844,0.017831884845279818,-0.36160424725024104,-0.9313325889937638
1729403436.9409556,248,1729403436,939406208,map,1.0255537033081055,-0.049454063177108765,0.4471661448478699,-0.039316673271957224,0.01781381443690224,-0.3616063746245455,-0.931331142531445
1729403437.0379965,249,1729403437,36400832,map,1.0257782936096191,-0.04934728145599365,0.44552919268608093,-0.039376618666619755,0.017809097689088636,-0.3616149973728412,-0.9313253521819989
1729403437.1416945,250,1729403437,139394432,map,1.0233560800552368,-0.047885630279779434,0.4423803687095642,-0.039397507500427524,0.017825159967102124,-0.36161138133297593,-0.9313255655061542
1729403437.2410686,251,1729403437,238387520,map,1.0217911005020142,-0.046810586005449295,0.44256067276000977,-0.03938441271002073,0.01785544032387411,-0.36161431256070464,-0.9313244011823036
1729403437.3410208,252,1729403437,339380608,map,1.0202128887176514,-0.04669390246272087,0.44057178497314453,-0.03936504736128275,0.017879021510667024,-0.36161598078386836,-0.9313241197766682
1729403437.4411063,253,1729403437,439373696,map,1.0191295146942139,-0.046897660940885544,0.43995201587677,-0.03936377347144852,0.017895438577956807,-0.361618105316965,-0.9313230333902192
1729403437.5409431,254,1729403437,539367040,map,1.0160976648330688,-0.04713357239961624,0.43632346391677856,-0.03937616215790591,0.01791202269401139,-0.3616433579864805,-0.9313123852505054
1729403437.637904,255,1729403437,636360128,map,1.0143054723739624,-0.04740447923541069,0.43054312467575073,-0.039378676116267206,0.017919542760737525,-0.36166527343604793,-0.9313036238762336
1729403437.7413538,256,1729403437,739352448,map,1.0100542306900024,-0.04921261593699455,0.41740816831588745,-0.03938096805570566,0.01794893024310754,-0.3616791466544602,-0.9312975733531279
1729403437.8410814,257,1729403437,839346048,map,1.007119059562683,-0.05079364404082298,0.40991437435150146,-0.0393891694273167,0.01800014700338181,-0.36171089915218224,-0.9312839059460882
1729403437.9385376,258,1729403437,936339136,map,1.005236268043518,-0.049425460398197174,0.40779009461402893,-0.03936787895553541,0.017980480573481124,-0.36169596118805725,-0.9312909878685267
1729403438.0413413,259,1729403438,39332736,map,1.003492832183838,-0.04800727590918541,0.4053654372692108,-0.03933699882817395,0.017950831080555167,-0.3616970290730242,-0.9312924499567563
1729403438.1381655,260,1729403438,136325824,map,1.0012394189834595,-0.04673345014452934,0.40469059348106384,-0.03932773953806992,0.0179510177556709,-0.3616978455282592,-0.9312925203203217
1729403438.2412384,261,1729403438,239319168,map,0.9991514682769775,-0.045481126755476,0.40297067165374756,-0.03931754268271805,0.017943556435719488,-0.3617108358960407,-0.9312880493248148
1729403438.3384182,262,1729403438,336312512,map,0.9976174235343933,-0.04589490592479706,0.399374395608902,-0.03934268844586966,0.017948651901960114,-0.36175150732883016,-0.9312710914154229
1729403438.438442,263,1729403438,436306112,map,0.9963724613189697,-0.046440839767456055,0.39585813879966736,-0.03937333141524154,0.017938221967217446,-0.3617743137070695,-0.9312611378704145
1729403438.541081,264,1729403438,538301504,map,0.9952242374420166,-0.04622481018304825,0.3917495310306549,-0.039396794265923164,0.017921758772823093,-0.3617784705810662,-0.9312588476831143
1729403438.6419325,265,1729403438,639295104,map,0.9945692420005798,-0.04617490619421005,0.3886559307575226,-0.03939620495539128,0.017911140085335918,-0.3617869323679663,-0.9312557896001145
1729403438.7412167,266,1729403438,738288704,map,0.9955374002456665,-0.04486549273133278,0.38397902250289917,-0.03940636352802659,0.017872556956851682,-0.3617938765492923,-0.9312534032757982
1729403438.8364143,267,1729403438,833282304,map,0.9963796138763428,-0.04408499225974083,0.37681642174720764,-0.03941117180796923,0.017823751609615246,-0.3617871112809516,-0.9312567634794746
1729403438.941548,268,1729403438,939276160,map,0.9976015686988831,-0.04185369983315468,0.3691100478172302,-0.03941639351229753,0.01779503546382654,-0.3617928396816222,-0.9312548661834915
1729403439.041256,269,1729403439,39269760,map,0.9988277554512024,-0.04031939059495926,0.3625328838825226,-0.039416499486917174,0.01779365953888551,-0.3618236342262749,-0.9312429237120156
1729403439.1412444,270,1729403439,138265152,map,0.9971863627433777,-0.03674055635929108,0.3597840368747711,-0.03940857771767736,0.01781386725375017,-0.36184160215189926,-0.9312358912154762
1729403439.2411919,271,1729403439,239259008,map,0.996109664440155,-0.03404562175273895,0.35372769832611084,-0.03938460870911362,0.01782168382560991,-0.3618586407657461,-0.9312301349750323
1729403439.3414888,272,1729403439,339252608,map,0.9949930906295776,-0.030569225549697876,0.3451513350009918,-0.03935933360335751,0.01784500531164724,-0.36186264197177054,-0.9312292021779263
1729403439.4414637,273,1729403439,439246464,map,0.9942529201507568,-0.027482978999614716,0.3373059332370758,-0.039355270083056164,0.01782858400365991,-0.3618560937838203,-0.9312322329583687
1729403439.5383937,274,1729403439,536240064,map,0.9933996796607971,-0.02286774478852749,0.3294435143470764,-0.03934717666574281,0.017817296320125926,-0.36184520062405695,-0.9312370237622705
1729403439.63839,275,1729403439,636234176,map,0.992813766002655,-0.01869681291282177,0.32496121525764465,-0.039346367238487306,0.017806310495569938,-0.3618264005506419,-0.931244572900286
1729403439.741391,276,1729403439,739228032,map,0.99299556016922,-0.012664686888456345,0.3267692029476166,-0.03933529939223178,0.017769392516190786,-0.36182762827266196,-0.931245268621489
1729403439.838286,277,1729403439,836222144,map,0.9935182929039001,-0.008595176041126251,0.32830220460891724,-0.039329586284831776,0.017737703991303165,-0.36187129377547855,-0.9312291470100378
1729403439.9404826,278,1729403439,938216256,map,0.9951398372650146,-0.00373062863945961,0.3354470431804657,-0.03934724193487985,0.017736004075703405,-0.3618976828766519,-0.9312181784308418
1729403440.0404243,279,1729403440,39210368,map,0.9968445897102356,-0.00017426162958145142,0.3402513265609741,-0.03936831450715452,0.01769201319793326,-0.3619196638156125,-0.9312095819016598
1729403440.140436,280,1729403440,138204480,map,0.9976727366447449,0.005356209352612495,0.3519594967365265,-0.03937576822657199,0.01766236992045662,-0.36193553222203795,-0.9312036619776096
1729403440.242193,281,1729403440,239202176,map,0.9987601041793823,0.009758705273270607,0.36470332741737366,-0.039371972050180906,0.017646334100861992,-0.36194591976089685,-0.9312000890668553
1729403440.3384085,282,1729403440,336196288,map,0.9982065558433533,0.011645698919892311,0.3765160143375397,-0.03938401079840287,0.017667767658350146,-0.3619351888966118,-0.9312033444515626
1729403440.4433684,283,1729403440,441189120,map,0.9979300498962402,0.013300061225891113,0.3919198215007782,-0.039418297031708634,0.01766783310447441,-0.3619270884829687,-0.93120504087701
1729403440.540519,284,1729403440,539181952,map,0.9956200122833252,0.016211768612265587,0.40322181582450867,-0.03943050810394514,0.017683729242708914,-0.3619326541189463,-0.9312020589717092
1729403440.6388414,285,1729403440,636174528,map,0.9944295287132263,0.01840035989880562,0.4153220057487488,-0.03941211535099826,0.01770213001164023,-0.3619359100316402,-0.9312012225003676
1729403440.7383182,286,1729403440,736170944,map,0.9910849332809448,0.021335268393158913,0.42364993691444397,-0.03939592794202132,0.01773761888906411,-0.3619387413262626,-0.9312001316929106
1729403440.8385506,287,1729403440,836165568,map,0.9885485768318176,0.02382666803896427,0.42426472902297974,-0.03938747658473915,0.017737438317218246,-0.3619353279519977,-0.9312018193445013
1729403440.9387357,288,1729403440,936158656,map,0.9843525290489197,0.02645648829638958,0.4218217432498932,-0.03937833554509688,0.017766587409074757,-0.3619397279797118,-0.9311999400620178
1729403441.040483,289,1729403441,38153280,map,0.9806694388389587,0.028698885813355446,0.418090283870697,-0.03939007501872722,0.01780676836898166,-0.3619193161197305,-0.9312066095178335
1729403441.1437855,290,1729403441,141147136,map,0.9781020283699036,0.03023943305015564,0.41739988327026367,-0.0394012795335017,0.017805230982862658,-0.36190695815108337,-0.9312109678062215
1729403441.2405765,291,1729403441,238144832,map,0.9763888120651245,0.0312967449426651,0.4183116555213928,-0.03942629970915262,0.017806013865030824,-0.3618945769732413,-0.9312147055963201
1729403441.3403308,292,1729403441,339137920,map,0.9745792746543884,0.03236858919262886,0.42348238825798035,-0.039445029256860616,0.017811755654113505,-0.36188695621654005,-0.9312167642110896
1729403441.440856,293,1729403441,438131008,map,0.9730740785598755,0.03320124000310898,0.42954885959625244,-0.03946735189389679,0.017827319149440267,-0.36189077889390303,-0.9312140349983946
1729403441.538063,294,1729403441,536124096,map,0.9675453305244446,0.0355716273188591,0.43013763427734375,-0.03945806990087667,0.017875333651394508,-0.3618888044129822,-0.9312142752380308
1729403441.6385539,295,1729403441,636117696,map,0.9626514911651611,0.037555571645498276,0.4321471154689789,-0.03945213162295733,0.017929690942147948,-0.36187763928574623,-0.931217820747702
1729403441.7412136,296,1729403441,738111552,map,0.9583927989006042,0.040523089468479156,0.43342411518096924,-0.03943795945011971,0.017941047897108077,-0.361875534483616,-0.9312190202615933
1729403441.8392599,297,1729403441,836108224,map,0.9558875560760498,0.04243985563516617,0.43555358052253723,-0.03944942700455727,0.01795058310138261,-0.3618616232609318,-0.9312237566161508
1729403441.9407027,298,1729403441,938101824,map,0.9553080201148987,0.04606049880385399,0.4440264403820038,-0.03946366371766256,0.017910802978371203,-0.36186176771739514,-0.931223863228972
1729403442.037477,299,1729403442,36094912,map,0.9553287625312805,0.04844667762517929,0.4498709440231323,-0.03949113786874311,0.01788378677550336,-0.36187371281549097,-0.9312185759388243
1729403442.1407156,300,1729403442,139088512,map,0.955858588218689,0.051014579832553864,0.4586166441440582,-0.039508102925910484,0.01786298461062523,-0.3618892216205827,-0.9312122286884148
1729403442.2390795,301,1729403442,236085952,map,0.9564803838729858,0.052572619169950485,0.465134859085083,-0.03952515115613745,0.017846631262695645,-0.3619148755171204,-0.9312018487192155
1729403442.3411777,302,1729403442,339078784,map,0.9584833383560181,0.05378158017992973,0.4741222858428955,-0.03957243725181365,0.017836228328612348,-0.36191480355715994,-0.9312000677272007
1729403442.4381373,303,1729403442,436072384,map,0.9602591395378113,0.05435353145003319,0.48287659883499146,-0.039608195393138666,0.017819048203842686,-0.3619219502293768,-0.9311960987466454
1729403442.5408428,304,1729403442,539065728,map,0.9611544609069824,0.055842187255620956,0.488873690366745,-0.03961029061454777,0.01782724419041521,-0.36190853486509755,-0.9312010667056847
1729403442.6382077,305,1729403442,636059840,map,0.9620694518089294,0.0566699355840683,0.4918011426925659,-0.0396157376609721,0.017834038342176426,-0.3618878840323016,-0.931208730519968
1729403442.7411416,306,1729403442,739053184,map,0.9629682898521423,0.05775852128863335,0.49208003282546997,-0.03962770668164455,0.017844551151584044,-0.36189067418551957,-0.9312069355384454
1729403442.8388624,307,1729403442,836046528,map,0.9640257358551025,0.05817442014813423,0.49213123321533203,-0.03964151972109904,0.01782438173806717,-0.36190328364490343,-0.9312018334479877
1729403442.940702,308,1729403442,939039872,map,0.9641070365905762,0.06019757315516472,0.4928668737411499,-0.039636132744262066,0.017792314038955093,-0.3619297678740131,-0.9311923827377893
1729403443.0379303,309,1729403443,36033728,map,0.9646313190460205,0.06128173694014549,0.49558746814727783,-0.039619753988323826,0.017793329101268508,-0.3619314010526077,-0.9311924255842587
1729403443.141018,310,1729403443,139026560,map,0.9644623398780823,0.06427789479494095,0.49072736501693726,-0.03963648875031097,0.017777747843259275,-0.36194278841258753,-0.9311875849458522
1729403443.241897,311,1729403443,239020416,map,0.964798629283905,0.06621087342500687,0.487045019865036,-0.03961559585351818,0.017769813432744995,-0.36194306605818416,-0.931188517555998
1729403443.340604,312,1729403443,338013760,map,0.965936005115509,0.06897890567779541,0.4802115261554718,-0.039616858688361144,0.01776784391657224,-0.36191435337142025,-0.9311996612187793
1729403443.4412403,313,1729403443,438007616,map,0.9674725532531738,0.07132378220558167,0.47389981150627136,-0.0396139203846412,0.017742398114357825,-0.36190024600809056,-0.9312057541489929
1729403443.5378125,314,1729403443,536001216,map,0.968194305896759,0.07525227963924408,0.4671272933483124,-0.039597105618580625,0.017721927952957663,-0.3618871186643407,-0.931211960748509
1729403443.6409488,315,1729403443,637994816,map,0.969276487827301,0.07903292030096054,0.45843222737312317,-0.03957295835254996,0.01768951641187967,-0.3618973242772246,-0.9312096373305672
1729403443.7412434,316,1729403443,738988160,map,0.9691230058670044,0.08456689119338989,0.45152977108955383,-0.039536171414187304,0.017705492434155458,-0.3619181489930433,-0.931202802893667
