Time,header.seq,header.stamp.secs,header.stamp.nsecs,header.frame_id,airspeed,groundspeed,heading,throttle,altitude,climb
1729403412.4292352,2312,1729403412,428771147,,0.03190818801522255,0.03188840672373772,48,0.0,558.969970703125,-0.0011234129779040813
1729403412.529245,2313,1729403412,528655610,,0.030296513810753822,0.03029484488070011,48,0.0,558.969970703125,0.00031798568670637906
1729403412.6294057,2314,1729403412,628665554,,0.028075261041522026,0.028021788224577904,48,0.0,558.97998046875,0.0017319719772785902
1729403412.7297204,2315,1729403412,728600925,,0.02597762644290924,0.02589951455593109,48,0.0,558.989990234375,0.0020129813347011805
1729403412.829333,2316,1729403412,828604091,,0.024148251861333847,0.024063292890787125,48,0.0,558.989990234375,0.0020238319411873817
1729403412.930082,2317,1729403412,928600073,,0.022243250161409378,0.02214614674448967,48,0.0,558.989990234375,0.002076131757348776
1729403413.0307038,2318,1729403413,29000999,,0.020933745428919792,0.020891685038805008,48,0.0,558.989990234375,0.0013263500295579433
1729403413.131057,2319,1729403413,128828258,,0.020339496433734894,0.020320264622569084,48,0.0,558.97998046875,-0.0008842641254886985
1729403413.231223,2320,1729403413,229082887,,0.020308159291744232,0.02025775797665119,48,0.0,558.97998046875,-0.0014298525638878345
1729403413.3308635,2321,1729403413,327821424,,0.020999373868107796,0.02088070660829544,48,0.0,558.97998046875,-0.0022292882204055786
1729403413.4319003,2322,1729403413,428931091,,0.022408151999115944,0.021826328709721565,48,0.0,558.969970703125,-0.00507313571870327
1729403413.5311894,2323,1729403413,529030146,,0.023938126862049103,0.02272145263850689,48,0.0,558.9599609375,-0.007534550502896309
1729403413.629477,2324,1729403413,628838480,,0.02496141754090786,0.022970784455537796,48,0.0,558.9500122070312,-0.009768079966306686
1729403413.7293723,2325,1729403413,728784498,,0.02498568408191204,0.022948967292904854,48,0.0,558.9400024414062,-0.009880751371383667
1729403413.8305402,2326,1729403413,828782498,,0.022791648283600807,0.02169421687722206,48,0.0,558.9400024414062,-0.006987144239246845
1729403413.9296563,2327,1729403413,928848628,,0.01832249015569687,0.018258249387145042,48,0.0,558.9500122070312,-0.0015329323941841722
1729403414.0299442,2328,1729403414,28877331,,0.01494708564132452,0.014661729335784912,48,0.0,558.9599609375,0.0029067222494632006
1729403414.12967,2329,1729403414,128878294,,0.014459894970059395,0.012505586259067059,48,0.0,558.969970703125,0.007259398698806763
1729403414.2325938,2330,1729403414,229405831,,0.015682555735111237,0.0109371617436409,48,0.0,558.97998046875,0.011239264160394669
1729403414.3305051,2331,1729403414,328895683,,0.0174087043851614,0.00964264664798975,48,0.0,558.989990234375,0.014494218863546848
1729403414.431018,2332,1729403414,428929201,,0.019208956509828568,0.008863111957907677,48,0.0,559.0,0.01704198494553566
1729403414.5306811,2333,1729403414,529143442,,0.02025584876537323,0.008838724344968796,48,0.0,559.010009765625,0.01822570525109768
1729403414.6289089,2334,1729403414,628066664,,0.01888442039489746,0.008652660064399242,48,0.0,559.010009765625,0.01678549312055111
1729403414.7302907,2335,1729403414,728002812,,0.01959018036723137,0.00852409191429615,48,0.0,559.010009765625,0.017638452351093292
1729403414.8296945,2336,1729403414,828022516,,0.020124288275837898,0.009237639605998993,48,0.0,559.0199584960938,0.01787884160876274
1729403414.9298878,2337,1729403414,928163997,,0.021619534119963646,0.010459518991410732,48,0.0,559.0199584960938,0.018920961767435074
1729403415.0314066,2338,1729403415,28324442,,0.02397281490266323,0.012187589891254902,48,0.0,559.0299682617188,0.020643604919314384
1729403415.1314137,2339,1729403415,128070034,,0.02705223113298416,0.011022555641829967,48,0.0,559.0399780273438,0.024704787880182266
1729403415.2298656,2340,1729403415,228431590,,0.029139671474695206,0.009104854427278042,48,0.0,559.0499877929688,0.027680715546011925
1729403415.3314936,2341,1729403415,328593775,,0.03032614290714264,0.00818879995495081,48,0.0,559.0599975585938,0.0291996318846941
1729403415.429953,2342,1729403415,428551664,,0.030155422165989876,0.00666930852457881,48,0.0,559.0599975585938,0.029408669099211693
1729403415.5295157,2343,1729403415,528366016,,0.03185001388192177,0.004752670880407095,48,0.0,559.0700073242188,0.0314934216439724
1729403415.630044,2344,1729403415,628808904,,0.0306208785623312,0.004040984436869621,48,0.0,559.0700073242188,0.030353065580129623
1729403415.730438,2345,1729403415,728194108,,0.02795453369617462,0.005725359544157982,48,0.0,559.0599975585938,0.027361946180462837
1729403415.829736,2346,1729403415,828346015,,0.02664944902062416,0.006650096271187067,48,0.0,559.0599975585938,0.025806380435824394
1729403415.9296381,2347,1729403415,928393960,,0.026967084035277367,0.007347517181187868,48,0.0,559.0599975585938,0.02594682388007641
1729403416.0294847,2348,1729403416,28608589,,0.026621520519256592,0.007285052910447121,48,0.0,559.0599975585938,0.0256053376942873
1729403416.1298325,2349,1729403416,128519793,,0.02491045370697975,0.007850387133657932,48,0.0,559.0499877929688,0.023641111329197884
1729403416.2313766,2350,1729403416,228220904,,0.022693021222949028,0.0075800237245857716,48,0.0,559.0499877929688,0.021389635279774666
1729403416.331321,2351,1729403416,328678311,,0.02111554518342018,0.006340435706079006,48,0.0,559.0399780273438,0.020141130313277245
1729403416.4304602,2352,1729403416,428262237,,0.019114583730697632,0.004889763426035643,48,0.0,559.0299682617188,0.018478568643331528
1729403416.5306501,2353,1729403416,528432534,,0.01774391159415245,0.005585630889981985,48,0.0,559.0299682617188,0.0168418250977993
1729403416.6303725,2354,1729403416,628338034,,0.0141494395211339,0.00717738876119256,48,0.0,559.0199584960938,0.012193921022117138
1729403416.7302659,2355,1729403416,728368756,,0.014479200355708599,0.01011451706290245,48,0.0,559.010009765625,0.010360685177147388
1729403416.8297656,2356,1729403416,828482441,,0.014807851985096931,0.012161480262875557,48,0.0,559.010009765625,0.008448128588497639
1729403416.929306,2357,1729403416,928449459,,0.01410318911075592,0.012618307955563068,48,0.0,559.010009765625,0.006299065425992012
1729403417.0294995,2358,1729403417,28504459,,0.014085240662097931,0.013091390952467918,48,0.0,559.010009765625,0.005197066813707352
1729403417.132301,2359,1729403417,131239626,,0.012549519538879395,0.01223645731806755,48,0.0,559.010009765625,0.0027856002561748028
1729403417.2358582,2360,1729403417,228495811,,0.013054353184998035,0.01296191941946745,48,0.0,559.010009765625,0.0015507256612181664
1729403417.3323908,2361,1729403417,331272515,,0.012525489553809166,0.012502958066761494,48,0.0,559.010009765625,0.0007509593851864338
1729403417.4288192,2362,1729403417,428202922,,0.011529164388775826,0.011527071706950665,48,0.0,559.0199584960938,0.00021962341270409524
1729403417.5289707,2363,1729403417,528322255,,0.010801785625517368,0.010777037590742111,48,0.0,559.0199584960938,-0.0007307699415832758
1729403417.6299634,2364,1729403417,629380033,,0.009823925793170929,0.009661471471190453,48,0.0,559.0299682617188,-0.0017791769932955503
1729403417.7318606,2365,1729403417,731272477,,0.007120550610125065,0.006855336483567953,48,0.0,559.0299682617188,-0.0019252508645877242
1729403417.8287587,2366,1729403417,828222348,,0.005658894311636686,0.005168899428099394,48,0.0,559.0299682617188,-0.0023033807519823313
1729403417.932166,2367,1729403417,931356644,,0.004518298897892237,0.004046836402267218,48,0.0,559.0299682617188,-0.0020095128566026688
1729403418.032501,2368,1729403418,31350773,,0.0042037139646708965,0.0041387807577848434,48,0.0,559.0299682617188,-0.000736005837097764
1729403418.1316638,2369,1729403418,129699977,,0.004786173813045025,0.004701368510723114,48,0.0,559.0399780273438,0.0008969942573457956
1729403418.231384,2370,1729403418,230534588,,0.0066701797768473625,0.006252555176615715,48,0.0,559.0399780273438,0.0023231145460158587
1729403418.3293374,2371,1729403418,328558514,,0.007651658728718758,0.007246666122227907,48,0.0,559.0499877929688,0.002456359099596739
1729403418.4333558,2372,1729403418,431436625,,0.00820174254477024,0.00793317798525095,48,0.0,559.0499877929688,0.0020816512405872345
1729403418.531756,2373,1729403418,530521829,,0.008002270013093948,0.007352878339588642,48,0.0,559.0599975585938,0.00315777026116848
1729403418.6300771,2374,1729403418,628773180,,0.008645525202155113,0.006380448583513498,47,0.0,559.0599975585938,0.005833950359374285
1729403418.7312245,2375,1729403418,730507792,,0.008520271629095078,0.006311274599283934,47,0.0,559.0700073242188,0.005723882932215929
1729403418.831229,2376,1729403418,830477180,,0.00879667978733778,0.005306086968630552,47,0.0,559.0800170898438,0.007016196381300688
1729403418.9292524,2377,1729403418,928530940,,0.008573155850172043,0.005302249453961849,47,0.0,559.0800170898438,0.006736850365996361
1729403419.029945,2378,1729403419,28686532,,0.009191671386361122,0.006445959210395813,47,0.0,559.0899658203125,0.006552590522915125
1729403419.1312063,2379,1729403419,130565106,,0.01125345565378666,0.008355285972356796,47,0.0,559.0899658203125,0.007538530509918928
1729403419.2302842,2380,1729403419,229111754,,0.013454870320856571,0.010239731520414352,47,0.0,559.0999755859375,0.008728197775781155
1729403419.3299,2381,1729403419,328716458,,0.014627170749008656,0.010445190593600273,47,0.0,559.1099853515625,0.010239731520414352
1729403419.4317346,2382,1729403419,430652884,,0.016010712832212448,0.010792273096740246,47,0.0,559.1099853515625,0.011826653964817524
1729403419.5299184,2383,1729403419,528896939,,0.017085354775190353,0.010244286619126797,47,0.0,559.1099853515625,0.01367347501218319
1729403419.6302257,2384,1729403419,628696569,,0.0174766443669796,0.010479969903826714,47,0.0,559.1099853515625,0.013985826633870602
1729403419.7309213,2385,1729403419,728900198,,0.014831691980361938,0.008393524214625359,47,0.0,559.0999755859375,0.012228156439960003
1729403419.8336935,2386,1729403419,830780513,,0.014397798106074333,0.007855678908526897,47,0.0,559.0999755859375,0.012065857648849487
1729403419.9314091,2387,1729403419,930736050,,0.01219845935702324,0.00646206783130765,47,0.0,559.0899658203125,0.01034621149301529
1729403420.0291739,2388,1729403420,28597883,,0.010990219190716743,0.005948926322162151,47,0.0,559.0800170898438,0.0092409523203969
1729403420.1296751,2389,1729403420,128650291,,0.009526670910418034,0.005634947679936886,47,0.0,559.0700073242188,0.007681459654122591
1729403420.2314954,2390,1729403420,230616217,,0.008334463462233543,0.005372918676584959,47,0.0,559.0700073242188,0.006371422670781612
1729403420.3294818,2391,1729403420,328766031,,0.006743650883436203,0.004575387109071016,47,0.0,559.0599975585938,0.004954054486006498
1729403420.4293592,2392,1729403420,428768050,,0.004897999111562967,0.004629296250641346,47,0.0,559.0399780273438,0.001600002869963646
1729403420.5297728,2393,1729403420,528759494,,0.005061247851699591,0.004869811702519655,47,0.0,559.0299682617188,-0.001378827029839158
1729403420.6312616,2394,1729403420,630701846,,0.006301280111074448,0.005197907332330942,47,0.0,559.0199584960938,-0.0035620068665593863
1729403420.733017,2395,1729403420,730830587,,0.008152425289154053,0.006098850164562464,47,0.0,559.010009765625,-0.005409813020378351
1729403420.8334498,2396,1729403420,830815327,,0.008943923749029636,0.006098378449678421,47,0.0,559.0,-0.006542442366480827
1729403420.9316318,2397,1729403420,930806994,,0.01171271875500679,0.006624108646064997,47,0.0,559.0,-0.009659657254815102
1729403421.0301826,2398,1729403421,29059901,,0.01343138050287962,0.006652856711298227,47,0.0,558.989990234375,-0.011667967773973942
1729403421.1299663,2399,1729403421,128882512,,0.016035808250308037,0.00746714835986495,47,0.0,558.97998046875,-0.014191154390573502
1729403421.234354,2400,1729403421,230871049,,0.017796123400330544,0.008349128067493439,47,0.0,558.97998046875,-0.01571604423224926
1729403421.3324034,2401,1729403421,330883697,,0.018849052488803864,0.009532987140119076,47,0.0,558.969970703125,-0.016260657459497452
1729403421.4323475,2402,1729403421,430999957,,0.020359793677926064,0.010287447832524776,47,0.0,558.969970703125,-0.017569564282894135
1729403421.5303535,2403,1729403421,529137901,,0.019244961440563202,0.009781456552445889,47,0.0,558.969970703125,-0.016573822125792503
1729403421.6317334,2404,1729403421,630875234,,0.01825239695608616,0.008689225651323795,47,0.0,558.97998046875,-0.01605139672756195
1729403421.7328858,2405,1729403421,731009049,,0.016626834869384766,0.008590026758611202,47,0.0,558.989990234375,-0.01423597801476717
1729403421.8306346,2406,1729403421,829186327,,0.014006190001964569,0.00795162282884121,47,0.0,558.989990234375,-0.011530181393027306
1729403421.9296448,2407,1729403421,927944401,,0.012685024179518223,0.008807281963527203,47,0.0,559.0,-0.009129163809120655
1729403422.0317082,2408,1729403422,30978586,,0.01179180946201086,0.00930395070463419,47,0.0,559.010009765625,-0.007244534324854612
1729403422.1330721,2409,1729403422,131078308,,0.011818683706223965,0.009936396032571793,47,0.0,559.010009765625,-0.006399167235940695
1729403422.2297254,2410,1729403422,228129882,,0.01220387127250433,0.010631528683006763,47,0.0,559.0199584960938,-0.005992082878947258
1729403422.3310535,2411,1729403422,329140178,,0.01237501297146082,0.010431070812046528,47,0.0,559.010009765625,-0.0066583543084561825
1729403422.431372,2412,1729403422,429258308,,0.012981551699340343,0.010766838677227497,47,0.0,559.010009765625,-0.0072523015551269054
1729403422.5324552,2413,1729403422,530994641,,0.014691026881337166,0.011261248961091042,47,0.0,559.010009765625,-0.009434539824724197
1729403422.632888,2414,1729403422,631063826,,0.016668010503053665,0.011753319762647152,47,0.0,559.0,-0.011818715371191502
1729403422.733398,2415,1729403422,731105604,,0.020210424438118935,0.013051931746304035,47,0.0,558.989990234375,-0.015430757775902748
1729403422.831833,2416,1729403422,831084326,,0.023901067674160004,0.01461024396121502,47,0.0,558.97998046875,-0.018915649503469467
1729403422.9326398,2417,1729403422,931096456,,0.025805639103055,0.01464301347732544,47,0.0,558.969970703125,-0.021248839795589447
1729403423.0305803,2418,1729403423,29359696,,0.027957657352089882,0.015419922769069672,47,0.0,558.9599609375,-0.02332073077559471
1729403423.130609,2419,1729403423,129323622,,0.027976758778095245,0.016286907717585564,47,0.0,558.9599609375,-0.022747213020920753
1729403423.235651,2420,1729403423,230130900,,0.026931196451187134,0.016095146536827087,47,0.0,558.9599609375,-0.02159249037504196
1729403423.331227,2421,1729403423,328035141,,0.026918938383460045,0.01663826033473015,47,0.0,558.9599609375,-0.021161222830414772
1729403423.4321623,2422,1729403423,431205789,,0.027000583708286285,0.017007878050208092,47,0.0,558.9599609375,-0.0209705401211977
1729403423.53149,2423,1729403423,530164085,,0.026676414534449577,0.01818649284541607,47,0.0,558.9599609375,-0.01951621286571026
1729403423.631309,2424,1729403423,630212529,,0.026465807110071182,0.019735923036932945,47,0.0,558.9599609375,-0.01763327233493328
1729403423.729925,2425,1729403423,728207492,,0.02646331675350666,0.020766742527484894,47,0.0,558.9599609375,-0.016402730718255043
1729403423.8297157,2426,1729403423,828460455,,0.026203306391835213,0.02137468010187149,47,0.0,558.9599609375,-0.015157051384449005
1729403423.9290774,2427,1729403423,928253677,,0.02321549318730831,0.019102057442069054,47,0.0,558.969970703125,-0.013193574734032154
1729403424.031958,2428,1729403424,30239751,,0.020145492628216743,0.017129896208643913,47,0.0,558.969970703125,-0.010602239519357681
1729403424.1302233,2429,1729403424,128499418,,0.01962384022772312,0.0177382193505764,47,0.0,558.97998046875,-0.008393489755690098
1729403424.232077,2430,1729403424,231338547,,0.019524749368429184,0.018308425322175026,47,0.0,558.97998046875,-0.006783610209822655
1729403424.3321612,2431,1729403424,329604436,,0.01979534886777401,0.019311923533678055,47,0.0,558.989990234375,-0.004348032176494598
1729403424.429394,2432,1729403424,428385566,,0.019700277596712112,0.019663197919726372,47,0.0,558.989990234375,-0.001208123634569347
1729403424.5339906,2433,1729403424,533242918,,0.019207535311579704,0.019175631925463676,47,0.0,559.0,0.0011065888684242964
1729403424.62932,2434,1729403424,628272658,,0.019237225875258446,0.01888534426689148,47,0.0,559.010009765625,0.0036626069340854883
1729403424.731941,2435,1729403424,730414862,,0.01986140012741089,0.019048793241381645,47,0.0,559.0199584960938,0.005623048171401024
1729403424.8301225,2436,1729403424,828611955,,0.021247848868370056,0.01960059255361557,47,0.0,559.0299682617188,0.008202917873859406
1729403424.9297333,2437,1729403424,928529510,,0.021145356819033623,0.019629167392849922,47,0.0,559.0299682617188,0.007862688973546028
1729403425.0315163,2438,1729403425,30448566,,0.021430224180221558,0.019966647028923035,47,0.0,559.0299682617188,0.007783804554492235
1729403425.1316285,2439,1729403425,130369584,,0.019939035177230835,0.019049271941184998,47,0.0,559.0299682617188,0.00588984927162528
1729403425.231415,2440,1729403425,228879936,,0.018873952329158783,0.01819237694144249,47,0.0,559.0299682617188,0.005026278086006641
1729403425.3310068,2441,1729403425,330421454,,0.018092850223183632,0.01773323118686676,47,0.0,559.0199584960938,0.003589390078559518
1729403425.4322045,2442,1729403425,430497102,,0.017142757773399353,0.017099976539611816,47,0.0,559.0199584960938,0.0012103336630389094
1729403425.529319,2443,1729403425,528393380,,0.016719741746783257,0.01671888493001461,47,0.0,559.0199584960938,0.0001689157506916672
1729403425.6300938,2444,1729403425,628617954,,0.01708192192018032,0.017077025026082993,47,0.0,559.010009765625,0.00040897767757996917
1729403425.7317317,2445,1729403425,730516510,,0.017455892637372017,0.01711471937596798,47,0.0,559.0199584960938,0.003434316720813513
1729403425.8327272,2446,1729403425,830508787,,0.01815272495150566,0.01723465882241726,47,0.0,559.0299682617188,0.005699825938791037
1729403425.931431,2447,1729403425,928707324,,0.019193587824702263,0.017200712114572525,47,0.0,559.0299682617188,0.008516408503055573
1729403426.0325928,2448,1729403426,30535324,,0.01948452740907669,0.016478072851896286,47,0.0,559.0399780273438,0.010398072190582752
1729403426.1314988,2449,1729403426,130555343,,0.01842684857547283,0.015136200934648514,47,0.0,559.0399780273438,0.010509242303669453
1729403426.2311919,2450,1729403426,230556694,,0.016694488003849983,0.014296535402536392,47,0.0,559.0399780273438,0.008620610460639
1729403426.3319128,2451,1729403426,330598417,,0.014849177561700344,0.013396738097071648,47,0.0,559.0299682617188,0.0064051090739667416
1729403426.4314015,2452,1729403426,430587176,,0.01515892706811428,0.014369348995387554,47,0.0,559.0299682617188,0.004828549921512604
1729403426.5303576,2453,1729403426,528720583,,0.01454431377351284,0.013996644876897335,47,0.0,559.0199584960938,0.003953603096306324
1729403426.6316483,2454,1729403426,630620898,,0.01424870453774929,0.013742844574153423,47,0.0,559.0199584960938,0.003762949723750353
1729403426.7314274,2455,1729403426,730549490,,0.014182212762534618,0.013721601106226444,47,0.0,559.0199584960938,0.0035850845742970705
1729403426.8314223,2456,1729403426,830650805,,0.014793670736253262,0.014504596590995789,47,0.0,559.010009765625,0.0029102193657308817
1729403426.9320593,2457,1729403426,930713916,,0.012690490111708641,0.012688243761658669,47,0.0,559.0,0.00023880988010205328
1729403427.032131,2458,1729403427,30702009,,0.011950595304369926,0.01169033907353878,47,0.0,558.989990234375,-0.002480457304045558
1729403427.130293,2459,1729403427,128834620,,0.011068582534790039,0.009583129547536373,47,0.0,558.989990234375,-0.005538693629205227
1729403427.233045,2460,1729403427,230387435,,0.01235133782029152,0.009314745664596558,47,0.0,558.97998046875,-0.008111168630421162
1729403427.3312838,2461,1729403427,329721731,,0.014696153812110424,0.010687428526580334,47,0.0,558.969970703125,-0.010087408125400543
1729403427.430438,2462,1729403427,428922194,,0.017316337674856186,0.012655156664550304,47,0.0,558.9599609375,-0.011819583363831043
1729403427.531738,2463,1729403427,530826194,,0.018854452297091484,0.013433616608381271,47,0.0,558.9599609375,-0.01322982832789421
1729403427.63235,2464,1729403427,630773990,,0.019849805161356926,0.014157525263726711,47,0.0,558.9599609375,-0.013913275673985481
1729403427.7297652,2465,1729403427,728670805,,0.021553531289100647,0.015765242278575897,47,0.0,558.9500122070312,-0.014697344042360783
1729403427.8305953,2466,1729403427,829013305,,0.024314576759934425,0.017194023355841637,47,0.0,558.9400024414062,-0.01719198189675808
1729403427.9310718,2467,1729403427,928944842,,0.025302767753601074,0.017796853557229042,47,0.0,558.9299926757812,-0.017986159771680832
1729403428.0323317,2468,1729403428,30849749,,0.025696653872728348,0.018432389944791794,47,0.0,558.9299926757812,-0.017904330044984818
1729403428.132647,2469,1729403428,130845453,,0.02661127597093582,0.018852179870009422,47,0.0,558.9299926757812,-0.01878177747130394
1729403428.230912,2470,1729403428,228442971,,0.027512283995747566,0.01917252317070961,47,0.0,558.9299926757812,-0.019731702283024788
1729403428.3319533,2471,1729403428,330872489,,0.026393871754407883,0.018398011103272438,47,0.0,558.9299926757812,-0.018924841657280922
1729403428.4323404,2472,1729403428,430911415,,0.026068978011608124,0.017866497859358788,47,0.0,558.9299926757812,-0.01898367330431938
1729403428.5301793,2473,1729403428,527936397,,0.026189925149083138,0.01734990067780018,47,0.0,558.9299926757812,-0.019618691876530647
1729403428.629748,2474,1729403428,628217137,,0.026305383071303368,0.016656234860420227,47,0.0,558.9199829101562,-0.020360328257083893
1729403428.7325633,2475,1729403428,730943915,,0.024514606222510338,0.01328987441956997,47,0.0,558.9199829101562,-0.020599639043211937
1729403428.8287709,2476,1729403428,827857674,,0.023746810853481293,0.011384773068130016,47,0.0,558.9199829101562,-0.020839817821979523
1729403428.931625,2477,1729403428,930964915,,0.02304963767528534,0.01049787551164627,47,0.0,558.9299926757812,-0.020520243793725967
1729403429.0305843,2478,1729403429,29940008,,0.021119248121976852,0.011094871908426285,47,0.0,558.9400024414062,-0.01797015406191349
1729403429.1288784,2479,1729403429,128202452,,0.020018985494971275,0.011883119121193886,47,0.0,558.9500122070312,-0.01611059159040451
1729403429.2312322,2480,1729403429,230251841,,0.018188612535595894,0.012422632426023483,47,0.0,558.9599609375,-0.01328547578305006
1729403429.3292708,2481,1729403429,328133137,,0.015634192153811455,0.012027386575937271,47,0.0,558.969970703125,-0.009988490492105484
1729403429.4326935,2482,1729403429,431015044,,0.014342050999403,0.012362584471702576,47,0.0,558.97998046875,-0.007270551286637783
1729403429.5291517,2483,1729403429,528110896,,0.012107780203223228,0.011466347612440586,47,0.0,558.989990234375,-0.003888599341735244
1729403429.629764,2484,1729403429,628180026,,0.010103180073201656,0.009989789687097073,47,0.0,559.0,-0.001509426743723452
1729403429.7309532,2485,1729403429,730061970,,0.007979918271303177,0.006593122612684965,47,0.0,559.010009765625,0.004495533648878336
1729403429.8310647,2486,1729403429,830084970,,0.0101469149813056,0.0044643459841609,47,0.0,559.0299682617188,0.009112052619457245
1729403429.932506,2487,1729403429,928086377,,0.014839260838925838,0.002926783636212349,47,0.0,559.0399780273438,0.014547769911587238
1729403430.0307229,2488,1729403430,28106674,,0.01683163270354271,0.0013267978793010116,47,0.0,559.0499877929688,0.016779256984591484
1729403430.1322536,2489,1729403430,130102063,,0.019331535324454308,0.001643199473619461,47,0.0,559.0499877929688,0.019261570647358894
1729403430.2325673,2490,1729403430,230151785,,0.021910537034273148,0.00236224802210927,47,0.0,559.0599975585938,0.021782824769616127
1729403430.331611,2491,1729403430,330219525,,0.022869225591421127,0.0028592715971171856,47,0.0,559.0700073242188,0.022689780220389366
1729403430.4321582,2492,1729403430,431152229,,0.025192199274897575,0.003187390975654125,47,0.0,559.0800170898438,0.024989748373627663
1729403430.5296705,2493,1729403430,528333377,,0.028118090704083443,0.0052774278447031975,47,0.0,559.0899658203125,0.027618393301963806
1729403430.6291082,2494,1729403430,628235970,,0.029178785160183907,0.0074623748660087585,47,0.0,559.0999755859375,0.0282084122300148
1729403430.7312799,2495,1729403430,730204858,,0.030248772352933884,0.00713601429015398,47,0.0,559.1099853515625,0.02939499169588089
1729403430.831593,2496,1729403430,830263451,,0.032210543751716614,0.006626609712839127,47,0.0,559.1199951171875,0.03152153640985489
1729403430.9291165,2497,1729403430,928317506,,0.03299980238080025,0.005026558879762888,47,0.0,559.1199951171875,0.032614730298519135
1729403431.0297608,2498,1729403431,28397488,,0.03300473466515541,0.005009964574128389,47,0.0,559.1300048828125,0.03262227401137352
1729403431.1312492,2499,1729403431,130383692,,0.03375155106186867,0.006224100477993488,47,0.0,559.1300048828125,0.033172693103551865
1729403431.2338848,2500,1729403431,228353358,,0.034914299845695496,0.007931248284876347,47,0.0,559.1400146484375,0.03400152176618576
1729403431.330528,2501,1729403431,328373951,,0.03536707162857056,0.009427517652511597,47,0.0,559.1400146484375,0.0340874120593071
1729403431.4319983,2502,1729403431,430292969,,0.03483738377690315,0.00941448099911213,47,0.0,559.1400146484375,0.03354118391871452
1729403431.5321178,2503,1729403431,530326154,,0.03375070542097092,0.009296382777392864,47,0.0,559.1400146484375,0.03244514390826225
1729403431.6315656,2504,1729403431,630459413,,0.034192394465208054,0.00930819846689701,47,0.0,559.1400146484375,0.03290102258324623
1729403431.7324002,2505,1729403431,730336969,,0.037167467176914215,0.008904836140573025,47,0.0,559.1499633789062,0.03608496114611626
1729403431.8291023,2506,1729403431,828350302,,0.039797309786081314,0.008579113520681858,47,0.0,559.1599731445312,0.03886160999536514
1729403431.9310722,2507,1729403431,930385728,,0.03940916433930397,0.0076044416055083275,47,0.0,559.1599731445312,0.03866852447390556
1729403432.0300643,2508,1729403432,28613710,,0.039822056889534,0.007647349499166012,47,0.0,559.1699829101562,0.039080869406461716
1729403432.1308632,2509,1729403432,128498691,,0.03880803659558296,0.006294797640293837,47,0.0,559.1599731445312,0.03829411417245865
1729403432.2330909,2510,1729403432,230425024,,0.03681061416864395,0.005240973550826311,47,0.0,559.1599731445312,0.03643560782074928
1729403432.3316286,2511,1729403432,330481117,,0.034612078219652176,0.0045935893431305885,47,0.0,559.1599731445312,0.03430590406060219
1729403432.4316614,2512,1729403432,430484857,,0.03351113200187683,0.004868082702159882,47,0.0,559.1599731445312,0.0331556536257267
1729403432.529547,2513,1729403432,528575654,,0.030895080417394638,0.00566124776378274,47,0.0,559.1499633789062,0.03037196584045887
1729403432.6316526,2514,1729403432,630478005,,0.028902394697070122,0.006120968610048294,47,0.0,559.1400146484375,0.0282468069344759
1729403432.7295322,2515,1729403432,727612654,,0.02533729001879692,0.005631435662508011,47,0.0,559.1400146484375,0.02470354549586773
1729403432.830641,2516,1729403432,828735357,,0.022960584610700607,0.004902868065983057,47,0.0,559.1300048828125,0.022431014105677605
1729403432.9310763,2517,1729403432,928784579,,0.02070494554936886,0.003983601462095976,47,0.0,559.1300048828125,0.020318113267421722
1729403433.0316956,2518,1729403433,30531190,,0.01854710839688778,0.0028532976284623146,47,0.0,559.1300048828125,0.01832631789147854
1729403433.1315284,2519,1729403433,130646153,,0.017966579645872116,0.0028681473340839148,47,0.0,559.1300048828125,0.017736168578267097
1729403433.2350986,2520,1729403433,227864875,,0.01751936972141266,0.0024385058786720037,47,0.0,559.1300048828125,0.01734883151948452
1729403433.3301275,2521,1729403433,328721487,,0.015622109174728394,0.0025933519937098026,47,0.0,559.1300048828125,0.015405350364744663
1729403433.4320314,2522,1729403433,429099153,,0.0129895294085145,0.003585315775126219,47,0.0,559.1199951171875,0.012484925799071789
1729403433.5315483,2523,1729403433,530634264,,0.011043602600693703,0.004815334919840097,47,0.0,559.1099853515625,0.00993849616497755
1729403433.6315982,2524,1729403433,627520301,,0.010358542203903198,0.006396336480975151,47,0.0,559.1099853515625,0.008147776126861572
1729403433.7334232,2525,1729403433,730632505,,0.01207446027547121,0.009294355288147926,47,0.0,559.1099853515625,0.007707628887146711
1729403433.8341062,2526,1729403433,830791671,,0.014260152354836464,0.012039215303957462,47,0.0,559.1099853515625,0.007642593700438738
1729403433.9323812,2527,1729403433,930780375,,0.013773618265986443,0.011755591258406639,47,0.0,559.1099853515625,0.007177646737545729
1729403434.0301573,2528,1729403434,28725301,,0.013080538250505924,0.01093027088791132,47,0.0,559.0999755859375,0.0071853771805763245
1729403434.1306992,2529,1729403434,128894542,,0.012031955644488335,0.010551094077527523,47,0.0,559.0999755859375,0.005782936234027147
1729403434.2293248,2530,1729403434,228321912,,0.011340825818479061,0.010225623846054077,47,0.0,559.0999755859375,0.0049041761085391045
1729403434.3287342,2531,1729403434,327851967,,0.010967148467898369,0.008632860146462917,47,0.0,559.0999755859375,0.0067640263587236404
1729403434.4305458,2532,1729403434,429798430,,0.009706223383545876,0.007662951946258545,47,0.0,559.0899658203125,0.005957343149930239
1729403434.5286827,2533,1729403434,527712134,,0.008131563663482666,0.0064491815865039825,47,0.0,559.0899658203125,0.004952814429998398
1729403434.629015,2534,1729403434,628019356,,0.006870032753795385,0.005748818628489971,47,0.0,559.0800170898438,0.003761440049856901
1729403434.7308564,2535,1729403434,728390523,,0.005688551347702742,0.003903064178302884,47,0.0,559.0700073242188,0.004138321150094271
1729403434.8304996,2536,1729403434,829762819,,0.0034178232308477163,0.0021772405598312616,47,0.0,559.0599975585938,0.002634604461491108
1729403434.9287162,2537,1729403434,927750856,,0.0035102751571685076,0.0030277702026069164,47,0.0,559.0499877929688,0.0017761305207386613
1729403435.0310411,2538,1729403435,29876208,,0.004670369438827038,0.0043201083317399025,47,0.0,559.0399780273438,0.0017745462246239185
1729403435.1316602,2539,1729403435,127970837,,0.005552935414016247,0.00523203331977129,47,0.0,559.0399780273438,0.0018603529315441847
1729403435.2320156,2540,1729403435,229957022,,0.006723279599100351,0.0067160301841795444,47,0.0,559.0299682617188,-0.0003121391637250781
1729403435.3305748,2541,1729403435,329816893,,0.006090996321290731,0.0059134466573596,47,0.0,559.0299682617188,-0.0014599240384995937
1729403435.430222,2542,1729403435,427906282,,0.005529369693249464,0.0054805525578558445,47,0.0,559.0199584960938,-0.0007331242668442428
1729403435.5291846,2543,1729403435,528105189,,0.006940724328160286,0.006752789486199617,47,0.0,559.0199584960938,-0.0016042107017710805
1729403435.630346,2544,1729403435,628117059,,0.008783303201198578,0.00865921750664711,47,0.0,559.0199584960938,-0.0014711825642734766
1729403435.7327359,2545,1729403435,729939115,,0.008904344402253628,0.008887859992682934,47,0.0,559.0299682617188,0.0005415630294010043
1729403435.8309426,2546,1729403435,828171170,,0.010616010054945946,0.010269242338836193,47,0.0,559.0399780273438,0.002691160887479782
1729403435.929493,2547,1729403435,928171448,,0.012224770151078701,0.010838214308023453,47,0.0,559.0499877929688,0.00565491896122694
1729403436.0320141,2548,1729403436,29939911,,0.013527965173125267,0.011068516410887241,47,0.0,559.0599975585938,0.007777773309499025
1729403436.1320045,2549,1729403436,129883170,,0.015073093585669994,0.012010833248496056,47,0.0,559.0599975585938,0.009107029996812344
1729403436.2319674,2550,1729403436,228221892,,0.015124780125916004,0.01301026064902544,47,0.0,559.0599975585938,0.00771311204880476
1729403436.329277,2551,1729403436,327948263,,0.015120834112167358,0.013238033279776573,47,0.0,559.0599975585938,0.007307127118110657
1729403436.431228,2552,1729403436,430091040,,0.016401365399360657,0.014692886732518673,47,0.0,559.0599975585938,0.007288613356649876
1729403436.5290596,2553,1729403436,528098503,,0.014564295299351215,0.013446823693811893,47,0.0,559.0499877929688,0.005594788119196892
1729403436.629346,2554,1729403436,628167818,,0.013478095643222332,0.012958078645169735,47,0.0,559.0499877929688,0.0037077285815030336
1729403436.7309892,2555,1729403436,730058003,,0.011432294733822346,0.011138299480080605,47,0.0,559.0399780273438,0.0025759704876691103
1729403436.828889,2556,1729403436,828218207,,0.010233880020678043,0.010132616385817528,47,0.0,559.0399780273438,0.001436106744222343
1729403436.931753,2557,1729403436,930106003,,0.010643316432833672,0.01059086062014103,47,0.0,559.0399780273438,0.001055380911566317
1729403437.0310533,2558,1729403437,30079799,,0.011597719974815845,0.011583509854972363,47,0.0,559.0399780273438,0.0005739361513406038
1729403437.1316965,2559,1729403437,130326244,,0.009949159808456898,0.009938234463334084,47,0.0,559.0399780273438,-0.00046611513243988156
1729403437.229227,2560,1729403437,228123262,,0.008458198979496956,0.008458192460238934,47,0.0,559.0399780273438,-1.0639982065185905e-05
1729403437.3321404,2561,1729403437,330202688,,0.008489149622619152,0.00847132783383131,47,0.0,559.0399780273438,-0.0005497678066603839
1729403437.431719,2562,1729403437,430205929,,0.008951744064688683,0.008722453378140926,47,0.0,559.0299682617188,-0.002013092627748847
1729403437.5296738,2563,1729403437,528394373,,0.008922705426812172,0.007765741087496281,47,0.0,559.0299682617188,-0.004394080489873886
1729403437.6291974,2564,1729403437,628213151,,0.009217352606356144,0.007042038720101118,47,0.0,559.0299682617188,-0.005947207100689411
1729403437.7301714,2565,1729403437,729169780,,0.011441037058830261,0.005577831529080868,47,0.0,559.010009765625,-0.00998925045132637
1729403437.8317049,2566,1729403437,830224743,,0.013143589720129967,0.004765897523611784,47,0.0,559.010009765625,-0.01224908884614706
1729403437.9312568,2567,1729403437,930283780,,0.014628179371356964,0.0031940455082803965,47,0.0,559.0,-0.01427521277219057
1729403438.0315607,2568,1729403438,30271947,,0.0157460980117321,0.0016676835948601365,47,0.0,559.0,-0.015657534822821617
1729403438.130465,2569,1729403438,128238484,,0.015954619273543358,0.0011264618951827288,47,0.0,559.0,-0.015914803370833397
1729403438.228435,2570,1729403438,227454854,,0.01534899603575468,0.000902757397852838,47,0.0,559.0,-0.015322424471378326
1729403438.330421,2571,1729403438,328449317,,0.016480106860399246,0.0015450839418917894,47,0.0,558.989990234375,-0.016407517716288567
1729403438.4315162,2572,1729403438,428478687,,0.017078334465622902,0.002866334980353713,47,0.0,558.989990234375,-0.016836080700159073
1729403438.5313528,2573,1729403438,530356150,,0.01670411229133606,0.0033719302155077457,47,0.0,558.989990234375,-0.016360240057110786
1729403438.6330886,2574,1729403438,630328724,,0.017700938507914543,0.0035654138773679733,47,0.0,558.97998046875,-0.017338138073682785
1729403438.731124,2575,1729403438,730304613,,0.018373942002654076,0.0032348528038710356,47,0.0,558.97998046875,-0.018086940050125122
1729403438.8297987,2576,1729403438,828527354,,0.020075565204024315,0.0032971014734357595,47,0.0,558.969970703125,-0.019802965223789215
1729403438.9298036,2577,1729403438,928567335,,0.020016903057694435,0.004033625591546297,47,0.0,558.9599609375,-0.01960628107190132
1729403439.03082,2578,1729403439,29372705,,0.021619407460093498,0.0054662758484482765,47,0.0,558.9599609375,-0.02091694436967373
1729403439.1309373,2579,1729403439,129366594,,0.021174553781747818,0.005286224186420441,47,0.0,558.9500122070312,-0.02050408534705639
1729403439.232594,2580,1729403439,230573853,,0.021885033696889877,0.004398016724735498,47,0.0,558.9500122070312,-0.021438568830490112
1729403439.3313751,2581,1729403439,330414650,,0.02282252535223961,0.004620227962732315,47,0.0,558.9400024414062,-0.022349970415234566
1729403439.433042,2582,1729403439,430414483,,0.024531913921236992,0.0054826149716973305,47,0.0,558.9299926757812,-0.02391141653060913
1729403439.5331385,2583,1729403439,527560075,,0.024581868201494217,0.006261552684009075,47,0.0,558.9199829101562,-0.02377101592719555
1729403439.6313715,2584,1729403439,630396872,,0.02620702050626278,0.008159218356013298,47,0.0,558.9199829101562,-0.02490452118217945
1729403439.7310805,2585,1729403439,729523538,,0.025583693757653236,0.010364790447056293,47,0.0,558.9199829101562,-0.023390095680952072
1729403439.8287146,2586,1729403439,827419372,,0.025035563856363297,0.01226692646741867,47,0.0,558.9199829101562,-0.021824344992637634
1729403439.930701,2587,1729403439,929503057,,0.023832254111766815,0.013905060477554798,47,0.0,558.9299926757812,-0.019355246797204018
1729403440.0304122,2588,1729403440,29480983,,0.023773526772856712,0.015912286937236786,47,0.0,558.9299926757812,-0.01766294799745083
1729403440.1304505,2589,1729403440,129531520,,0.02316080778837204,0.017468608915805817,47,0.0,558.9500122070312,-0.015207585878670216
1729403440.2291682,2590,1729403440,227791668,,0.02269700914621353,0.01925506629049778,47,0.0,558.9599609375,-0.012016513384878635
1729403440.3287313,2591,1729403440,327729408,,0.020867299288511276,0.01868356391787529,47,0.0,558.969970703125,-0.009293463081121445
1729403440.4310143,2592,1729403440,429720853,,0.019200948998332024,0.01847185008227825,47,0.0,558.989990234375,-0.005240916274487972
1729403440.5310547,2593,1729403440,529706390,,0.0183182992041111,0.018249917775392532,47,0.0,559.0,-0.00158132694195956
1729403440.6297736,2594,1729403440,627845649,,0.016974663361907005,0.01692415028810501,47,0.0,559.010009765625,0.0013085345271974802
1729403440.7310708,2595,1729403440,729657038,,0.016838248819112778,0.01676069386303425,47,0.0,559.0199584960938,0.0016142303356900811
1729403440.8316638,2596,1729403440,829675889,,0.016548877581954002,0.01654096692800522,47,0.0,559.0199584960938,0.0005115682724863291
1729403440.9291937,2597,1729403440,927677834,,0.015272737480700016,0.015232021920382977,47,0.0,559.0199584960938,-0.0011144520249217749
1729403441.0289533,2598,1729403441,27729149,,0.014187890104949474,0.014145919121801853,47,0.0,559.010009765625,-0.001090505626052618
1729403441.1341658,2599,1729403441,129736815,,0.012634266167879105,0.012597963213920593,47,0.0,559.010009765625,-0.0009570671827532351
1729403441.2325792,2600,1729403441,229775723,,0.010905619710683823,0.010852113366127014,47,0.0,559.010009765625,-0.0010789681691676378
1729403441.330919,2601,1729403441,329826204,,0.009797228500247002,0.009698955342173576,47,0.0,559.0199584960938,0.0013841743348166347
1729403441.4307618,2602,1729403441,429747982,,0.009059237316250801,0.008474893867969513,47,0.0,559.0199584960938,0.003200926585122943
1729403441.5295556,2603,1729403441,527918296,,0.006826191674917936,0.0064626126550138,47,0.0,559.0299682617188,0.0021980763413012028
1729403441.6294007,2604,1729403441,627792482,,0.006699161138385534,0.006546087097376585,47,0.0,559.0299682617188,0.0014239036245271564
1729403441.7297528,2605,1729403441,727761537,,0.0075038280338048935,0.007503295782953501,47,0.0,559.0299682617188,8.93211763468571e-05
1729403441.8307798,2606,1729403441,829749815,,0.006747507024556398,0.006743971258401871,47,0.0,559.0299682617188,-0.00021841537090949714
1729403441.9316206,2607,1729403441,929754518,,0.006520423106849194,0.006413641385734081,47,0.0,559.0399780273438,0.0011752124410122633
1729403442.0287058,2608,1729403442,27734278,,0.00746803218498826,0.006403196137398481,47,0.0,559.0399780273438,0.003843250684440136
1729403442.1295156,2609,1729403442,127928278,,0.008881248533725739,0.005939056631177664,47,0.0,559.0499877929688,0.0066033462062478065
1729403442.2307909,2610,1729403442,229853778,,0.010495120659470558,0.006008358672261238,47,0.0,559.0599975585938,0.008605067618191242
1729403442.3310099,2611,1729403442,329755148,,0.01141640730202198,0.00590555788949132,47,0.0,559.0700073242188,0.00977029837667942
1729403442.4309287,2612,1729403442,428036814,,0.014015501365065575,0.007314540445804596,47,0.0,559.0800170898438,0.011955407448112965
1729403442.5305073,2613,1729403442,529826666,,0.014806102029979229,0.00831005908548832,47,0.0,559.0800170898438,0.012254124507308006
1729403442.6286411,2614,1729403442,626958425,,0.0157796461135149,0.00918352697044611,47,0.0,559.0899658203125,0.012831994332373142
1729403442.7312806,2615,1729403442,729911055,,0.0148885203525424,0.009855540469288826,47,0.0,559.0899658203125,0.011159584857523441
1729403442.8358228,2616,1729403442,829869740,,0.016158469021320343,0.011602383106946945,47,0.0,559.0899658203125,0.01124636922031641
1729403442.9299226,2617,1729403442,928140536,,0.01600966975092888,0.01256040669977665,47,0.0,559.0899658203125,0.009927020408213139
1729403443.0284243,2618,1729403443,27057240,,0.015964863821864128,0.012884857133030891,47,0.0,559.0899658203125,0.00942641869187355
1729403443.1281028,2619,1729403443,126907833,,0.015088900923728943,0.013338793069124222,47,0.0,559.0899658203125,0.0070534758269786835
1729403443.2348745,2620,1729403443,229946629,,0.014432256110012531,0.013514608144760132,47,0.0,559.0800170898438,0.005064128432422876
1729403443.3307178,2621,1729403443,329964925,,0.014741921797394753,0.014633269049227238,47,0.0,559.0800170898438,0.0017865316476672888
1729403443.431423,2622,1729403443,430192832,,0.015906263142824173,0.015903005376458168,47,0.0,559.0700073242188,-0.0003220016951672733
1729403443.5301867,2623,1729403443,528191036,,0.017531821504235268,0.017467107623815536,47,0.0,559.0599975585938,-0.0015049451030790806
1729403443.630305,2624,1729403443,628948295,,0.018773823976516724,0.018503330647945404,47,0.0,559.0499877929688,-0.0031754104420542717
1729403443.731467,2625,1729403443,729251888,,0.019218627363443375,0.018864372745156288,47,0.0,559.0499877929688,-0.0036730216816067696
1729403443.8296509,2626,1729403443,828140869,,0.01994836889207363,0.019408591091632843,47,0.0,559.0399780273438,-0.0046091098338365555
1729403443.9298756,2627,1729403443,928190054,,0.0213228277862072,0.020608846098184586,47,0.0,559.0299682617188,-0.0054716006852686405
1729403444.031453,2628,1729403444,30071406,,0.021733777597546577,0.021041128784418106,47,0.0,559.0299682617188,-0.00544315529987216
1729403444.1286833,2629,1729403444,127137184,,0.02227000892162323,0.020739687606692314,47,0.0,559.0199584960938,-0.00811286736279726
1729403444.2326517,2630,1729403444,230134536,,0.02181060053408146,0.019983403384685516,47,0.0,559.010009765625,-0.008738753385841846
1729403444.3308885,2631,1729403444,330126517,,0.022195585072040558,0.020829712972044945,47,0.0,559.010009765625,-0.007665964309126139
1729403444.430478,2632,1729403444,428191517,,0.022416800260543823,0.021837547421455383,47,0.0,559.010009765625,-0.0050630527548491955
1729403444.5311096,2633,1729403444,530157072,,0.022197175770998,0.021592117846012115,47,0.0,559.010009765625,-0.005147330462932587
1729403444.6286795,2634,1729403444,627413850,,0.022178536280989647,0.02131282351911068,47,0.0,559.010009765625,-0.0061360509134829044
1729403444.7322032,2635,1729403444,730209924,,0.021713973954319954,0.02072141319513321,47,0.0,559.010009765625,-0.006489964202046394
1729403444.8313966,2636,1729403444,829185554,,0.0225765909999609,0.021114235743880272,47,0.0,559.010009765625,-0.007993213832378387
1729403444.929935,2637,1729403444,929189813,,0.02297263965010643,0.02086152508854866,47,0.0,559.0,-0.009619713760912418
1729403445.0293438,2638,1729403445,27381591,,0.022855443879961967,0.020363913848996162,47,0.0,559.0,-0.010377008467912674
1729403445.1290178,2639,1729403445,127463757,,0.022232290357351303,0.020895136520266533,47,0.0,559.010009765625,-0.007593941874802113
1729403445.2310045,2640,1729403445,229237776,,0.022198112681508064,0.021571563556790352,47,0.0,559.010009765625,-0.0052367751486599445
1729403445.3281279,2641,1729403445,327154535,,0.023273086175322533,0.02303220145404339,47,0.0,559.0199584960938,-0.0033397863153368235
1729403445.4300876,2642,1729403445,429292183,,0.02390618436038494,0.02366212196648121,47,0.0,559.0199584960938,-0.0034072690177708864
1729403445.5301456,2643,1729403445,529309183,,0.022506603971123695,0.02230900153517723,47,0.0,559.0199584960938,-0.002975837094709277
1729403445.6303265,2644,1729403445,629249442,,0.022071002051234245,0.02201123908162117,47,0.0,559.0199584960938,-0.0016231128247454762
1729403445.7308166,2645,1729403445,727465442,,0.018792003393173218,0.018789663910865784,47,0.0,559.0199584960938,0.0002963625593110919
1729403445.8336062,2646,1729403445,827591646,,0.016259964555501938,0.01619674637913704,47,0.0,559.0199584960938,0.0014324362855404615
1729403445.9303384,2647,1729403445,929308146,,0.014478670433163643,0.014446516521275043,47,0.0,559.0199584960938,0.0009643768426030874
1729403446.030905,2648,1729403446,29382405,,0.013783390633761883,0.01378332357853651,47,0.0,559.010009765625,4.3043055484304205e-05
1729403446.1305857,2649,1729403446,129088053,,0.013621618039906025,0.013583047315478325,47,0.0,559.010009765625,-0.0010243428405374289
1729403446.2311933,2650,1729403446,229457942,,0.014186631888151169,0.01373827364295721,47,0.0,559.0,-0.003538409946486354
1729403446.3289316,2651,1729403446,327624182,,0.01427692361176014,0.013674858026206493,47,0.0,558.989990234375,-0.00410229479894042
1729403446.4288392,2652,1729403446,427864682,,0.014940919354557991,0.014478555880486965,47,0.0,559.0,-0.0036881486885249615
1729403446.5307288,2653,1729403446,529360756,,0.014743542298674583,0.014530651271343231,47,0.0,559.0,-0.0024964362382888794
1729403446.6315272,2654,1729403446,629483460,,0.014407536014914513,0.014251981861889362,47,0.0,559.0,-0.0021114202681928873
1729403446.730751,2655,1729403446,729501441,,0.012889289297163486,0.012714430689811707,47,0.0,559.010009765625,-0.0021158927120268345
1729403446.8308668,2656,1729403446,829517904,,0.011949083767831326,0.011668391525745392,47,0.0,559.010009765625,-0.002574730198830366
1729403446.929046,2657,1729403446,927650608,,0.011129777878522873,0.010945471003651619,47,0.0,559.010009765625,-0.002017083577811718
1729403447.0305164,2658,1729403447,29733201,,0.010983849875628948,0.010927878320217133,47,0.0,559.010009765625,-0.0011074453359469771
1729403447.1304312,2659,1729403447,129501052,,0.010270782746374607,0.010227817110717297,47,0.0,559.010009765625,-0.0009384777513332665
1729403447.230696,2660,1729403447,227608219,,0.010517934337258339,0.010453327558934689,47,0.0,559.0199584960938,-0.001163998618721962
1729403447.33114,2661,1729403447,329552793,,0.010539881885051727,0.010537034831941128,47,0.0,559.0299682617188,0.0002449875173624605
1729403447.4311314,2662,1729403447,429614719,,0.011974443681538105,0.011795204132795334,47,0.0,559.0399780273438,0.002064086962491274
1729403447.5311458,2663,1729403447,529599756,,0.012665282934904099,0.012198754586279392,47,0.0,559.0499877929688,0.0034058450255542994
1729403447.6310167,2664,1729403447,629998830,,0.015508192591369152,0.01393003761768341,47,0.0,559.0599975585938,0.006816017907112837
1729403447.7304523,2665,1729403447,729548608,,0.017950762063264847,0.016342271119356155,47,0.0,559.0700073242188,0.0074269832111895084
1729403447.8314564,2666,1729403447,829684237,,0.020595313981175423,0.01839648000895977,47,0.0,559.0800170898438,0.009259400889277458
1729403447.9293664,2667,1729403447,927835682,,0.022907868027687073,0.021357715129852295,47,0.0,559.0800170898438,0.008283622562885284
1729403448.0312948,2668,1729403448,29645200,,0.024075591936707497,0.02303685061633587,47,0.0,559.0800170898438,0.006995544768869877
1729403448.1309302,2669,1729403448,129811885,,0.024336138740181923,0.023799920454621315,47,0.0,559.0800170898438,0.005080485250800848
1729403448.2305994,2670,1729403448,229722441,,0.025883588939905167,0.02540108561515808,47,0.0,559.0800170898438,0.004974439740180969
1729403448.3329175,2671,1729403448,329768107,,0.027424655854701996,0.027335742488503456,47,0.0,559.0700073242188,0.002206590725108981
1729403448.4288507,2672,1729403448,427856866,,0.02929333783686161,0.029289739206433296,47,0.0,559.0700073242188,0.00045915375812910497
1729403448.5283875,2673,1729403448,526777200,,0.029124151915311813,0.029122138395905495,47,0.0,559.0599975585938,-0.0003426445764489472
1729403448.628176,2674,1729403448,626836070,,0.029605895280838013,0.029599754139780998,47,0.0,559.0599975585938,-0.0006029440555721521
1729403448.7330375,2675,1729403448,729768051,,0.03055756166577339,0.0305342935025692,47,0.0,559.0599975585938,-0.0011922991834580898
1729403448.8316867,2676,1729403448,829721700,,0.03040718287229538,0.030405182391405106,47,0.0,559.0700073242188,-0.0003487167414277792
1729403448.9310994,2677,1729403448,929802959,,0.02851763553917408,0.028427734971046448,47,0.0,559.0599975585938,-0.002262622117996216
1729403449.030775,2678,1729403449,29742977,,0.026927975937724113,0.026686348021030426,47,0.0,559.0499877929688,-0.003599284216761589
1729403449.1312115,2679,1729403449,129789829,,0.0264444462954998,0.025927111506462097,47,0.0,559.0499877929688,-0.005205144640058279
1729403449.2325644,2680,1729403449,230676570,,0.025802990421652794,0.02518514357507229,47,0.0,559.0499877929688,-0.005612731445580721
1729403449.3275025,2681,1729403449,326756181,,0.026252133771777153,0.02585928700864315,47,0.0,559.0599975585938,-0.004524577874690294
1729403449.4309828,2682,1729403449,428024977,,0.02752656862139702,0.02710791677236557,47,0.0,559.0599975585938,-0.004782547242939472
1729403449.5316966,2683,1729403449,529863069,,0.028368394821882248,0.02817394770681858,47,0.0,559.0599975585938,-0.003315794514492154
1729403449.6310303,2684,1729403449,629859236,,0.028830137103796005,0.028620649129152298,47,0.0,559.0599975585938,-0.0034691726323217154
1729403449.7285385,2685,1729403449,727423940,,0.028718987479805946,0.028410164639353752,47,0.0,559.0700073242188,-0.004200327675789595
1729403449.8284006,2686,1729403449,827172069,,0.027908453717827797,0.02765491046011448,47,0.0,559.0700073242188,-0.003753355471417308
1729403449.9292781,2687,1729403449,928038699,,0.026528989896178246,0.026098012924194336,47,0.0,559.0700073242188,-0.004762447439134121
1729403450.0298855,2688,1729403450,27155014,,0.02598109096288681,0.025713831186294556,47,0.0,559.0700073242188,-0.0037169824354350567
1729403450.1297805,2689,1729403450,128858106,,0.02499978430569172,0.024858912453055382,47,0.0,559.0700073242188,-0.0026502194814383984
1729403450.2330294,2690,1729403450,230018217,,0.024337004870176315,0.024265799671411514,47,0.0,559.0700073242188,-0.001860342570580542
1729403450.3312979,2691,1729403450,329979754,,0.022465424612164497,0.022450586780905724,47,0.0,559.0800170898438,0.0008163836901076138
1729403450.4301207,2692,1729403450,428967050,,0.02175517939031124,0.021531855687499046,47,0.0,559.0800170898438,0.0031091917771846056
1729403450.5285292,2693,1729403450,527352198,,0.020785676315426826,0.019801968708634377,47,0.0,559.0899658203125,0.006318728439509869
1729403450.6303558,2694,1729403450,627105939,,0.020052725449204445,0.018737558275461197,47,0.0,559.0999755859375,0.007142528425902128
1729403450.7300615,2695,1729403450,729025217,,0.019519038498401642,0.01778748258948326,47,0.0,559.0999755859375,0.008037307299673557
1729403450.8306005,2696,1729403450,827029643,,0.019373629242181778,0.01707855425775051,47,0.0,559.1099853515625,0.009146608412265778
1729403450.9301841,2697,1729403450,929031254,,0.019091978669166565,0.016433540731668472,47,0.0,559.1099853515625,0.009718144312500954
1729403451.0304856,2698,1729403451,29067791,,0.019745467230677605,0.016397640109062195,47,0.0,559.1199951171875,0.011000040918588638
1729403451.1283844,2699,1729403451,127229531,,0.01910748891532421,0.015959518030285835,47,0.0,559.1099853515625,0.010506659746170044
1729403451.2308638,2700,1729403451,229039494,,0.019653232768177986,0.016693323850631714,47,0.0,559.1099853515625,0.010372193530201912
1729403451.3300583,2701,1729403451,329001791,,0.018406150862574577,0.01596018485724926,47,0.0,559.1099853515625,0.00916836317628622
1729403451.4306152,2702,1729403451,429164939,,0.017549777403473854,0.01545846275985241,47,0.0,559.1099853515625,0.008308468386530876
1729403451.5297737,2703,1729403451,529085013,,0.01818877086043358,0.015897084027528763,47,0.0,559.1199951171875,0.00883821677416563
1729403451.628712,2704,1729403451,627131587,,0.01832222379744053,0.016352124512195587,47,0.0,559.1099853515625,0.008265099488198757
1729403451.7282166,2705,1729403451,727197105,,0.019907496869564056,0.01765696331858635,47,0.0,559.1099853515625,0.009194568730890751
1729403451.8300595,2706,1729403451,829254475,,0.021754518151283264,0.01978875882923603,47,0.0,559.1099853515625,0.009036815725266933
1729403451.9283342,2707,1729403451,927236679,,0.021978601813316345,0.020168274641036987,47,0.0,559.1199951171875,0.008734963834285736
1729403452.0298786,2708,1729403452,29165716,,0.02269374579191208,0.020494122058153152,47,0.0,559.1199951171875,0.009746641851961613
1729403452.1299584,2709,1729403452,129179272,,0.021620675921440125,0.019258087500929832,47,0.0,559.1199951171875,0.00982749555259943
1729403452.2312183,2710,1729403452,229277809,,0.0214829221367836,0.019248463213443756,47,0.0,559.1300048828125,0.009540053084492683
1729403452.3298633,2711,1729403452,329182346,,0.021431541070342064,0.019232802093029022,47,0.0,559.1300048828125,0.009455700404942036
1729403452.4305322,2712,1729403452,429237790,,0.020427990704774857,0.01816842332482338,47,0.0,559.1300048828125,0.009338688105344772
1729403452.5286434,2713,1729403452,527484494,,0.021207943558692932,0.0194397009909153,47,0.0,559.1199951171875,0.00847790390253067
1729403452.6281846,2714,1729403452,627307586,,0.022145383059978485,0.02102961391210556,47,0.0,559.1199951171875,0.006940700113773346
1729403452.730086,2715,1729403452,727548216,,0.023078037425875664,0.02244289591908455,47,0.0,559.1099853515625,0.00537700392305851
1729403452.8308334,2716,1729403452,829285993,,0.024449653923511505,0.02405416965484619,47,0.0,559.0999755859375,0.004379776306450367
1729403452.932015,2717,1729403452,929482012,,0.02439793199300766,0.02403029054403305,47,0.0,559.0999755859375,0.004219506401568651
1729403453.0303254,2718,1729403453,27286641,,0.024271264672279358,0.024098515510559082,47,0.0,559.0899658203125,0.0028906557708978653
1729403453.1310372,2719,1729403453,129366160,,0.023102909326553345,0.023102259263396263,47,0.0,559.0800170898438,-0.00017321159248240292
1729403453.2292325,2720,1729403453,227429512,,0.021924475207924843,0.021365806460380554,47,0.0,559.0599975585938,-0.004917820915579796
1729403453.3305664,2721,1729403453,326335715,,0.021624328568577766,0.019919203594326973,47,0.0,559.0499877929688,-0.008416463620960712
1729403453.4331033,2722,1729403453,426341030,,0.020695330575108528,0.01834634318947792,47,0.0,559.0399780273438,-0.009576448239386082
1729403453.5306535,2723,1729403453,529463474,,0.020093373954296112,0.0161180030554533,47,0.0,559.0299682617188,-0.011998067609965801
1729403453.6310942,2724,1729403453,629613382,,0.020979005843400955,0.015096151269972324,47,0.0,559.0199584960938,-0.01456794049590826
1729403453.7309759,2725,1729403453,729481308,,0.020701736211776733,0.013054626062512398,47,0.0,559.010009765625,-0.016066692769527435
1729403453.8329384,2726,1729403453,827718882,,0.020318683236837387,0.011801481246948242,47,0.0,559.010009765625,-0.01654006913304329
1729403453.930255,2727,1729403453,928391085,,0.021084098145365715,0.010374652221798897,47,0.0,559.010009765625,-0.01835499331355095
1729403454.028169,2728,1729403454,26535252,,0.022539928555488586,0.009239459410309792,47,0.0,559.0,-0.020559199154376984
1729403454.1284306,2729,1729403454,126447307,,0.02399422973394394,0.008427251130342484,47,0.0,559.0,-0.022465629503130913
1729403454.2310963,2730,1729403454,229596881,,0.023794658482074738,0.008877720683813095,47,0.0,559.0,-0.022076498717069626
1729403454.3284292,2731,1729403454,326514196,,0.024571213871240616,0.00951653253287077,47,0.0,559.0,-0.022653480991721153
1729403454.4312167,2732,1729403454,429625826,,0.02630532719194889,0.010875747539103031,47,0.0,558.989990234375,-0.02395179122686386
1729403454.5312161,2733,1729403454,529636233,,0.027591988444328308,0.011175278574228287,47,0.0,558.989990234375,-0.025227583944797516
1729403454.6303174,2734,1729403454,627769029,,0.02918987162411213,0.01120370626449585,47,0.0,558.989990234375,-0.02695413865149021
1729403454.7276714,2735,1729403454,726632492,,0.029262013733386993,0.010190989822149277,47,0.0,558.97998046875,-0.027430078014731407
1729403454.829289,2736,1729403454,828564881,,0.028988009318709373,0.009952242486178875,47,0.0,558.97998046875,-0.027226045727729797
1729403454.9290884,2737,1729403454,926838566,,0.0269133523106575,0.010105493478477001,47,0.0,558.989990234375,-0.024944087490439415
1729403455.0297892,2738,1729403455,27835622,,0.025688454508781433,0.01027692761272192,47,0.0,558.989990234375,-0.023543180897831917
1729403455.1294272,2739,1729403455,128639381,,0.024636952206492424,0.009987179189920425,47,0.0,559.0,-0.022521892562508583
1729403455.2292259,2740,1729403455,226615788,,0.02212793566286564,0.00926303956657648,47,0.0,559.010009765625,-0.020095812156796455
1729403455.326019,2741,1729403455,324706066,,0.02005709707736969,0.009712562896311283,47,0.0,559.0199584960938,-0.01754859834909439
1729403455.42871,2742,1729403455,424670733,,0.01803153194487095,0.009788049384951591,47,0.0,559.0299682617188,-0.015143654309213161
1729403455.5309155,2743,1729403455,527726084,,0.014873990789055824,0.009636553935706615,47,0.0,559.0399780273438,-0.011330156587064266
1729403455.6287608,2744,1729403455,627908881,,0.012931975536048412,0.00952910352498293,47,0.0,559.0499877929688,-0.00874254945665598
1729403455.72998,2745,1729403455,726699862,,0.011680825613439083,0.010489878244698048,47,0.0,559.0599975585938,-0.005138493608683348
1729403455.8292212,2746,1729403455,827746362,,0.01158177014440298,0.011468332260847092,47,0.0,559.0700073242188,-0.001617016620002687
1729403455.9288933,2747,1729403455,927769825,,0.013138648122549057,0.012667636387050152,47,0.0,559.0899658203125,0.0034864109475165606
1729403456.0270913,2748,1729403456,24756362,,0.016607951372861862,0.01409104373306036,47,0.0,559.0999755859375,0.008790138177573681
1729403456.1265323,2749,1729403456,125318954,,0.018467772752046585,0.015548513270914555,47,0.0,559.0999755859375,0.009965053759515285
1729403456.2293615,2750,1729403456,225249603,,0.02208469621837139,0.017955366522073746,47,0.0,559.1099853515625,0.01285840105265379
1729403456.3281453,2751,1729403456,324849065,,0.023879094049334526,0.019974682480096817,47,0.0,559.1099853515625,0.013085228390991688
1729403456.428701,2752,1729403456,424921102,,0.027309289202094078,0.022408854216337204,47,0.0,559.1099853515625,0.015608987770974636
1729403456.5289383,2753,1729403456,525061917,,0.029462598264217377,0.024028848856687546,47,0.0,559.1199951171875,0.017048727720975876
1729403456.6269286,2754,1729403456,625072454,,0.031952712684869766,0.02570449374616146,47,0.0,559.1300048828125,0.018980376422405243
1729403456.7257879,2755,1729403456,725120399,,0.0341528058052063,0.026149757206439972,47,0.0,559.1400146484375,0.021968252956867218
1729403456.8278277,2756,1729403456,826872621,,0.03745711222290993,0.027733024209737778,47,0.0,559.1599731445312,0.025177663192152977
1729403456.9281313,2757,1729403456,927023454,,0.03804130107164383,0.027407106012105942,47,0.0,559.1699829101562,0.02638164535164833
1729403457.0277238,2758,1729403457,26977991,,0.03895028308033943,0.027131667360663414,47,0.0,559.1799926757812,0.02794632501900196
1729403457.126154,2759,1729403457,124965343,,0.03776761516928673,0.025096796452999115,47,0.0,559.1799926757812,0.028223101049661636
1729403457.234722,2760,1729403457,228187509,,0.03550157696008682,0.02359836921095848,47,0.0,559.1799926757812,0.026523176580667496
1729403457.3310022,2761,1729403457,329922231,,0.03401831164956093,0.02241896092891693,47,0.0,559.1799926757812,0.025585848838090897
1729403457.4289486,2762,1729403457,427151843,,0.033500585705041885,0.022224027663469315,47,0.0,559.1799926757812,0.025067545473575592
