Time,header.seq,header.stamp.secs,header.stamp.nsecs,header.frame_id,status.status,status.service,latitude,longitude,altitude,position_covariance_0,position_covariance_1,position_covariance_2,position_covariance_3,position_covariance_4,position_covariance_5,position_covariance_6,position_covariance_7,position_covariance_8,position_covariance_type
1729403412.219602,2307,1729403411,924585344,base_link,0,1,33.6978681,73.016567,512.7301744249305,0.8464,0.0,0.0,0.0,0.8464,0.0,0.0,0.0,2.5536040000000004,2
1729403412.2199652,2308,1729403412,24579968,base_link,0,1,33.6978681,73.016567,512.7301744249305,0.8464,0.0,0.0,0.0,0.8464,0.0,0.0,0.0,2.556801,2
1729403412.2202432,2309,1729403412,124574592,base_link,0,1,33.6978681,73.0165669,512.7301739975209,0.8464,0.0,0.0,0.0,0.8464,0.0,0.0,0.0,2.556801,2
1729403412.226441,2310,1729403412,224569216,base_link,0,1,33.6978682,73.0165669,512.7301746639424,0.848241,0.0,0.0,0.0,0.848241,0.0,0.0,0.0,2.5600000000000005,2
1729403412.3273427,2311,1729403412,324563840,base_link,0,1,33.6978682,73.0165668,512.7401742365327,0.848241,0.0,0.0,0.0,0.848241,0.0,0.0,0.0,2.5600000000000005,2
1729403412.4263198,2312,1729403412,424559232,base_link,0,1,33.6978683,73.0165668,512.7401749029541,0.851929,0.0,0.0,0.0,0.851929,0.0,0.0,0.0,2.5728160000000004,2
1729403412.5266092,2313,1729403412,524556416,base_link,0,1,33.6978683,73.0165668,512.7401749029541,0.851929,0.0,0.0,0.0,0.851929,0.0,0.0,0.0,2.5728160000000004,2
1729403412.6262014,2314,1729403412,624551040,base_link,0,1,33.6978683,73.0165668,512.7501749029541,0.8611840000000001,0.0,0.0,0.0,0.8611840000000001,0.0,0.0,0.0,2.5921000000000003,2
1729403412.7266467,2315,1729403412,724546688,base_link,0,1,33.6978683,73.0165668,512.7601749029541,0.8611840000000001,0.0,0.0,0.0,0.8611840000000001,0.0,0.0,0.0,2.5921000000000003,2
1729403412.8264172,2316,1729403412,824543616,base_link,0,1,33.6978683,73.0165668,512.7601749029541,0.8723560000000001,0.0,0.0,0.0,0.8723560000000001,0.0,0.0,0.0,2.6114560000000004,2
1729403412.927904,2317,1729403412,924539520,base_link,0,1,33.6978683,73.0165668,512.7601749029541,0.8723560000000001,0.0,0.0,0.0,0.8723560000000001,0.0,0.0,0.0,2.6114560000000004,2
1729403413.0274806,2318,1729403413,24531584,base_link,0,1,33.6978683,73.0165668,512.7601749029541,0.8779690000000001,0.0,0.0,0.0,0.8779690000000001,0.0,0.0,0.0,2.6244000000000005,2
1729403413.1276107,2319,1729403413,124526464,base_link,0,1,33.6978683,73.0165668,512.7501749029541,0.8779690000000001,0.0,0.0,0.0,0.8779690000000001,0.0,0.0,0.0,2.6244000000000005,2
1729403413.2276707,2320,1729403413,224524160,base_link,0,1,33.6978683,73.0165668,512.7501749029541,0.8817209999999999,0.0,0.0,0.0,0.8817209999999999,0.0,0.0,0.0,2.637376,2
1729403413.3274322,2321,1729403413,324519040,base_link,0,1,33.6978683,73.0165667,512.7501744755443,0.8817209999999999,0.0,0.0,0.0,0.8817209999999999,0.0,0.0,0.0,2.637376,2
1729403413.4277148,2322,1729403413,424516480,base_link,0,1,33.6978683,73.0165667,512.7401744755443,0.8854809999999999,0.0,0.0,0.0,0.8854809999999999,0.0,0.0,0.0,2.650384,2
1729403413.5268476,2323,1729403413,524511360,base_link,0,1,33.6978683,73.0165666,512.7301740481347,0.8854809999999999,0.0,0.0,0.0,0.8854809999999999,0.0,0.0,0.0,2.650384,2
1729403413.6274781,2324,1729403413,624506752,base_link,0,1,33.6978683,73.0165666,512.7201740481347,0.8873639999999999,0.0,0.0,0.0,0.8873639999999999,0.0,0.0,0.0,2.660161,2
1729403413.7274003,2325,1729403413,724503424,base_link,0,1,33.6978683,73.0165666,512.7101740481347,0.8873639999999999,0.0,0.0,0.0,0.8873639999999999,0.0,0.0,0.0,2.660161,2
1729403413.8273406,2326,1729403413,824499840,base_link,0,1,33.6978683,73.0165666,512.7101740481347,0.8911359999999999,0.0,0.0,0.0,0.8911359999999999,0.0,0.0,0.0,2.673225,2
1729403413.9279087,2327,1729403413,924496512,base_link,0,1,33.6978683,73.0165666,512.7201740481347,0.8911359999999999,0.0,0.0,0.0,0.8911359999999999,0.0,0.0,0.0,2.673225,2
1729403414.0270267,2328,1729403414,25492928,base_link,0,1,33.6978683,73.0165666,512.7301740481347,0.8949159999999999,0.0,0.0,0.0,0.8949159999999999,0.0,0.0,0.0,2.686321,2
1729403414.1277838,2329,1729403414,124489088,base_link,0,1,33.6978683,73.0165666,512.7401740481347,0.8949159999999999,0.0,0.0,0.0,0.8949159999999999,0.0,0.0,0.0,2.686321,2
1729403414.2285686,2330,1729403414,224485760,base_link,0,1,33.6978683,73.0165666,512.7501740481347,0.898704,0.0,0.0,0.0,0.898704,0.0,0.0,0.0,2.6961639999999996,2
1729403414.327286,2331,1729403414,324482176,base_link,0,1,33.6978683,73.0165666,512.7601740481347,0.898704,0.0,0.0,0.0,0.898704,0.0,0.0,0.0,2.6961639999999996,2
1729403414.4272153,2332,1729403414,424478848,base_link,0,1,33.6978683,73.0165666,512.7701740481347,0.9006009999999999,0.0,0.0,0.0,0.9006009999999999,0.0,0.0,0.0,2.709316,2
1729403414.5273554,2333,1729403414,524475776,base_link,0,1,33.6978683,73.0165666,512.7801740481347,0.9006009999999999,0.0,0.0,0.0,0.9006009999999999,0.0,0.0,0.0,2.709316,2
1729403414.6268232,2334,1729403414,624472704,base_link,0,1,33.6978683,73.0165666,512.7801740481347,0.9044009999999999,0.0,0.0,0.0,0.9044009999999999,0.0,0.0,0.0,2.719201,2
1729403414.7270846,2335,1729403414,724468608,base_link,0,1,33.6978684,73.0165666,512.7801747145561,0.9044009999999999,0.0,0.0,0.0,0.9044009999999999,0.0,0.0,0.0,2.719201,2
1729403414.8284264,2336,1729403414,824464512,base_link,0,1,33.6978684,73.0165665,512.7901742871462,0.9082089999999999,0.0,0.0,0.0,0.9082089999999999,0.0,0.0,0.0,2.732409,2
1729403414.9274094,2337,1729403414,924463232,base_link,0,1,33.6978684,73.0165665,512.7901742871462,0.9082089999999999,0.0,0.0,0.0,0.9082089999999999,0.0,0.0,0.0,2.732409,2
1729403415.0272722,2338,1729403415,24458880,base_link,0,1,33.6978684,73.0165664,512.8001738597366,0.9101159999999999,0.0,0.0,0.0,0.9101159999999999,0.0,0.0,0.0,2.742336,2
1729403415.1280253,2339,1729403415,124454784,base_link,0,1,33.6978684,73.0165664,512.8101738597366,0.9101159999999999,0.0,0.0,0.0,0.9101159999999999,0.0,0.0,0.0,2.742336,2
1729403415.2278552,2340,1729403415,224453504,base_link,0,1,33.6978684,73.0165664,512.8201738597365,0.913936,0.0,0.0,0.0,0.913936,0.0,0.0,0.0,2.7556,2
1729403415.328965,2341,1729403415,324449408,base_link,0,1,33.6978684,73.0165664,512.8301738597365,0.913936,0.0,0.0,0.0,0.913936,0.0,0.0,0.0,2.7556,2
1729403415.428436,2342,1729403415,424445568,base_link,0,1,33.6978684,73.0165664,512.8301738597365,0.9177639999999999,0.0,0.0,0.0,0.9177639999999999,0.0,0.0,0.0,2.765569,2
1729403415.5278113,2343,1729403415,524442752,base_link,0,1,33.6978684,73.0165664,512.8401738597366,0.9177639999999999,0.0,0.0,0.0,0.9177639999999999,0.0,0.0,0.0,2.765569,2
1729403415.627601,2344,1729403415,624437376,base_link,0,1,33.6978684,73.0165664,512.8401738597366,0.919681,0.0,0.0,0.0,0.919681,0.0,0.0,0.0,2.778889,2
1729403415.7274125,2345,1729403415,724432256,base_link,0,1,33.6978684,73.0165664,512.8301738597365,0.919681,0.0,0.0,0.0,0.919681,0.0,0.0,0.0,2.778889,2
1729403415.8278406,2346,1729403415,824427904,base_link,0,1,33.6978684,73.0165664,512.8301738597365,0.9235209999999999,0.0,0.0,0.0,0.9235209999999999,0.0,0.0,0.0,2.7889,2
1729403415.9272654,2347,1729403415,924423296,base_link,0,1,33.6978684,73.0165663,512.8301734323269,0.9235209999999999,0.0,0.0,0.0,0.9235209999999999,0.0,0.0,0.0,2.7889,2
1729403416.028133,2348,1729403416,24417920,base_link,0,1,33.6978684,73.0165663,512.8301734323269,0.9273689999999999,0.0,0.0,0.0,0.9273689999999999,0.0,0.0,0.0,2.7989290000000002,2
1729403416.1282332,2349,1729403416,124413824,base_link,0,1,33.6978684,73.0165663,512.8201734323269,0.9273689999999999,0.0,0.0,0.0,0.9273689999999999,0.0,0.0,0.0,2.7989290000000002,2
1729403416.229071,2350,1729403416,224413824,base_link,0,1,33.6978684,73.0165663,512.8201734323269,0.9292959999999999,0.0,0.0,0.0,0.9292959999999999,0.0,0.0,0.0,2.808976,2
1729403416.3286815,2351,1729403416,324409728,base_link,0,1,33.6978684,73.0165663,512.8101734323269,0.9292959999999999,0.0,0.0,0.0,0.9292959999999999,0.0,0.0,0.0,2.808976,2
1729403416.4280236,2352,1729403416,424405888,base_link,0,1,33.6978684,73.0165663,512.8001734323269,0.931225,0.0,0.0,0.0,0.931225,0.0,0.0,0.0,2.812329,2
1729403416.5270343,2353,1729403416,524401024,base_link,0,1,33.6978684,73.0165662,512.8001730049173,0.931225,0.0,0.0,0.0,0.931225,0.0,0.0,0.0,2.812329,2
1729403416.6266303,2354,1729403416,624397440,base_link,0,1,33.6978685,73.0165662,512.7901736713386,0.933156,0.0,0.0,0.0,0.933156,0.0,0.0,0.0,2.8190410000000004,2
1729403416.7278905,2355,1729403416,724394112,base_link,0,1,33.6978685,73.0165661,512.780173243929,0.933156,0.0,0.0,0.0,0.933156,0.0,0.0,0.0,2.8190410000000004,2
1729403416.8263562,2356,1729403416,824390016,base_link,0,1,33.6978685,73.0165661,512.780173243929,0.935089,0.0,0.0,0.0,0.935089,0.0,0.0,0.0,2.8223999999999996,2
1729403416.9263296,2357,1729403416,924385152,base_link,0,1,33.6978686,73.016566,512.7801734829407,0.935089,0.0,0.0,0.0,0.935089,0.0,0.0,0.0,2.8223999999999996,2
1729403417.0266488,2358,1729403417,24377216,base_link,0,1,33.6978686,73.016566,512.7801734829407,0.935089,0.0,0.0,0.0,0.935089,0.0,0.0,0.0,2.8223999999999996,2
1729403417.1272235,2359,1729403417,124372608,base_link,0,1,33.6978686,73.016566,512.7801734829407,0.935089,0.0,0.0,0.0,0.935089,0.0,0.0,0.0,2.8223999999999996,2
1729403417.2316525,2360,1729403417,224368000,base_link,0,1,33.6978686,73.016566,512.7801734829407,0.937024,0.0,0.0,0.0,0.937024,0.0,0.0,0.0,2.825761,2
1729403417.3263772,2361,1729403417,324361856,base_link,0,1,33.6978686,73.0165659,512.7801730555311,0.937024,0.0,0.0,0.0,0.937024,0.0,0.0,0.0,2.825761,2
1729403417.4278886,2362,1729403417,424358272,base_link,0,1,33.6978686,73.0165659,512.7901730555311,0.937024,0.0,0.0,0.0,0.937024,0.0,0.0,0.0,2.825761,2
1729403417.5265012,2363,1729403417,524353920,base_link,0,1,33.6978686,73.0165659,512.7901730555311,0.937024,0.0,0.0,0.0,0.937024,0.0,0.0,0.0,2.825761,2
1729403417.6264002,2364,1729403417,624349056,base_link,0,1,33.6978686,73.0165659,512.7901730555311,0.937024,0.0,0.0,0.0,0.937024,0.0,0.0,0.0,2.825761,2
1729403417.726177,2365,1729403417,724345728,base_link,0,1,33.6978686,73.0165659,512.8001730555311,0.937024,0.0,0.0,0.0,0.937024,0.0,0.0,0.0,2.825761,2
1729403417.8261166,2366,1729403417,824342400,base_link,0,1,33.6978686,73.0165659,512.8001730555311,0.937024,0.0,0.0,0.0,0.937024,0.0,0.0,0.0,2.8291239999999998,2
1729403417.9260607,2367,1729403417,924339328,base_link,0,1,33.6978686,73.0165659,512.8001730555311,0.937024,0.0,0.0,0.0,0.937024,0.0,0.0,0.0,2.8291239999999998,2
1729403418.0262454,2368,1729403418,24331392,base_link,0,1,33.6978686,73.0165659,512.8001730555311,0.9389609999999999,0.0,0.0,0.0,0.9389609999999999,0.0,0.0,0.0,2.8324890000000003,2
1729403418.1267436,2369,1729403418,124327040,base_link,0,1,33.6978687,73.0165659,512.8101737219524,0.9389609999999999,0.0,0.0,0.0,0.9389609999999999,0.0,0.0,0.0,2.8324890000000003,2
1729403418.2274847,2370,1729403418,224322688,base_link,0,1,33.6978687,73.0165659,512.8101737219524,0.9409,0.0,0.0,0.0,0.9409,0.0,0.0,0.0,2.8358559999999997,2
1729403418.3275523,2371,1729403418,324318336,base_link,0,1,33.6978687,73.0165659,512.8201737219524,0.9409,0.0,0.0,0.0,0.9409,0.0,0.0,0.0,2.8358559999999997,2
1729403418.4271054,2372,1729403418,424312704,base_link,0,1,33.6978687,73.0165658,512.8201732945427,0.9409,0.0,0.0,0.0,0.9409,0.0,0.0,0.0,2.8358559999999997,2
1729403418.527503,2373,1729403418,524305792,base_link,0,1,33.6978687,73.0165658,512.8301732945426,0.9409,0.0,0.0,0.0,0.9409,0.0,0.0,0.0,2.8358559999999997,2
1729403418.6269577,2374,1729403418,624303232,base_link,0,1,33.6978687,73.0165658,512.8301732945426,0.9409,0.0,0.0,0.0,0.9409,0.0,0.0,0.0,2.8392250000000003,2
1729403418.7271824,2375,1729403418,724298880,base_link,0,1,33.6978688,73.0165658,512.8401739609642,0.9409,0.0,0.0,0.0,0.9409,0.0,0.0,0.0,2.8392250000000003,2
1729403418.8269029,2376,1729403418,824294528,base_link,0,1,33.6978688,73.0165658,512.8501739609642,0.9428409999999999,0.0,0.0,0.0,0.9428409999999999,0.0,0.0,0.0,2.842596,2
1729403418.9269145,2377,1729403418,924290176,base_link,0,1,33.6978688,73.0165657,512.8501735335545,0.9428409999999999,0.0,0.0,0.0,0.9428409999999999,0.0,0.0,0.0,2.842596,2
1729403419.0267417,2378,1729403419,24286080,base_link,0,1,33.6978688,73.0165657,512.8601735335545,0.9428409999999999,0.0,0.0,0.0,0.9428409999999999,0.0,0.0,0.0,2.845969,2
1729403419.1270118,2379,1729403419,124283264,base_link,0,1,33.6978688,73.0165657,512.8601735335545,0.9428409999999999,0.0,0.0,0.0,0.9428409999999999,0.0,0.0,0.0,2.845969,2
1729403419.2287054,2380,1729403419,224280960,base_link,0,1,33.6978688,73.0165657,512.8701735335545,0.9428409999999999,0.0,0.0,0.0,0.9428409999999999,0.0,0.0,0.0,2.845969,2
1729403419.32691,2381,1729403419,324275584,base_link,0,1,33.6978688,73.0165657,512.8701735335545,0.9428409999999999,0.0,0.0,0.0,0.9428409999999999,0.0,0.0,0.0,2.845969,2
1729403419.4273653,2382,1729403419,424273280,base_link,0,1,33.6978689,73.0165656,512.8801737725662,0.9428409999999999,0.0,0.0,0.0,0.9428409999999999,0.0,0.0,0.0,2.845969,2
1729403419.526946,2383,1729403419,524269184,base_link,0,1,33.6978689,73.0165656,512.8801737725662,0.9428409999999999,0.0,0.0,0.0,0.9428409999999999,0.0,0.0,0.0,2.845969,2
1729403419.627032,2384,1729403419,624264832,base_link,0,1,33.6978689,73.0165656,512.8801737725662,0.9428409999999999,0.0,0.0,0.0,0.9428409999999999,0.0,0.0,0.0,2.845969,2
1729403419.727612,2385,1729403419,724260736,base_link,0,1,33.6978688,73.0165655,512.8701726787351,0.9428409999999999,0.0,0.0,0.0,0.9428409999999999,0.0,0.0,0.0,2.845969,2
1729403419.829544,2386,1729403419,824255360,base_link,0,1,33.6978688,73.0165655,512.8701726787351,0.9428409999999999,0.0,0.0,0.0,0.9428409999999999,0.0,0.0,0.0,2.845969,2
1729403419.927056,2387,1729403419,924248448,base_link,0,1,33.6978688,73.0165655,512.8601726787351,0.9428409999999999,0.0,0.0,0.0,0.9428409999999999,0.0,0.0,0.0,2.845969,2
1729403420.027159,2388,1729403420,24243328,base_link,0,1,33.6978688,73.0165655,512.8501726787351,0.9428409999999999,0.0,0.0,0.0,0.9428409999999999,0.0,0.0,0.0,2.849344,2
1729403420.1274292,2389,1729403420,124239744,base_link,0,1,33.6978688,73.0165654,512.8401722513256,0.9428409999999999,0.0,0.0,0.0,0.9428409999999999,0.0,0.0,0.0,2.849344,2
1729403420.226373,2390,1729403420,224237952,base_link,0,1,33.6978688,73.0165654,512.8401722513256,0.9428409999999999,0.0,0.0,0.0,0.9428409999999999,0.0,0.0,0.0,2.849344,2
1729403420.3262804,2391,1729403420,324234112,base_link,0,1,33.6978688,73.0165654,512.8301722513255,0.9428409999999999,0.0,0.0,0.0,0.9428409999999999,0.0,0.0,0.0,2.849344,2
1729403420.4263973,2392,1729403420,424230016,base_link,0,1,33.6978688,73.0165654,512.8201722513255,0.9428409999999999,0.0,0.0,0.0,0.9428409999999999,0.0,0.0,0.0,2.8527210000000003,2
1729403420.5263767,2393,1729403420,524224896,base_link,0,1,33.6978688,73.0165654,512.8001722513255,0.9428409999999999,0.0,0.0,0.0,0.9428409999999999,0.0,0.0,0.0,2.8527210000000003,2
1729403420.6276295,2394,1729403420,624222848,base_link,0,1,33.6978688,73.0165654,512.7901722513255,0.944784,0.0,0.0,0.0,0.944784,0.0,0.0,0.0,2.8560999999999996,2
1729403420.7274895,2395,1729403420,724220800,base_link,0,1,33.6978687,73.0165654,512.7801715849043,0.944784,0.0,0.0,0.0,0.944784,0.0,0.0,0.0,2.8560999999999996,2
1729403420.827647,2396,1729403420,824217216,base_link,0,1,33.6978687,73.0165654,512.7701715849043,0.9467289999999999,0.0,0.0,0.0,0.9467289999999999,0.0,0.0,0.0,2.859481,2
1729403420.927469,2397,1729403420,924215424,base_link,0,1,33.6978687,73.0165653,512.7701711574947,0.9467289999999999,0.0,0.0,0.0,0.9467289999999999,0.0,0.0,0.0,2.859481,2
1729403421.0270977,2398,1729403421,24207232,base_link,0,1,33.6978687,73.0165653,512.7601711574947,0.9467289999999999,0.0,0.0,0.0,0.9467289999999999,0.0,0.0,0.0,2.8628639999999996,2
1729403421.1271386,2399,1729403421,124203648,base_link,0,1,33.6978687,73.0165653,512.7501711574947,0.9467289999999999,0.0,0.0,0.0,0.9467289999999999,0.0,0.0,0.0,2.8628639999999996,2
1729403421.2300415,2400,1729403421,224209280,base_link,0,1,33.6978687,73.0165652,512.7501707300853,0.948676,0.0,0.0,0.0,0.948676,0.0,0.0,0.0,2.8662490000000003,2
1729403421.327363,2401,1729403421,324207488,base_link,0,1,33.6978687,73.0165652,512.7401707300853,0.948676,0.0,0.0,0.0,0.948676,0.0,0.0,0.0,2.8662490000000003,2
1729403421.427828,2402,1729403421,424205696,base_link,0,1,33.6978687,73.0165651,512.7401703026758,0.948676,0.0,0.0,0.0,0.948676,0.0,0.0,0.0,2.8662490000000003,2
1729403421.5281715,2403,1729403421,524202112,base_link,0,1,33.6978687,73.0165651,512.7401703026758,0.948676,0.0,0.0,0.0,0.948676,0.0,0.0,0.0,2.8662490000000003,2
1729403421.6272542,2404,1729403421,624198784,base_link,0,1,33.6978687,73.0165651,512.7501703026758,0.9506249999999999,0.0,0.0,0.0,0.9506249999999999,0.0,0.0,0.0,2.869636,2
1729403421.7283137,2405,1729403421,724195456,base_link,0,1,33.6978687,73.016565,512.7501698752662,0.9506249999999999,0.0,0.0,0.0,0.9506249999999999,0.0,0.0,0.0,2.869636,2
1729403421.8270383,2406,1729403421,824190592,base_link,0,1,33.6978687,73.016565,512.7601698752662,0.9506249999999999,0.0,0.0,0.0,0.9506249999999999,0.0,0.0,0.0,2.873025,2
1729403421.927373,2407,1729403421,924184448,base_link,0,1,33.6978686,73.016565,512.7701692088452,0.9506249999999999,0.0,0.0,0.0,0.9506249999999999,0.0,0.0,0.0,2.873025,2
1729403422.026551,2408,1729403422,24179840,base_link,0,1,33.6978686,73.016565,512.7801692088452,0.9506249999999999,0.0,0.0,0.0,0.9506249999999999,0.0,0.0,0.0,2.873025,2
1729403422.127029,2409,1729403422,124172160,base_link,0,1,33.6978686,73.016565,512.7801692088452,0.9506249999999999,0.0,0.0,0.0,0.9506249999999999,0.0,0.0,0.0,2.873025,2
1729403422.2285056,2410,1729403422,224169088,base_link,0,1,33.6978686,73.016565,512.7901692088452,0.9506249999999999,0.0,0.0,0.0,0.9506249999999999,0.0,0.0,0.0,2.873025,2
1729403422.3268511,2411,1729403422,324166016,base_link,0,1,33.6978686,73.0165649,512.7801687814359,0.9506249999999999,0.0,0.0,0.0,0.9506249999999999,0.0,0.0,0.0,2.873025,2
1729403422.4264975,2412,1729403422,424161408,base_link,0,1,33.6978686,73.0165649,512.7801687814359,0.952576,0.0,0.0,0.0,0.952576,0.0,0.0,0.0,2.873025,2
1729403422.5264313,2413,1729403422,524155776,base_link,0,1,33.6978685,73.0165649,512.7801681150149,0.952576,0.0,0.0,0.0,0.952576,0.0,0.0,0.0,2.873025,2
1729403422.6266937,2414,1729403422,624150144,base_link,0,1,33.6978685,73.0165649,512.7701681150149,0.952576,0.0,0.0,0.0,0.952576,0.0,0.0,0.0,2.873025,2
1729403422.7268708,2415,1729403422,724142464,base_link,0,1,33.6978685,73.0165649,512.760168115015,0.952576,0.0,0.0,0.0,0.952576,0.0,0.0,0.0,2.873025,2
1729403422.8263288,2416,1729403422,824135040,base_link,0,1,33.6978684,73.0165648,512.7501670211847,0.952576,0.0,0.0,0.0,0.952576,0.0,0.0,0.0,2.873025,2
1729403422.9265487,2417,1729403422,924127616,base_link,0,1,33.6978684,73.0165648,512.7401670211847,0.952576,0.0,0.0,0.0,0.952576,0.0,0.0,0.0,2.873025,2
1729403423.0266368,2418,1729403423,24119680,base_link,0,1,33.6978684,73.0165648,512.7301670211847,0.952576,0.0,0.0,0.0,0.952576,0.0,0.0,0.0,2.873025,2
1729403423.1265135,2419,1729403423,124115328,base_link,0,1,33.6978684,73.0165648,512.7301670211847,0.952576,0.0,0.0,0.0,0.952576,0.0,0.0,0.0,2.873025,2
1729403423.2294989,2420,1729403423,225112000,base_link,0,1,33.6978684,73.0165648,512.7301670211847,0.952576,0.0,0.0,0.0,0.952576,0.0,0.0,0.0,2.873025,2
1729403423.3285604,2421,1729403423,324108672,base_link,0,1,33.6978683,73.0165648,512.7301663547639,0.952576,0.0,0.0,0.0,0.952576,0.0,0.0,0.0,2.873025,2
1729403423.4273095,2422,1729403423,424101504,base_link,0,1,33.6978683,73.0165647,512.7301659273546,0.952576,0.0,0.0,0.0,0.952576,0.0,0.0,0.0,2.873025,2
1729403423.5285733,2423,1729403423,524097408,base_link,0,1,33.6978682,73.0165647,512.730165260934,0.952576,0.0,0.0,0.0,0.952576,0.0,0.0,0.0,2.873025,2
1729403423.6265905,2424,1729403423,624093056,base_link,0,1,33.6978682,73.0165647,512.730165260934,0.9506249999999999,0.0,0.0,0.0,0.9506249999999999,0.0,0.0,0.0,2.873025,2
1729403423.7272441,2425,1729403423,724088960,base_link,0,1,33.6978682,73.0165647,512.730165260934,0.9506249999999999,0.0,0.0,0.0,0.9506249999999999,0.0,0.0,0.0,2.873025,2
1729403423.827517,2426,1729403423,824084864,base_link,0,1,33.6978681,73.0165647,512.7301645945133,0.9506249999999999,0.0,0.0,0.0,0.9506249999999999,0.0,0.0,0.0,2.873025,2
1729403423.9273481,2427,1729403423,924079744,base_link,0,1,33.6978681,73.0165647,512.7401645945133,0.9506249999999999,0.0,0.0,0.0,0.9506249999999999,0.0,0.0,0.0,2.873025,2
1729403424.027457,2428,1729403424,24072832,base_link,0,1,33.6978681,73.0165647,512.7401645945133,0.9506249999999999,0.0,0.0,0.0,0.9506249999999999,0.0,0.0,0.0,2.873025,2
1729403424.1276221,2429,1729403424,124070784,base_link,0,1,33.6978681,73.0165647,512.7501645945133,0.9506249999999999,0.0,0.0,0.0,0.9506249999999999,0.0,0.0,0.0,2.873025,2
1729403424.2272716,2430,1729403424,224068480,base_link,0,1,33.6978681,73.0165647,512.7501645945133,0.9506249999999999,0.0,0.0,0.0,0.9506249999999999,0.0,0.0,0.0,2.873025,2
1729403424.3271906,2431,1729403424,324061824,base_link,0,1,33.697868,73.0165647,512.7601639280927,0.9506249999999999,0.0,0.0,0.0,0.9506249999999999,0.0,0.0,0.0,2.873025,2
1729403424.4285605,2432,1729403424,425057984,base_link,0,1,33.697868,73.0165647,512.7601639280927,0.9506249999999999,0.0,0.0,0.0,0.9506249999999999,0.0,0.0,0.0,2.873025,2
1729403424.527115,2433,1729403424,524054144,base_link,0,1,33.697868,73.0165647,512.7701639280926,0.9506249999999999,0.0,0.0,0.0,0.9506249999999999,0.0,0.0,0.0,2.873025,2
1729403424.6270442,2434,1729403424,624049024,base_link,0,1,33.697868,73.0165647,512.7801639280926,0.9506249999999999,0.0,0.0,0.0,0.9506249999999999,0.0,0.0,0.0,2.873025,2
1729403424.7269976,2435,1729403424,724040832,base_link,0,1,33.697868,73.0165647,512.7901639280926,0.9506249999999999,0.0,0.0,0.0,0.9506249999999999,0.0,0.0,0.0,2.873025,2
1729403424.8269184,2436,1729403424,824032640,base_link,0,1,33.697868,73.0165647,512.8001639280926,0.9506249999999999,0.0,0.0,0.0,0.9506249999999999,0.0,0.0,0.0,2.873025,2
1729403424.9269507,2437,1729403424,924029056,base_link,0,1,33.6978679,73.0165647,512.800163261672,0.9506249999999999,0.0,0.0,0.0,0.9506249999999999,0.0,0.0,0.0,2.873025,2
1729403425.0276802,2438,1729403425,24021888,base_link,0,1,33.6978679,73.0165647,512.800163261672,0.9506249999999999,0.0,0.0,0.0,0.9506249999999999,0.0,0.0,0.0,2.873025,2
1729403425.1275074,2439,1729403425,124017024,base_link,0,1,33.6978679,73.0165647,512.800163261672,0.9506249999999999,0.0,0.0,0.0,0.9506249999999999,0.0,0.0,0.0,2.873025,2
1729403425.227693,2440,1729403425,224013440,base_link,0,1,33.6978679,73.0165646,512.8001628342629,0.9506249999999999,0.0,0.0,0.0,0.9506249999999999,0.0,0.0,0.0,2.873025,2
1729403425.327195,2441,1729403425,324009088,base_link,0,1,33.6978679,73.0165646,512.8001628342629,0.9506249999999999,0.0,0.0,0.0,0.9506249999999999,0.0,0.0,0.0,2.873025,2
1729403425.4279685,2442,1729403425,424001152,base_link,0,1,33.6978678,73.0165646,512.7901621678424,0.9506249999999999,0.0,0.0,0.0,0.9506249999999999,0.0,0.0,0.0,2.873025,2
1729403425.5267792,2443,1729403425,523994496,base_link,0,1,33.6978678,73.0165646,512.7901621678424,0.9506249999999999,0.0,0.0,0.0,0.9506249999999999,0.0,0.0,0.0,2.873025,2
1729403425.6271605,2444,1729403425,623991168,base_link,0,1,33.6978678,73.0165646,512.7801621678424,0.948676,0.0,0.0,0.0,0.948676,0.0,0.0,0.0,2.873025,2
1729403425.727498,2445,1729403425,723988096,base_link,0,1,33.6978678,73.0165646,512.7901621678424,0.948676,0.0,0.0,0.0,0.948676,0.0,0.0,0.0,2.873025,2
1729403425.826869,2446,1729403425,823984768,base_link,0,1,33.6978678,73.0165646,512.7901621678424,0.948676,0.0,0.0,0.0,0.948676,0.0,0.0,0.0,2.873025,2
1729403425.9268146,2447,1729403425,923981440,base_link,0,1,33.6978678,73.0165646,512.8001621678424,0.948676,0.0,0.0,0.0,0.948676,0.0,0.0,0.0,2.873025,2
1729403426.027519,2448,1729403426,23972992,base_link,0,1,33.6978678,73.0165645,512.8101617404334,0.9467289999999999,0.0,0.0,0.0,0.9467289999999999,0.0,0.0,0.0,2.869636,2
1729403426.1271157,2449,1729403426,123965312,base_link,0,1,33.6978677,73.0165645,512.8101610740131,0.9467289999999999,0.0,0.0,0.0,0.9467289999999999,0.0,0.0,0.0,2.869636,2
1729403426.227233,2450,1729403426,223959936,base_link,0,1,33.6978677,73.0165645,512.8101610740131,0.9467289999999999,0.0,0.0,0.0,0.9467289999999999,0.0,0.0,0.0,2.869636,2
1729403426.3267403,2451,1729403426,323956864,base_link,0,1,33.6978677,73.0165644,512.8001606466041,0.9467289999999999,0.0,0.0,0.0,0.9467289999999999,0.0,0.0,0.0,2.869636,2
1729403426.4270275,2452,1729403426,423948928,base_link,0,1,33.6978677,73.0165644,512.8001606466041,0.9467289999999999,0.0,0.0,0.0,0.9467289999999999,0.0,0.0,0.0,2.869636,2
1729403426.5267231,2453,1729403426,523944576,base_link,0,1,33.6978677,73.0165644,512.7901606466041,0.9467289999999999,0.0,0.0,0.0,0.9467289999999999,0.0,0.0,0.0,2.869636,2
1729403426.6270685,2454,1729403426,624941504,base_link,0,1,33.6978676,73.0165644,512.7901599801838,0.944784,0.0,0.0,0.0,0.944784,0.0,0.0,0.0,2.8662490000000003,2
1729403426.7274883,2455,1729403426,723938944,base_link,0,1,33.6978676,73.0165644,512.7901599801838,0.944784,0.0,0.0,0.0,0.944784,0.0,0.0,0.0,2.8662490000000003,2
1729403426.8276389,2456,1729403426,823931264,base_link,0,1,33.6978676,73.0165644,512.7801599801838,0.944784,0.0,0.0,0.0,0.944784,0.0,0.0,0.0,2.8662490000000003,2
1729403426.9268289,2457,1729403426,923923584,base_link,0,1,33.6978676,73.0165643,512.770159552775,0.944784,0.0,0.0,0.0,0.944784,0.0,0.0,0.0,2.8662490000000003,2
1729403427.0273361,2458,1729403427,23915904,base_link,0,1,33.6978676,73.0165643,512.760159552775,0.9428409999999999,0.0,0.0,0.0,0.9428409999999999,0.0,0.0,0.0,2.8628639999999996,2
1729403427.127142,2459,1729403427,123913088,base_link,0,1,33.6978676,73.0165643,512.760159552775,0.9428409999999999,0.0,0.0,0.0,0.9428409999999999,0.0,0.0,0.0,2.8628639999999996,2
1729403427.2291112,2460,1729403427,223908992,base_link,0,1,33.6978676,73.0165642,512.7501591253662,0.9428409999999999,0.0,0.0,0.0,0.9428409999999999,0.0,0.0,0.0,2.8628639999999996,2
1729403427.3268504,2461,1729403427,323904640,base_link,0,1,33.6978676,73.0165642,512.7401591253662,0.9428409999999999,0.0,0.0,0.0,0.9428409999999999,0.0,0.0,0.0,2.8628639999999996,2
1729403427.4261565,2462,1729403427,423902080,base_link,0,1,33.6978675,73.0165641,512.7301580315371,0.9428409999999999,0.0,0.0,0.0,0.9428409999999999,0.0,0.0,0.0,2.859481,2
1729403427.5271888,2463,1729403427,523894912,base_link,0,1,33.6978675,73.0165641,512.7301580315371,0.9428409999999999,0.0,0.0,0.0,0.9428409999999999,0.0,0.0,0.0,2.859481,2
1729403427.6264613,2464,1729403427,623888000,base_link,0,1,33.6978675,73.016564,512.7301576041284,0.9409,0.0,0.0,0.0,0.9409,0.0,0.0,0.0,2.859481,2
1729403427.7277012,2465,1729403427,723880832,base_link,0,1,33.6978675,73.0165639,512.7201571767197,0.9409,0.0,0.0,0.0,0.9409,0.0,0.0,0.0,2.859481,2
1729403427.8264763,2466,1729403427,823876736,base_link,0,1,33.6978674,73.0165639,512.7101565102996,0.9409,0.0,0.0,0.0,0.9409,0.0,0.0,0.0,2.8560999999999996,2
1729403427.9267838,2467,1729403427,923872896,base_link,0,1,33.6978674,73.0165638,512.7001560828909,0.9409,0.0,0.0,0.0,0.9409,0.0,0.0,0.0,2.8560999999999996,2
1729403428.0267065,2468,1729403428,23865216,base_link,0,1,33.6978674,73.0165638,512.7001560828909,0.9389609999999999,0.0,0.0,0.0,0.9389609999999999,0.0,0.0,0.0,2.8560999999999996,2
1729403428.1264155,2469,1729403428,123860096,base_link,0,1,33.6978674,73.0165638,512.7001560828909,0.9389609999999999,0.0,0.0,0.0,0.9389609999999999,0.0,0.0,0.0,2.8560999999999996,2
1729403428.230325,2470,1729403428,223855488,base_link,0,1,33.6978674,73.0165637,512.7001556554821,0.9389609999999999,0.0,0.0,0.0,0.9389609999999999,0.0,0.0,0.0,2.8527210000000003,2
1729403428.3258984,2471,1729403428,323848576,base_link,0,1,33.6978673,73.0165637,512.7001549890623,0.9389609999999999,0.0,0.0,0.0,0.9389609999999999,0.0,0.0,0.0,2.8527210000000003,2
1729403428.4262304,2472,1729403428,423841664,base_link,0,1,33.6978673,73.0165636,512.7001545616537,0.9389609999999999,0.0,0.0,0.0,0.9389609999999999,0.0,0.0,0.0,2.8527210000000003,2
1729403428.5277174,2473,1729403428,523837568,base_link,0,1,33.6978673,73.0165636,512.7001545616537,0.9389609999999999,0.0,0.0,0.0,0.9389609999999999,0.0,0.0,0.0,2.8527210000000003,2
1729403428.6277227,2474,1729403428,623833728,base_link,0,1,33.6978673,73.0165635,512.7001541342452,0.937024,0.0,0.0,0.0,0.937024,0.0,0.0,0.0,2.8527210000000003,2
1729403428.7267976,2475,1729403428,723826560,base_link,0,1,33.6978674,73.0165635,512.6901548006649,0.937024,0.0,0.0,0.0,0.937024,0.0,0.0,0.0,2.8527210000000003,2
1729403428.8269901,2476,1729403428,823821696,base_link,0,1,33.6978674,73.0165635,512.6901548006649,0.937024,0.0,0.0,0.0,0.937024,0.0,0.0,0.0,2.849344,2
1729403428.9266517,2477,1729403428,923814784,base_link,0,1,33.6978674,73.0165635,512.7001548006649,0.937024,0.0,0.0,0.0,0.937024,0.0,0.0,0.0,2.849344,2
1729403429.0265875,2478,1729403429,23807616,base_link,0,1,33.6978674,73.0165635,512.7001548006649,0.937024,0.0,0.0,0.0,0.937024,0.0,0.0,0.0,2.849344,2
1729403429.1266842,2479,1729403429,123800960,base_link,0,1,33.6978674,73.0165634,512.7101543732565,0.937024,0.0,0.0,0.0,0.937024,0.0,0.0,0.0,2.849344,2
1729403429.2269676,2480,1729403429,223797632,base_link,0,1,33.6978674,73.0165634,512.7301543732565,0.935089,0.0,0.0,0.0,0.935089,0.0,0.0,0.0,2.845969,2
1729403429.327519,2481,1729403429,323794304,base_link,0,1,33.6978674,73.0165634,512.7401543732565,0.935089,0.0,0.0,0.0,0.935089,0.0,0.0,0.0,2.845969,2
1729403429.4267497,2482,1729403429,423797376,base_link,0,1,33.6978674,73.0165634,512.7501543732565,0.935089,0.0,0.0,0.0,0.935089,0.0,0.0,0.0,2.845969,2
1729403429.526863,2483,1729403429,523790976,base_link,0,1,33.6978674,73.0165634,512.7601543732565,0.935089,0.0,0.0,0.0,0.935089,0.0,0.0,0.0,2.845969,2
1729403429.6267254,2484,1729403429,623782784,base_link,0,1,33.6978674,73.0165634,512.7601543732565,0.935089,0.0,0.0,0.0,0.935089,0.0,0.0,0.0,2.845969,2
1729403429.7274435,2485,1729403429,723778432,base_link,0,1,33.6978674,73.0165634,512.7801543732564,0.935089,0.0,0.0,0.0,0.935089,0.0,0.0,0.0,2.845969,2
1729403429.827636,2486,1729403429,823771776,base_link,0,1,33.6978674,73.0165634,512.7901543732564,0.935089,0.0,0.0,0.0,0.935089,0.0,0.0,0.0,2.842596,2
1729403429.928234,2487,1729403429,923768448,base_link,0,1,33.6978674,73.0165634,512.8101543732564,0.935089,0.0,0.0,0.0,0.935089,0.0,0.0,0.0,2.842596,2
1729403430.0278633,2488,1729403430,24761792,base_link,0,1,33.6978674,73.0165634,512.8101543732564,0.935089,0.0,0.0,0.0,0.935089,0.0,0.0,0.0,2.842596,2
1729403430.1273372,2489,1729403430,123758976,base_link,0,1,33.6978674,73.0165634,512.8201543732564,0.935089,0.0,0.0,0.0,0.935089,0.0,0.0,0.0,2.842596,2
1729403430.2277348,2490,1729403430,223751040,base_link,0,1,33.6978674,73.0165633,512.8301539458478,0.935089,0.0,0.0,0.0,0.935089,0.0,0.0,0.0,2.842596,2
1729403430.3265662,2491,1729403430,323746432,base_link,0,1,33.6978674,73.0165633,512.8301539458478,0.935089,0.0,0.0,0.0,0.935089,0.0,0.0,0.0,2.842596,2
1729403430.4264004,2492,1729403430,423738496,base_link,0,1,33.6978674,73.0165633,512.8501539458479,0.935089,0.0,0.0,0.0,0.935089,0.0,0.0,0.0,2.842596,2
1729403430.5265417,2493,1729403430,523735424,base_link,0,1,33.6978674,73.0165633,512.8601539458479,0.935089,0.0,0.0,0.0,0.935089,0.0,0.0,0.0,2.842596,2
1729403430.6273835,2494,1729403430,623732352,base_link,0,1,33.6978674,73.0165632,512.8701535184393,0.935089,0.0,0.0,0.0,0.935089,0.0,0.0,0.0,2.842596,2
1729403430.7274828,2495,1729403430,723729536,base_link,0,1,33.6978674,73.0165632,512.8801535184393,0.935089,0.0,0.0,0.0,0.935089,0.0,0.0,0.0,2.842596,2
1729403430.8274462,2496,1729403430,823725440,base_link,0,1,33.6978674,73.0165632,512.8901535184393,0.935089,0.0,0.0,0.0,0.935089,0.0,0.0,0.0,2.8392250000000003,2
1729403430.928134,2497,1729403430,923721344,base_link,0,1,33.6978674,73.0165632,512.8901535184393,0.935089,0.0,0.0,0.0,0.935089,0.0,0.0,0.0,2.8392250000000003,2
1729403431.028019,2498,1729403431,23715456,base_link,0,1,33.6978674,73.0165631,512.9001530910309,0.935089,0.0,0.0,0.0,0.935089,0.0,0.0,0.0,2.8392250000000003,2
1729403431.1271403,2499,1729403431,123708032,base_link,0,1,33.6978674,73.0165631,512.9001530910309,0.935089,0.0,0.0,0.0,0.935089,0.0,0.0,0.0,2.8392250000000003,2
1729403431.2292547,2500,1729403431,223700864,base_link,0,1,33.6978674,73.0165631,512.9101530910309,0.935089,0.0,0.0,0.0,0.935089,0.0,0.0,0.0,2.8392250000000003,2
1729403431.3268602,2501,1729403431,323698048,base_link,0,1,33.6978674,73.016563,512.9101526636224,0.935089,0.0,0.0,0.0,0.935089,0.0,0.0,0.0,2.8392250000000003,2
1729403431.4270945,2502,1729403431,423694976,base_link,0,1,33.6978674,73.016563,512.9101526636224,0.933156,0.0,0.0,0.0,0.933156,0.0,0.0,0.0,2.8392250000000003,2
1729403431.52662,2503,1729403431,523691392,base_link,0,1,33.6978674,73.0165629,512.9101522362139,0.933156,0.0,0.0,0.0,0.933156,0.0,0.0,0.0,2.8392250000000003,2
1729403431.626498,2504,1729403431,623683968,base_link,0,1,33.6978674,73.0165629,512.9101522362139,0.933156,0.0,0.0,0.0,0.933156,0.0,0.0,0.0,2.8358559999999997,2
1729403431.7267697,2505,1729403431,723676544,base_link,0,1,33.6978674,73.0165629,512.9201522362139,0.933156,0.0,0.0,0.0,0.933156,0.0,0.0,0.0,2.8358559999999997,2
1729403431.827066,2506,1729403431,823673984,base_link,0,1,33.6978674,73.0165629,512.9301522362139,0.933156,0.0,0.0,0.0,0.933156,0.0,0.0,0.0,2.8358559999999997,2
1729403431.926551,2507,1729403431,923666816,base_link,0,1,33.6978674,73.0165628,512.9301518088055,0.933156,0.0,0.0,0.0,0.933156,0.0,0.0,0.0,2.8358559999999997,2
1729403432.0266256,2508,1729403432,23659904,base_link,0,1,33.6978674,73.0165628,512.9401518088055,0.933156,0.0,0.0,0.0,0.933156,0.0,0.0,0.0,2.8358559999999997,2
1729403432.1274693,2509,1729403432,123657088,base_link,0,1,33.6978674,73.0165628,512.9301518088055,0.933156,0.0,0.0,0.0,0.933156,0.0,0.0,0.0,2.8358559999999997,2
1729403432.2278168,2510,1729403432,223652480,base_link,0,1,33.6978674,73.0165628,512.9301518088055,0.933156,0.0,0.0,0.0,0.933156,0.0,0.0,0.0,2.8358559999999997,2
1729403432.3267033,2511,1729403432,323645312,base_link,0,1,33.6978674,73.0165627,512.930151381397,0.933156,0.0,0.0,0.0,0.933156,0.0,0.0,0.0,2.8358559999999997,2
1729403432.4265049,2512,1729403432,423638400,base_link,0,1,33.6978674,73.0165627,512.930151381397,0.933156,0.0,0.0,0.0,0.933156,0.0,0.0,0.0,2.8324890000000003,2
1729403432.526142,2513,1729403432,523635840,base_link,0,1,33.6978673,73.0165627,512.9201507149775,0.933156,0.0,0.0,0.0,0.933156,0.0,0.0,0.0,2.8324890000000003,2
1729403432.627596,2514,1729403432,623633536,base_link,0,1,33.6978673,73.0165627,512.9101507149775,0.933156,0.0,0.0,0.0,0.933156,0.0,0.0,0.0,2.8324890000000003,2
1729403432.7289512,2515,1729403432,723631232,base_link,0,1,33.6978673,73.0165626,512.9101502875692,0.933156,0.0,0.0,0.0,0.933156,0.0,0.0,0.0,2.8324890000000003,2
1729403432.8274112,2516,1729403432,823627392,base_link,0,1,33.6978673,73.0165626,512.9001502875692,0.933156,0.0,0.0,0.0,0.933156,0.0,0.0,0.0,2.8324890000000003,2
1729403432.926777,2517,1729403432,923623040,base_link,0,1,33.6978673,73.0165626,512.9001502875692,0.933156,0.0,0.0,0.0,0.933156,0.0,0.0,0.0,2.8324890000000003,2
1729403433.025922,2518,1729403433,23616640,base_link,0,1,33.6978673,73.0165626,512.9001502875692,0.933156,0.0,0.0,0.0,0.933156,0.0,0.0,0.0,2.8324890000000003,2
1729403433.1268651,2519,1729403433,123611776,base_link,0,1,33.6978673,73.0165626,512.9001502875692,0.933156,0.0,0.0,0.0,0.933156,0.0,0.0,0.0,2.8324890000000003,2
1729403433.2286575,2520,1729403433,223608960,base_link,0,1,33.6978673,73.0165626,512.9001502875692,0.933156,0.0,0.0,0.0,0.933156,0.0,0.0,0.0,2.8324890000000003,2
1729403433.326651,2521,1729403433,323602304,base_link,0,1,33.6978674,73.0165625,512.9001505265803,0.933156,0.0,0.0,0.0,0.933156,0.0,0.0,0.0,2.8324890000000003,2
1729403433.4263575,2522,1729403433,423598720,base_link,0,1,33.6978674,73.0165625,512.8901505265803,0.933156,0.0,0.0,0.0,0.933156,0.0,0.0,0.0,2.8291239999999998,2
1729403433.526915,2523,1729403433,523593856,base_link,0,1,33.6978674,73.0165624,512.890150099172,0.933156,0.0,0.0,0.0,0.933156,0.0,0.0,0.0,2.8291239999999998,2
1729403433.6281168,2524,1729403433,623588992,base_link,0,1,33.6978674,73.0165624,512.880150099172,0.931225,0.0,0.0,0.0,0.931225,0.0,0.0,0.0,2.8291239999999998,2
1729403433.7261245,2525,1729403433,723584128,base_link,0,1,33.6978674,73.0165624,512.880150099172,0.931225,0.0,0.0,0.0,0.931225,0.0,0.0,0.0,2.8291239999999998,2
1729403433.826082,2526,1729403433,823577472,base_link,0,1,33.6978674,73.0165623,512.8801496717638,0.931225,0.0,0.0,0.0,0.931225,0.0,0.0,0.0,2.8291239999999998,2
1729403433.9269679,2527,1729403433,923571072,base_link,0,1,33.6978674,73.0165623,512.8801496717638,0.931225,0.0,0.0,0.0,0.931225,0.0,0.0,0.0,2.8291239999999998,2
1729403434.0269024,2528,1729403434,23564416,base_link,0,1,33.6978674,73.0165623,512.8701496717638,0.931225,0.0,0.0,0.0,0.931225,0.0,0.0,0.0,2.8291239999999998,2
1729403434.1263325,2529,1729403434,123558016,base_link,0,1,33.6978674,73.0165623,512.8701496717638,0.931225,0.0,0.0,0.0,0.931225,0.0,0.0,0.0,2.8291239999999998,2
1729403434.2273054,2530,1729403434,224551360,base_link,0,1,33.6978674,73.0165623,512.8701496717638,0.931225,0.0,0.0,0.0,0.931225,0.0,0.0,0.0,2.8291239999999998,2
1729403434.3275476,2531,1729403434,323543936,base_link,0,1,33.6978674,73.0165623,512.8701496717638,0.931225,0.0,0.0,0.0,0.931225,0.0,0.0,0.0,2.8291239999999998,2
1729403434.4259624,2532,1729403434,423537280,base_link,0,1,33.6978674,73.0165623,512.8601496717638,0.931225,0.0,0.0,0.0,0.931225,0.0,0.0,0.0,2.825761,2
1729403434.5259888,2533,1729403434,523532672,base_link,0,1,33.6978674,73.0165623,512.8601496717638,0.931225,0.0,0.0,0.0,0.931225,0.0,0.0,0.0,2.825761,2
1729403434.6276205,2534,1729403434,623529344,base_link,0,1,33.6978674,73.0165623,512.8501496717638,0.931225,0.0,0.0,0.0,0.931225,0.0,0.0,0.0,2.825761,2
1729403434.7274432,2535,1729403434,724523200,base_link,0,1,33.6978674,73.0165623,512.8401496717638,0.931225,0.0,0.0,0.0,0.931225,0.0,0.0,0.0,2.825761,2
1729403434.8260815,2536,1729403434,823519872,base_link,0,1,33.6978674,73.0165623,512.8301496717637,0.931225,0.0,0.0,0.0,0.931225,0.0,0.0,0.0,2.825761,2
1729403434.9263966,2537,1729403434,923515264,base_link,0,1,33.6978674,73.0165623,512.8201496717637,0.931225,0.0,0.0,0.0,0.931225,0.0,0.0,0.0,2.825761,2
1729403435.0265949,2538,1729403435,23509120,base_link,0,1,33.6978674,73.0165623,512.8101496717637,0.931225,0.0,0.0,0.0,0.931225,0.0,0.0,0.0,2.825761,2
1729403435.1262202,2539,1729403435,123504512,base_link,0,1,33.6978674,73.0165623,512.8101496717637,0.931225,0.0,0.0,0.0,0.931225,0.0,0.0,0.0,2.825761,2
1729403435.2264478,2540,1729403435,223498112,base_link,0,1,33.6978674,73.0165623,512.8001496717637,0.931225,0.0,0.0,0.0,0.931225,0.0,0.0,0.0,2.825761,2
1729403435.32625,2541,1729403435,323490432,base_link,0,1,33.6978674,73.0165623,512.8001496717637,0.931225,0.0,0.0,0.0,0.931225,0.0,0.0,0.0,2.825761,2
1729403435.4264665,2542,1729403435,423484288,base_link,0,1,33.6978674,73.0165623,512.7901496717637,0.931225,0.0,0.0,0.0,0.931225,0.0,0.0,0.0,2.825761,2
1729403435.5260017,2543,1729403435,523477120,base_link,0,1,33.6978674,73.0165623,512.7901496717637,0.931225,0.0,0.0,0.0,0.931225,0.0,0.0,0.0,2.825761,2
1729403435.6263041,2544,1729403435,623473024,base_link,0,1,33.6978674,73.0165623,512.7901496717637,0.931225,0.0,0.0,0.0,0.931225,0.0,0.0,0.0,2.8223999999999996,2
1729403435.7262535,2545,1729403435,723465600,base_link,0,1,33.6978674,73.0165623,512.8001496717637,0.931225,0.0,0.0,0.0,0.931225,0.0,0.0,0.0,2.8223999999999996,2
1729403435.8260684,2546,1729403435,823458176,base_link,0,1,33.6978674,73.0165623,512.8101496717637,0.931225,0.0,0.0,0.0,0.931225,0.0,0.0,0.0,2.8223999999999996,2
1729403435.926358,2547,1729403435,923454848,base_link,0,1,33.6978674,73.0165623,512.8201496717637,0.931225,0.0,0.0,0.0,0.931225,0.0,0.0,0.0,2.8223999999999996,2
1729403436.0261714,2548,1729403436,23448960,base_link,0,1,33.6978674,73.0165623,512.8301496717637,0.931225,0.0,0.0,0.0,0.931225,0.0,0.0,0.0,2.8223999999999996,2
1729403436.1267948,2549,1729403436,123440768,base_link,0,1,33.6978674,73.0165623,512.8301496717637,0.931225,0.0,0.0,0.0,0.931225,0.0,0.0,0.0,2.8223999999999996,2
1729403436.2275248,2550,1729403436,223437696,base_link,0,1,33.6978674,73.0165623,512.8301496717637,0.931225,0.0,0.0,0.0,0.931225,0.0,0.0,0.0,2.8223999999999996,2
1729403436.3270679,2551,1729403436,323434112,base_link,0,1,33.6978673,73.0165623,512.8301490053443,0.931225,0.0,0.0,0.0,0.931225,0.0,0.0,0.0,2.8223999999999996,2
1729403436.4262614,2552,1729403436,423433088,base_link,0,1,33.6978673,73.0165623,512.8301490053443,0.9292959999999999,0.0,0.0,0.0,0.9292959999999999,0.0,0.0,0.0,2.8223999999999996,2
1729403436.5268645,2553,1729403436,523429248,base_link,0,1,33.6978673,73.0165623,512.8201490053443,0.9292959999999999,0.0,0.0,0.0,0.9292959999999999,0.0,0.0,0.0,2.8223999999999996,2
1729403436.6268144,2554,1729403436,623421824,base_link,0,1,33.6978673,73.0165623,512.8201490053443,0.9292959999999999,0.0,0.0,0.0,0.9292959999999999,0.0,0.0,0.0,2.8190410000000004,2
1729403436.7272215,2555,1729403436,723416192,base_link,0,1,33.6978674,73.0165623,512.8201496717637,0.9292959999999999,0.0,0.0,0.0,0.9292959999999999,0.0,0.0,0.0,2.8190410000000004,2
1729403436.8274112,2556,1729403436,823413120,base_link,0,1,33.6978674,73.0165623,512.8101496717637,0.9292959999999999,0.0,0.0,0.0,0.9292959999999999,0.0,0.0,0.0,2.8190410000000004,2
1729403436.9272149,2557,1729403436,923406208,base_link,0,1,33.6978674,73.0165623,512.8101496717637,0.9292959999999999,0.0,0.0,0.0,0.9292959999999999,0.0,0.0,0.0,2.8190410000000004,2
1729403437.0271976,2558,1729403437,23400832,base_link,0,1,33.6978674,73.0165623,512.8101496717637,0.9292959999999999,0.0,0.0,0.0,0.9292959999999999,0.0,0.0,0.0,2.8190410000000004,2
1729403437.1299644,2559,1729403437,126394432,base_link,0,1,33.6978674,73.0165623,512.8101496717637,0.9292959999999999,0.0,0.0,0.0,0.9292959999999999,0.0,0.0,0.0,2.8190410000000004,2
1729403437.2278528,2560,1729403437,223387520,base_link,0,1,33.6978674,73.0165623,512.8101496717637,0.9292959999999999,0.0,0.0,0.0,0.9292959999999999,0.0,0.0,0.0,2.8190410000000004,2
1729403437.327177,2561,1729403437,323380608,base_link,0,1,33.6978674,73.0165623,512.8101496717637,0.9292959999999999,0.0,0.0,0.0,0.9292959999999999,0.0,0.0,0.0,2.8190410000000004,2
1729403437.4268923,2562,1729403437,423373696,base_link,0,1,33.6978674,73.0165623,512.8001496717637,0.9292959999999999,0.0,0.0,0.0,0.9292959999999999,0.0,0.0,0.0,2.8190410000000004,2
1729403437.5268688,2563,1729403437,523367040,base_link,0,1,33.6978674,73.0165622,512.8001492443553,0.9292959999999999,0.0,0.0,0.0,0.9292959999999999,0.0,0.0,0.0,2.8190410000000004,2
1729403437.6268191,2564,1729403437,624360128,base_link,0,1,33.6978674,73.0165622,512.8001492443553,0.9292959999999999,0.0,0.0,0.0,0.9292959999999999,0.0,0.0,0.0,2.8156839999999996,2
1729403437.725815,2565,1729403437,723352448,base_link,0,1,33.6978674,73.0165622,512.7901492443553,0.9292959999999999,0.0,0.0,0.0,0.9292959999999999,0.0,0.0,0.0,2.8156839999999996,2
1729403437.8261178,2566,1729403437,823346048,base_link,0,1,33.6978674,73.0165621,512.7801488169472,0.9292959999999999,0.0,0.0,0.0,0.9292959999999999,0.0,0.0,0.0,2.8156839999999996,2
1729403437.9259076,2567,1729403437,923339136,base_link,0,1,33.6978674,73.0165621,512.7701488169472,0.9292959999999999,0.0,0.0,0.0,0.9292959999999999,0.0,0.0,0.0,2.8156839999999996,2
1729403438.0258381,2568,1729403438,23332736,base_link,0,1,33.6978674,73.0165621,512.7701488169472,0.9292959999999999,0.0,0.0,0.0,0.9292959999999999,0.0,0.0,0.0,2.8156839999999996,2
1729403438.12692,2569,1729403438,123325824,base_link,0,1,33.6978674,73.0165621,512.7701488169472,0.9292959999999999,0.0,0.0,0.0,0.9292959999999999,0.0,0.0,0.0,2.8156839999999996,2
1729403438.226117,2570,1729403438,223319168,base_link,0,1,33.6978674,73.016562,512.7701483895389,0.9292959999999999,0.0,0.0,0.0,0.9292959999999999,0.0,0.0,0.0,2.8156839999999996,2
1729403438.3264117,2571,1729403438,323312512,base_link,0,1,33.6978674,73.016562,512.7601483895389,0.9292959999999999,0.0,0.0,0.0,0.9292959999999999,0.0,0.0,0.0,2.8156839999999996,2
1729403438.426386,2572,1729403438,423306112,base_link,0,1,33.6978674,73.016562,512.7601483895389,0.9292959999999999,0.0,0.0,0.0,0.9292959999999999,0.0,0.0,0.0,2.812329,2
1729403438.5264258,2573,1729403438,523301504,base_link,0,1,33.6978674,73.016562,512.7601483895389,0.9292959999999999,0.0,0.0,0.0,0.9292959999999999,0.0,0.0,0.0,2.812329,2
1729403438.627693,2574,1729403438,623295104,base_link,0,1,33.6978674,73.016562,512.7501483895389,0.9292959999999999,0.0,0.0,0.0,0.9292959999999999,0.0,0.0,0.0,2.812329,2
1729403438.7265408,2575,1729403438,723288704,base_link,0,1,33.6978674,73.016562,512.7501483895389,0.9292959999999999,0.0,0.0,0.0,0.9292959999999999,0.0,0.0,0.0,2.812329,2
1729403438.8260322,2576,1729403438,823282304,base_link,0,1,33.6978674,73.016562,512.740148389539,0.9292959999999999,0.0,0.0,0.0,0.9292959999999999,0.0,0.0,0.0,2.812329,2
1729403438.9261906,2577,1729403438,923276160,base_link,0,1,33.6978674,73.016562,512.740148389539,0.9292959999999999,0.0,0.0,0.0,0.9292959999999999,0.0,0.0,0.0,2.812329,2
1729403439.0272884,2578,1729403439,23269760,base_link,0,1,33.6978674,73.016562,512.730148389539,0.9273689999999999,0.0,0.0,0.0,0.9273689999999999,0.0,0.0,0.0,2.812329,2
1729403439.1260188,2579,1729403439,123265152,base_link,0,1,33.6978674,73.016562,512.720148389539,0.9273689999999999,0.0,0.0,0.0,0.9273689999999999,0.0,0.0,0.0,2.812329,2
1729403439.2265723,2580,1729403439,223259008,base_link,0,1,33.6978674,73.016562,512.720148389539,0.9273689999999999,0.0,0.0,0.0,0.9273689999999999,0.0,0.0,0.0,2.812329,2
1729403439.3263679,2581,1729403439,323252608,base_link,0,1,33.6978675,73.016562,512.7101490559584,0.9273689999999999,0.0,0.0,0.0,0.9273689999999999,0.0,0.0,0.0,2.812329,2
1729403439.4259775,2582,1729403439,423246464,base_link,0,1,33.6978675,73.016562,512.7001490559583,0.9273689999999999,0.0,0.0,0.0,0.9273689999999999,0.0,0.0,0.0,2.808976,2
1729403439.5262215,2583,1729403439,523240064,base_link,0,1,33.6978675,73.016562,512.7001490559583,0.9273689999999999,0.0,0.0,0.0,0.9273689999999999,0.0,0.0,0.0,2.808976,2
1729403439.6259725,2584,1729403439,623234176,base_link,0,1,33.6978676,73.016562,512.6901497223777,0.9273689999999999,0.0,0.0,0.0,0.9273689999999999,0.0,0.0,0.0,2.808976,2
1729403439.7276094,2585,1729403439,723228032,base_link,0,1,33.6978676,73.016562,512.6901497223777,0.9273689999999999,0.0,0.0,0.0,0.9273689999999999,0.0,0.0,0.0,2.808976,2
1729403439.827769,2586,1729403439,823222144,base_link,0,1,33.6978677,73.016562,512.6901503887971,0.9273689999999999,0.0,0.0,0.0,0.9273689999999999,0.0,0.0,0.0,2.808976,2
1729403439.9268773,2587,1729403439,923216256,base_link,0,1,33.6978677,73.016562,512.700150388797,0.9273689999999999,0.0,0.0,0.0,0.9273689999999999,0.0,0.0,0.0,2.808976,2
1729403440.0259807,2588,1729403440,23210368,base_link,0,1,33.6978677,73.016562,512.700150388797,0.9273689999999999,0.0,0.0,0.0,0.9273689999999999,0.0,0.0,0.0,2.808976,2
1729403440.126129,2589,1729403440,123204480,base_link,0,1,33.6978678,73.016562,512.7101510552166,0.9273689999999999,0.0,0.0,0.0,0.9273689999999999,0.0,0.0,0.0,2.808976,2
1729403440.2269917,2590,1729403440,223202176,base_link,0,1,33.6978678,73.016562,512.7301510552165,0.9273689999999999,0.0,0.0,0.0,0.9273689999999999,0.0,0.0,0.0,2.805625,2
1729403440.325796,2591,1729403440,323196288,base_link,0,1,33.6978679,73.016562,512.740151721636,0.9273689999999999,0.0,0.0,0.0,0.9273689999999999,0.0,0.0,0.0,2.805625,2
1729403440.4264286,2592,1729403440,423189120,base_link,0,1,33.6978679,73.016562,512.750151721636,0.9273689999999999,0.0,0.0,0.0,0.9273689999999999,0.0,0.0,0.0,2.805625,2
1729403440.526586,2593,1729403440,523181952,base_link,0,1,33.6978679,73.016562,512.770151721636,0.9273689999999999,0.0,0.0,0.0,0.9273689999999999,0.0,0.0,0.0,2.805625,2
1729403440.6262531,2594,1729403440,623174528,base_link,0,1,33.6978679,73.016562,512.780151721636,0.9273689999999999,0.0,0.0,0.0,0.9273689999999999,0.0,0.0,0.0,2.805625,2
1729403440.7258115,2595,1729403440,723170944,base_link,0,1,33.6978679,73.016562,512.790151721636,0.9273689999999999,0.0,0.0,0.0,0.9273689999999999,0.0,0.0,0.0,2.805625,2
1729403440.8266597,2596,1729403440,823165568,base_link,0,1,33.697868,73.0165619,512.7901519606471,0.9273689999999999,0.0,0.0,0.0,0.9273689999999999,0.0,0.0,0.0,2.805625,2
1729403440.9258273,2597,1729403440,923158656,base_link,0,1,33.697868,73.0165619,512.7901519606471,0.9273689999999999,0.0,0.0,0.0,0.9273689999999999,0.0,0.0,0.0,2.805625,2
1729403441.0276902,2598,1729403441,24153280,base_link,0,1,33.697868,73.0165618,512.7801515332387,0.9273689999999999,0.0,0.0,0.0,0.9273689999999999,0.0,0.0,0.0,2.802276,2
1729403441.1262078,2599,1729403441,123147136,base_link,0,1,33.697868,73.0165618,512.7801515332387,0.9273689999999999,0.0,0.0,0.0,0.9273689999999999,0.0,0.0,0.0,2.802276,2
1729403441.2272382,2600,1729403441,223144832,base_link,0,1,33.697868,73.0165618,512.7801515332387,0.9273689999999999,0.0,0.0,0.0,0.9273689999999999,0.0,0.0,0.0,2.802276,2
1729403441.3255138,2601,1729403441,323137920,base_link,0,1,33.697868,73.0165618,512.7901515332387,0.9273689999999999,0.0,0.0,0.0,0.9273689999999999,0.0,0.0,0.0,2.802276,2
1729403441.4261827,2602,1729403441,423131008,base_link,0,1,33.697868,73.0165618,512.7901515332387,0.9273689999999999,0.0,0.0,0.0,0.9273689999999999,0.0,0.0,0.0,2.802276,2
1729403441.5259573,2603,1729403441,523124096,base_link,0,1,33.6978681,73.0165617,512.8001517722498,0.9273689999999999,0.0,0.0,0.0,0.9273689999999999,0.0,0.0,0.0,2.802276,2
1729403441.6271362,2604,1729403441,623117696,base_link,0,1,33.6978681,73.0165617,512.8001517722498,0.9273689999999999,0.0,0.0,0.0,0.9273689999999999,0.0,0.0,0.0,2.802276,2
1729403441.7271554,2605,1729403441,723111552,base_link,0,1,33.6978681,73.0165616,512.8001513448415,0.9273689999999999,0.0,0.0,0.0,0.9273689999999999,0.0,0.0,0.0,2.802276,2
1729403441.8272579,2606,1729403441,823108224,base_link,0,1,33.6978681,73.0165616,512.8001513448415,0.9273689999999999,0.0,0.0,0.0,0.9273689999999999,0.0,0.0,0.0,2.802276,2
1729403441.9264796,2607,1729403441,923101824,base_link,0,1,33.6978682,73.0165616,512.8101520112609,0.9273689999999999,0.0,0.0,0.0,0.9273689999999999,0.0,0.0,0.0,2.802276,2
1729403442.0266776,2608,1729403442,23094912,base_link,0,1,33.6978682,73.0165616,512.8101520112609,0.9273689999999999,0.0,0.0,0.0,0.9273689999999999,0.0,0.0,0.0,2.7989290000000002,2
1729403442.1260722,2609,1729403442,123088512,base_link,0,1,33.6978682,73.0165616,512.8201520112609,0.9273689999999999,0.0,0.0,0.0,0.9273689999999999,0.0,0.0,0.0,2.7989290000000002,2
1729403442.2269557,2610,1729403442,223085952,base_link,0,1,33.6978682,73.0165616,512.8301520112609,0.9273689999999999,0.0,0.0,0.0,0.9273689999999999,0.0,0.0,0.0,2.7989290000000002,2
1729403442.3268545,2611,1729403442,323078784,base_link,0,1,33.6978682,73.0165616,512.840152011261,0.9273689999999999,0.0,0.0,0.0,0.9273689999999999,0.0,0.0,0.0,2.7989290000000002,2
1729403442.4265625,2612,1729403442,423072384,base_link,0,1,33.6978682,73.0165616,512.850152011261,0.9273689999999999,0.0,0.0,0.0,0.9273689999999999,0.0,0.0,0.0,2.7989290000000002,2
1729403442.526169,2613,1729403442,523065728,base_link,0,1,33.6978682,73.0165616,512.850152011261,0.9273689999999999,0.0,0.0,0.0,0.9273689999999999,0.0,0.0,0.0,2.7989290000000002,2
1729403442.6279304,2614,1729403442,623059840,base_link,0,1,33.6978683,73.0165616,512.8601526776806,0.9254439999999999,0.0,0.0,0.0,0.9254439999999999,0.0,0.0,0.0,2.7989290000000002,2
1729403442.726906,2615,1729403442,723053184,base_link,0,1,33.6978683,73.0165616,512.8601526776806,0.9254439999999999,0.0,0.0,0.0,0.9254439999999999,0.0,0.0,0.0,2.7989290000000002,2
1729403442.827453,2616,1729403442,823046528,base_link,0,1,33.6978683,73.0165616,512.8601526776806,0.9254439999999999,0.0,0.0,0.0,0.9254439999999999,0.0,0.0,0.0,2.7989290000000002,2
1729403442.9263332,2617,1729403442,923039872,base_link,0,1,33.6978683,73.0165616,512.8601526776806,0.9254439999999999,0.0,0.0,0.0,0.9254439999999999,0.0,0.0,0.0,2.7989290000000002,2
1729403443.02648,2618,1729403443,24033728,base_link,0,1,33.6978683,73.0165616,512.8601526776806,0.9254439999999999,0.0,0.0,0.0,0.9254439999999999,0.0,0.0,0.0,2.795584,2
1729403443.1261458,2619,1729403443,123026560,base_link,0,1,33.6978683,73.0165616,512.8601526776806,0.9254439999999999,0.0,0.0,0.0,0.9254439999999999,0.0,0.0,0.0,2.795584,2
1729403443.226626,2620,1729403443,223020416,base_link,0,1,33.6978683,73.0165616,512.8501526776806,0.9254439999999999,0.0,0.0,0.0,0.9254439999999999,0.0,0.0,0.0,2.795584,2
1729403443.3248055,2621,1729403443,323013760,base_link,0,1,33.6978684,73.0165616,512.8501533441001,0.9254439999999999,0.0,0.0,0.0,0.9254439999999999,0.0,0.0,0.0,2.795584,2
1729403443.4274676,2622,1729403443,423007616,base_link,0,1,33.6978684,73.0165616,512.8401533441001,0.9254439999999999,0.0,0.0,0.0,0.9254439999999999,0.0,0.0,0.0,2.795584,2
1729403443.5252407,2623,1729403443,523001216,base_link,0,1,33.6978684,73.0165616,512.8301533441,0.9254439999999999,0.0,0.0,0.0,0.9254439999999999,0.0,0.0,0.0,2.795584,2
1729403443.6252437,2624,1729403443,622994816,base_link,0,1,33.6978685,73.0165616,512.8301540105198,0.9254439999999999,0.0,0.0,0.0,0.9254439999999999,0.0,0.0,0.0,2.795584,2
1729403443.7278528,2625,1729403443,725988160,base_link,0,1,33.6978685,73.0165616,512.8201540105198,0.9254439999999999,0.0,0.0,0.0,0.9254439999999999,0.0,0.0,0.0,2.795584,2
1729403443.8252883,2626,1729403443,822981760,base_link,0,1,33.6978685,73.0165616,512.8101540105198,0.9273689999999999,0.0,0.0,0.0,0.9273689999999999,0.0,0.0,0.0,2.795584,2
1729403443.9255354,2627,1729403443,922975616,base_link,0,1,33.6978686,73.0165616,512.8001546769394,0.9273689999999999,0.0,0.0,0.0,0.9273689999999999,0.0,0.0,0.0,2.795584,2
1729403444.0262535,2628,1729403444,22969728,base_link,0,1,33.6978686,73.0165616,512.8001546769394,0.9273689999999999,0.0,0.0,0.0,0.9273689999999999,0.0,0.0,0.0,2.795584,2
1729403444.1271932,2629,1729403444,122964096,base_link,0,1,33.6978687,73.0165616,512.7901553433593,0.9273689999999999,0.0,0.0,0.0,0.9273689999999999,0.0,0.0,0.0,2.795584,2
1729403444.226009,2630,1729403444,222960000,base_link,0,1,33.6978687,73.0165616,512.7801553433593,0.9273689999999999,0.0,0.0,0.0,0.9273689999999999,0.0,0.0,0.0,2.795584,2
1729403444.3263786,2631,1729403444,322954112,base_link,0,1,33.6978687,73.0165616,512.7801553433593,0.9273689999999999,0.0,0.0,0.0,0.9273689999999999,0.0,0.0,0.0,2.795584,2
1729403444.4260135,2632,1729403444,422948480,base_link,0,1,33.6978687,73.0165616,512.7801553433593,0.9273689999999999,0.0,0.0,0.0,0.9273689999999999,0.0,0.0,0.0,2.7989290000000002,2
1729403444.5256503,2633,1729403444,522942592,base_link,0,1,33.6978687,73.0165616,512.7801553433593,0.9273689999999999,0.0,0.0,0.0,0.9273689999999999,0.0,0.0,0.0,2.7989290000000002,2
1729403444.6259673,2634,1729403444,622936704,base_link,0,1,33.6978688,73.0165616,512.780156009779,0.9292959999999999,0.0,0.0,0.0,0.9292959999999999,0.0,0.0,0.0,2.7989290000000002,2
1729403444.725707,2635,1729403444,722930816,base_link,0,1,33.6978688,73.0165616,512.780156009779,0.9292959999999999,0.0,0.0,0.0,0.9292959999999999,0.0,0.0,0.0,2.7989290000000002,2
1729403444.8272474,2636,1729403444,823924928,base_link,0,1,33.6978688,73.0165616,512.780156009779,0.9292959999999999,0.0,0.0,0.0,0.9292959999999999,0.0,0.0,0.0,2.7989290000000002,2
1729403444.9255915,2637,1729403444,922919040,base_link,0,1,33.6978689,73.0165616,512.7701566761989,0.9292959999999999,0.0,0.0,0.0,0.9292959999999999,0.0,0.0,0.0,2.7989290000000002,2
1729403445.0254078,2638,1729403445,22912896,base_link,0,1,33.6978689,73.0165616,512.7701566761989,0.9292959999999999,0.0,0.0,0.0,0.9292959999999999,0.0,0.0,0.0,2.802276,2
1729403445.1255765,2639,1729403445,122907008,base_link,0,1,33.6978689,73.0165616,512.7801566761989,0.9292959999999999,0.0,0.0,0.0,0.9292959999999999,0.0,0.0,0.0,2.802276,2
1729403445.2275107,2640,1729403445,223901376,base_link,0,1,33.6978689,73.0165616,512.7801566761989,0.9292959999999999,0.0,0.0,0.0,0.9292959999999999,0.0,0.0,0.0,2.802276,2
1729403445.326659,2641,1729403445,322894976,base_link,0,1,33.697869,73.0165616,512.7901573426187,0.9292959999999999,0.0,0.0,0.0,0.9292959999999999,0.0,0.0,0.0,2.802276,2
1729403445.4259434,2642,1729403445,422887552,base_link,0,1,33.697869,73.0165617,512.7901577700275,0.9292959999999999,0.0,0.0,0.0,0.9292959999999999,0.0,0.0,0.0,2.802276,2
1729403445.526392,2643,1729403445,523882432,base_link,0,1,33.697869,73.0165617,512.7901577700275,0.9292959999999999,0.0,0.0,0.0,0.9292959999999999,0.0,0.0,0.0,2.802276,2
1729403445.625863,2644,1729403445,622877056,base_link,0,1,33.697869,73.0165617,512.7901577700275,0.931225,0.0,0.0,0.0,0.931225,0.0,0.0,0.0,2.802276,2
1729403445.7252924,2645,1729403445,722869632,base_link,0,1,33.697869,73.0165616,512.7901573426187,0.931225,0.0,0.0,0.0,0.931225,0.0,0.0,0.0,2.802276,2
1729403445.8260956,2646,1729403445,822862464,base_link,0,1,33.697869,73.0165616,512.7901573426187,0.931225,0.0,0.0,0.0,0.931225,0.0,0.0,0.0,2.802276,2
1729403445.9265068,2647,1729403445,922855552,base_link,0,1,33.697869,73.0165616,512.7901573426187,0.931225,0.0,0.0,0.0,0.931225,0.0,0.0,0.0,2.802276,2
1729403446.0270545,2648,1729403446,22850176,base_link,0,1,33.697869,73.0165616,512.7801573426187,0.931225,0.0,0.0,0.0,0.931225,0.0,0.0,0.0,2.805625,2
1729403446.1264482,2649,1729403446,122843776,base_link,0,1,33.697869,73.0165616,512.7801573426187,0.931225,0.0,0.0,0.0,0.931225,0.0,0.0,0.0,2.805625,2
1729403446.2267737,2650,1729403446,222837120,base_link,0,1,33.6978689,73.0165616,512.7701566761989,0.931225,0.0,0.0,0.0,0.931225,0.0,0.0,0.0,2.805625,2
1729403446.3259006,2651,1729403446,322832000,base_link,0,1,33.6978689,73.0165616,512.7601566761989,0.931225,0.0,0.0,0.0,0.931225,0.0,0.0,0.0,2.805625,2
1729403446.4269545,2652,1729403446,423825344,base_link,0,1,33.6978689,73.0165616,512.7701566761989,0.933156,0.0,0.0,0.0,0.933156,0.0,0.0,0.0,2.808976,2
1729403446.5261352,2653,1729403446,522819712,base_link,0,1,33.6978689,73.0165616,512.7701566761989,0.933156,0.0,0.0,0.0,0.933156,0.0,0.0,0.0,2.808976,2
1729403446.6265662,2654,1729403446,622813056,base_link,0,1,33.6978689,73.0165616,512.7701566761989,0.933156,0.0,0.0,0.0,0.933156,0.0,0.0,0.0,2.812329,2
1729403446.7259712,2655,1729403446,722806400,base_link,0,1,33.6978689,73.0165616,512.7801566761989,0.933156,0.0,0.0,0.0,0.933156,0.0,0.0,0.0,2.812329,2
1729403446.8260849,2656,1729403446,822800000,base_link,0,1,33.6978689,73.0165616,512.7801566761989,0.933156,0.0,0.0,0.0,0.933156,0.0,0.0,0.0,2.812329,2
1729403446.9260867,2657,1729403446,922793344,base_link,0,1,33.6978689,73.0165616,512.7801566761989,0.933156,0.0,0.0,0.0,0.933156,0.0,0.0,0.0,2.812329,2
1729403447.0260935,2658,1729403447,22788992,base_link,0,1,33.697869,73.0165616,512.7801573426187,0.933156,0.0,0.0,0.0,0.933156,0.0,0.0,0.0,2.8156839999999996,2
1729403447.1267543,2659,1729403447,122782080,base_link,0,1,33.697869,73.0165616,512.7801573426187,0.933156,0.0,0.0,0.0,0.933156,0.0,0.0,0.0,2.8156839999999996,2
1729403447.226548,2660,1729403447,222780032,base_link,0,1,33.697869,73.0165616,512.7901573426187,0.935089,0.0,0.0,0.0,0.935089,0.0,0.0,0.0,2.8156839999999996,2
1729403447.3268385,2661,1729403447,322773632,base_link,0,1,33.697869,73.0165616,512.8001573426187,0.935089,0.0,0.0,0.0,0.935089,0.0,0.0,0.0,2.8156839999999996,2
1729403447.4265332,2662,1729403447,422767488,base_link,0,1,33.697869,73.0165616,512.8101573426187,0.935089,0.0,0.0,0.0,0.935089,0.0,0.0,0.0,2.8190410000000004,2
1729403447.5268095,2663,1729403447,522760832,base_link,0,1,33.697869,73.0165616,512.8201573426187,0.935089,0.0,0.0,0.0,0.935089,0.0,0.0,0.0,2.8190410000000004,2
1729403447.6291404,2664,1729403447,625754688,base_link,0,1,33.697869,73.0165616,512.8301573426187,0.935089,0.0,0.0,0.0,0.935089,0.0,0.0,0.0,2.8190410000000004,2
1729403447.7266998,2665,1729403447,722750080,base_link,0,1,33.697869,73.0165616,512.8401573426188,0.935089,0.0,0.0,0.0,0.935089,0.0,0.0,0.0,2.8190410000000004,2
