Time,header.seq,header.stamp.secs,header.stamp.nsecs,header.frame_id,voltage,temperature,current,charge,capacity,design_capacity,percentage,power_supply_status,power_supply_health,power_supply_technology,present,cell_voltage_0,location,serial_number
1729403412.3359053,2312,1729403412,335527221,,0.7200000286102295,0.0,-0.9300000071525574,nan,nan,nan,0.9200000166893005,2,0,0,True,0.7200000286102295,id0,
1729403412.4408522,2313,1729403412,440510369,,0.7229999899864197,0.0,-0.9300000071525574,nan,nan,nan,0.9200000166893005,2,0,0,True,0.7229999899864197,id0,
1729403412.5368404,2314,1729403412,535752888,,0.7239999771118164,0.0,-0.9200000166893005,nan,nan,nan,0.9200000166893005,2,0,0,True,0.7239999771118164,id0,
1729403412.6389537,2315,1729403412,638534406,,0.718999981880188,0.0,-0.9300000071525574,nan,nan,nan,0.9200000166893005,2,0,0,True,0.718999981880188,id0,
1729403412.738854,2316,1729403412,738500795,,0.7170000076293945,0.0,-0.9200000166893005,nan,nan,nan,0.9200000166893005,2,0,0,True,0.7170000076293945,id0,
1729403412.8408675,2317,1729403412,840504369,,0.7149999737739563,0.0,-0.9200000166893005,nan,nan,nan,0.9200000166893005,2,0,0,True,0.7149999737739563,id0,
1729403412.938869,2318,1729403412,938513388,,0.7160000205039978,0.0,-0.9200000166893005,nan,nan,nan,0.9200000166893005,2,0,0,True,0.7160000205039978,id0,
1729403413.040604,2319,1729403413,38195388,,0.722000002861023,0.0,-0.9200000166893005,nan,nan,nan,0.9200000166893005,2,0,0,True,0.722000002861023,id0,
1729403413.1417246,2320,1729403413,138962869,,0.7160000205039978,0.0,-0.9200000166893005,nan,nan,nan,0.9200000166893005,2,0,0,True,0.7160000205039978,id0,
1729403413.2413256,2321,1729403413,240621647,,0.7160000205039978,0.0,-0.9100000262260437,nan,nan,nan,0.9200000166893005,2,0,0,True,0.7160000205039978,id0,
1729403413.3412821,2322,1729403413,339066369,,0.7229999899864197,0.0,-0.9200000166893005,nan,nan,nan,0.9200000166893005,2,0,0,True,0.7229999899864197,id0,
1729403413.4382164,2323,1729403413,437661202,,0.718999981880188,0.0,-0.9200000166893005,nan,nan,nan,0.9200000166893005,2,0,0,True,0.718999981880188,id0,
1729403413.538516,2324,1729403413,537745702,,0.7239999771118164,0.0,-0.9300000071525574,nan,nan,nan,0.9200000166893005,2,0,0,True,0.7239999771118164,id0,
1729403413.6361618,2325,1729403413,635698128,,0.7170000076293945,0.0,-0.9300000071525574,nan,nan,nan,0.9200000166893005,2,0,0,True,0.7170000076293945,id0,
1729403413.7414906,2326,1729403413,740757406,,0.7179999947547913,0.0,-0.9300000071525574,nan,nan,nan,0.9200000166893005,2,0,0,True,0.7179999947547913,id0,
1729403413.840237,2327,1729403413,839080128,,0.7179999947547913,0.0,-0.9200000166893005,nan,nan,nan,0.9200000166893005,2,0,0,True,0.7179999947547913,id0,
1729403413.9400198,2328,1729403413,938932350,,0.7110000252723694,0.0,-0.9200000166893005,nan,nan,nan,0.9200000166893005,2,0,0,True,0.7110000252723694,id0,
1729403414.0414479,2329,1729403414,40749591,,0.7210000157356262,0.0,-0.9300000071525574,nan,nan,nan,0.9200000166893005,2,0,0,True,0.7210000157356262,id0,
1729403414.1411302,2330,1729403414,139181813,,0.7170000076293945,0.0,-0.9200000166893005,nan,nan,nan,0.9200000166893005,2,0,0,True,0.7170000076293945,id0,
1729403414.241688,2331,1729403414,240818109,,0.7229999899864197,0.0,-0.9200000166893005,nan,nan,nan,0.9200000166893005,2,0,0,True,0.7229999899864197,id0,
1729403414.3393285,2332,1729403414,338847479,,0.7160000205039978,0.0,-0.9200000166893005,nan,nan,nan,0.9200000166893005,2,0,0,True,0.7160000205039978,id0,
1729403414.4408202,2333,1729403414,439137072,,0.718999981880188,0.0,-0.9200000166893005,nan,nan,nan,0.9200000166893005,2,0,0,True,0.718999981880188,id0,
1729403414.5407174,2334,1729403414,539219813,,0.7210000157356262,0.0,-0.9200000166893005,nan,nan,nan,0.9200000166893005,2,0,0,True,0.7210000157356262,id0,
1729403414.6399736,2335,1729403414,638315553,,0.7239999771118164,0.0,-0.9200000166893005,nan,nan,nan,0.9200000166893005,2,0,0,True,0.7239999771118164,id0,
1729403414.7385557,2336,1729403414,737880331,,0.7229999899864197,0.0,-0.9300000071525574,nan,nan,nan,0.9200000166893005,2,0,0,True,0.7229999899864197,id0,
1729403414.83848,2337,1729403414,837910701,,0.7200000286102295,0.0,-0.9300000071525574,nan,nan,nan,0.9200000166893005,2,0,0,True,0.7200000286102295,id0,
1729403414.9386544,2338,1729403414,937971349,,0.7210000157356262,0.0,-0.9200000166893005,nan,nan,nan,0.9200000166893005,2,0,0,True,0.7210000157356262,id0,
1729403415.0406597,2339,1729403415,39760923,,0.718999981880188,0.0,-0.9200000166893005,nan,nan,nan,0.9200000166893005,2,0,0,True,0.718999981880188,id0,
1729403415.1412628,2340,1729403415,138130442,,0.7129999995231628,0.0,-0.9200000166893005,nan,nan,nan,0.9200000166893005,2,0,0,True,0.7129999995231628,id0,
1729403415.2387207,2341,1729403415,237998738,,0.7160000205039978,0.0,-0.9200000166893005,nan,nan,nan,0.9200000166893005,2,0,0,True,0.7160000205039978,id0,
1729403415.3404758,2342,1729403415,339905942,,0.7200000286102295,0.0,-0.9200000166893005,nan,nan,nan,0.9200000166893005,2,0,0,True,0.7200000286102295,id0,
1729403415.4397745,2343,1729403415,438408775,,0.7179999947547913,0.0,-0.9200000166893005,nan,nan,nan,0.9200000166893005,2,0,0,True,0.7179999947547913,id0,
1729403415.5416846,2344,1729403415,541005812,,0.7250000238418579,0.0,-0.9200000166893005,nan,nan,nan,0.9200000166893005,2,0,0,True,0.7250000238418579,id0,
1729403415.6385396,2345,1729403415,637954923,,0.7179999947547913,0.0,-0.9200000166893005,nan,nan,nan,0.9200000166893005,2,0,0,True,0.7179999947547913,id0,
1729403415.737612,2346,1729403415,736218775,,0.7160000205039978,0.0,-0.9200000166893005,nan,nan,nan,0.9200000166893005,2,0,0,True,0.7160000205039978,id0,
1729403415.8399274,2347,1729403415,838337293,,0.7179999947547913,0.0,-0.9200000166893005,nan,nan,nan,0.9200000166893005,2,0,0,True,0.7179999947547913,id0,
1729403415.93952,2348,1729403415,938684812,,0.7229999899864197,0.0,-0.9200000166893005,nan,nan,nan,0.9200000166893005,2,0,0,True,0.7229999899864197,id0,
1729403416.0390615,2349,1729403416,38126682,,0.718999981880188,0.0,-0.9200000166893005,nan,nan,nan,0.9200000166893005,2,0,0,True,0.718999981880188,id0,
1729403416.1380303,2350,1729403416,136483552,,0.7170000076293945,0.0,-0.9300000071525574,nan,nan,nan,0.9200000166893005,2,0,0,True,0.7170000076293945,id0,
1729403416.2380946,2351,1729403416,236524589,,0.7250000238418579,0.0,-0.9200000166893005,nan,nan,nan,0.9200000166893005,2,0,0,True,0.7250000238418579,id0,
1729403416.3387287,2352,1729403416,338055571,,0.7239999771118164,0.0,-0.9200000166893005,nan,nan,nan,0.9200000166893005,2,0,0,True,0.7239999771118164,id0,
1729403416.4390457,2353,1729403416,438084960,,0.7210000157356262,0.0,-0.9200000166893005,nan,nan,nan,0.9200000166893005,2,0,0,True,0.7210000157356262,id0,
1729403416.5380805,2354,1729403416,536433219,,0.718999981880188,0.0,-0.9200000166893005,nan,nan,nan,0.9200000166893005,2,0,0,True,0.718999981880188,id0,
1729403416.6403008,2355,1729403416,638695237,,0.7229999899864197,0.0,-0.9200000166893005,nan,nan,nan,0.9200000166893005,2,0,0,True,0.7229999899864197,id0,
1729403416.7388253,2356,1729403416,738150404,,0.7139999866485596,0.0,-0.9200000166893005,nan,nan,nan,0.9200000166893005,2,0,0,True,0.7139999866485596,id0,
1729403416.8399217,2357,1729403416,838632737,,0.7170000076293945,0.0,-0.9200000166893005,nan,nan,nan,0.9200000166893005,2,0,0,True,0.7170000076293945,id0,
1729403416.9388072,2358,1729403416,938180848,,0.7129999995231628,0.0,-0.9200000166893005,nan,nan,nan,0.9200000166893005,2,0,0,True,0.7129999995231628,id0,
1729403417.040249,2359,1729403417,38692885,,0.7239999771118164,0.0,-0.9200000166893005,nan,nan,nan,0.9200000166893005,2,0,0,True,0.7239999771118164,id0,
1729403417.1401513,2360,1729403417,138694015,,0.7170000076293945,0.0,-0.9300000071525574,nan,nan,nan,0.9200000166893005,2,0,0,True,0.7170000076293945,id0,
1729403417.240334,2361,1729403417,238523015,,0.7260000109672546,0.0,-0.9300000071525574,nan,nan,nan,0.9200000166893005,2,0,0,True,0.7260000109672546,id0,
1729403417.343558,2362,1729403417,343182200,,0.7139999866485596,0.0,-0.9200000166893005,nan,nan,nan,0.9200000166893005,2,0,0,True,0.7139999866485596,id0,
1729403417.4416027,2363,1729403417,441208015,,0.7170000076293945,0.0,-0.9300000071525574,nan,nan,nan,0.9200000166893005,2,0,0,True,0.7170000076293945,id0,
1729403417.5417082,2364,1729403417,541209070,,0.7239999771118164,0.0,-0.9300000071525574,nan,nan,nan,0.9200000166893005,2,0,0,True,0.7239999771118164,id0,
1729403417.6417294,2365,1729403417,641224551,,0.7229999899864197,0.0,-0.9300000071525574,nan,nan,nan,0.9200000166893005,2,0,0,True,0.7229999899864197,id0,
1729403417.743476,2366,1729403417,743186959,,0.722000002861023,0.0,-0.9300000071525574,nan,nan,nan,0.9200000166893005,2,0,0,True,0.722000002861023,id0,
1729403417.8415542,2367,1729403417,841196311,,0.7059999704360962,0.0,-0.9200000166893005,nan,nan,nan,0.9200000166893005,2,0,0,True,0.7059999704360962,id0,
1729403417.9435666,2368,1729403417,943214829,,0.7110000252723694,0.0,-0.9200000166893005,nan,nan,nan,0.9200000166893005,2,0,0,True,0.7110000252723694,id0,
1729403418.0428104,2369,1729403418,41855199,,0.7149999737739563,0.0,-0.9200000166893005,nan,nan,nan,0.9200000166893005,2,0,0,True,0.7149999737739563,id0,
1729403418.141893,2370,1729403418,141348144,,0.722000002861023,0.0,-0.9200000166893005,nan,nan,nan,0.9200000166893005,2,0,0,True,0.722000002861023,id0,
1729403418.2441573,2371,1729403418,241674847,,0.718999981880188,0.0,-0.9100000262260437,nan,nan,nan,0.9200000166893005,2,0,0,True,0.718999981880188,id0,
1729403418.3408868,2372,1729403418,340361292,,0.718999981880188,0.0,-0.9200000166893005,nan,nan,nan,0.9200000166893005,2,0,0,True,0.718999981880188,id0,
1729403418.4442816,2373,1729403418,443448458,,0.7200000286102295,0.0,-0.9200000166893005,nan,nan,nan,0.9200000166893005,2,0,0,True,0.7200000286102295,id0,
1729403418.5421555,2374,1729403418,541469273,,0.7170000076293945,0.0,-0.9200000166893005,nan,nan,nan,0.9200000166893005,2,0,0,True,0.7170000076293945,id0,
1729403418.6410277,2375,1729403418,640408273,,0.718999981880188,0.0,-0.9200000166893005,nan,nan,nan,0.9200000166893005,2,0,0,True,0.718999981880188,id0,
1729403418.7439601,2376,1729403418,743417699,,0.7229999899864197,0.0,-0.9300000071525574,nan,nan,nan,0.9200000166893005,2,0,0,True,0.7229999899864197,id0,
1729403418.8432367,2377,1729403418,841780291,,0.7170000076293945,0.0,-0.9200000166893005,nan,nan,nan,0.9200000166893005,2,0,0,True,0.7170000076293945,id0,
1729403418.9423943,2378,1729403418,940969014,,0.7149999737739563,0.0,-0.9200000166893005,nan,nan,nan,0.9200000166893005,2,0,0,True,0.7149999737739563,id0,
1729403419.0423033,2379,1729403419,41523995,,0.722000002861023,0.0,-0.9200000166893005,nan,nan,nan,0.9200000166893005,2,0,0,True,0.722000002861023,id0,
1729403419.1433506,2380,1729403419,142465310,,0.7110000252723694,0.0,-0.9100000262260437,nan,nan,nan,0.9200000166893005,2,0,0,True,0.7110000252723694,id0,
1729403419.2420259,2381,1729403419,241489736,,0.7129999995231628,0.0,-0.9200000166893005,nan,nan,nan,0.9200000166893005,2,0,0,True,0.7129999995231628,id0,
1729403419.3409517,2382,1729403419,340468013,,0.7229999899864197,0.0,-0.9200000166893005,nan,nan,nan,0.9200000166893005,2,0,0,True,0.7229999899864197,id0,
1729403419.4421012,2383,1729403419,441013661,,0.7200000286102295,0.0,-0.9200000166893005,nan,nan,nan,0.9200000166893005,2,0,0,True,0.7200000286102295,id0,
1729403419.5423698,2384,1729403419,541598661,,0.718999981880188,0.0,-0.9200000166893005,nan,nan,nan,0.9200000166893005,2,0,0,True,0.718999981880188,id0,
1729403419.6411035,2385,1729403419,640540680,,0.722000002861023,0.0,-0.9200000166893005,nan,nan,nan,0.9200000166893005,2,0,0,True,0.722000002861023,id0,
1729403419.7411227,2386,1729403419,740569661,,0.7239999771118164,0.0,-0.9200000166893005,nan,nan,nan,0.9200000166893005,2,0,0,True,0.7239999771118164,id0,
1729403419.8439288,2387,1729403419,842572532,,0.722000002861023,0.0,-0.9200000166893005,nan,nan,nan,0.9200000166893005,2,0,0,True,0.722000002861023,id0,
1729403419.9416595,2388,1729403419,940824976,,0.7210000157356262,0.0,-0.9200000166893005,nan,nan,nan,0.9200000166893005,2,0,0,True,0.7210000157356262,id0,
1729403420.0410516,2389,1729403420,40571550,,0.7179999947547913,0.0,-0.9200000166893005,nan,nan,nan,0.9200000166893005,2,0,0,True,0.7179999947547913,id0,
1729403420.1410506,2390,1729403420,140582568,,0.7139999866485596,0.0,-0.9300000071525574,nan,nan,nan,0.9200000166893005,2,0,0,True,0.7139999866485596,id0,
1729403420.2415156,2391,1729403420,240763754,,0.7170000076293945,0.0,-0.9300000071525574,nan,nan,nan,0.9200000166893005,2,0,0,True,0.7170000076293945,id0,
1729403420.341528,2392,1729403420,340825124,,0.7129999995231628,0.0,-0.9200000166893005,nan,nan,nan,0.9200000166893005,2,0,0,True,0.7129999995231628,id0,
1729403420.442908,2393,1729403420,442561290,,0.7160000205039978,0.0,-0.9200000166893005,nan,nan,nan,0.9200000166893005,2,0,0,True,0.7160000205039978,id0,
1729403420.5385506,2394,1729403420,537806124,,0.7170000076293945,0.0,-0.9200000166893005,nan,nan,nan,0.9200000166893005,2,0,0,True,0.7170000076293945,id0,
1729403420.6440187,2395,1729403420,643638753,,0.718999981880188,0.0,-0.9200000166893005,nan,nan,nan,0.9200000166893005,2,0,0,True,0.718999981880188,id0,
1729403420.747307,2396,1729403420,746671235,,0.7149999737739563,0.0,-0.9200000166893005,nan,nan,nan,0.9200000166893005,2,0,0,True,0.722000002861023,id0,
1729403420.841472,2397,1729403420,840722216,,0.722000002861023,0.0,-0.9200000166893005,nan,nan,nan,0.9200000166893005,2,0,0,True,0.722000002861023,id0,
1729403420.9425786,2398,1729403420,941002272,,0.7229999899864197,0.0,-0.9200000166893005,nan,nan,nan,0.9200000166893005,2,0,0,True,0.7229999899864197,id0,
1729403421.0424576,2399,1729403421,41130123,,0.7210000157356262,0.0,-0.9200000166893005,nan,nan,nan,0.9200000166893005,2,0,0,True,0.7210000157356262,id0,
1729403421.1413207,2400,1729403421,140757049,,0.7170000076293945,0.0,-0.9200000166893005,nan,nan,nan,0.9200000166893005,2,0,0,True,0.7170000076293945,id0,
1729403421.2425494,2401,1729403421,241185438,,0.7139999866485596,0.0,-0.9100000262260437,nan,nan,nan,0.9200000166893005,2,0,0,True,0.7139999866485596,id0,
1729403421.3426285,2402,1729403421,341176679,,0.7229999899864197,0.0,-0.9300000071525574,nan,nan,nan,0.9200000166893005,2,0,0,True,0.7229999899864197,id0,
1729403421.4433458,2403,1729403421,442806734,,0.7210000157356262,0.0,-0.9200000166893005,nan,nan,nan,0.9200000166893005,2,0,0,True,0.7210000157356262,id0,
1729403421.5413625,2404,1729403421,540837994,,0.7149999737739563,0.0,-0.9200000166893005,nan,nan,nan,0.9200000166893005,2,0,0,True,0.7149999737739563,id0,
1729403421.642748,2405,1729403421,641341679,,0.7210000157356262,0.0,-0.9300000071525574,nan,nan,nan,0.9200000166893005,2,0,0,True,0.7210000157356262,id0,
1729403421.742657,2406,1729403421,741341864,,0.7160000205039978,0.0,-0.9200000166893005,nan,nan,nan,0.9200000166893005,2,0,0,True,0.7160000205039978,id0,
1729403421.8417315,2407,1729403421,840936993,,0.7179999947547913,0.0,-0.9200000166893005,nan,nan,nan,0.9200000166893005,2,0,0,True,0.7179999947547913,id0,
1729403421.9414651,2408,1729403421,940882327,,0.7160000205039978,0.0,-0.9200000166893005,nan,nan,nan,0.9200000166893005,2,0,0,True,0.7160000205039978,id0,
1729403422.043064,2409,1729403422,41311864,,0.7170000076293945,0.0,-0.9200000166893005,nan,nan,nan,0.9200000166893005,2,0,0,True,0.7170000076293945,id0,
1729403422.142824,2410,1729403422,141370197,,0.7179999947547913,0.0,-0.9200000166893005,nan,nan,nan,0.9200000166893005,2,0,0,True,0.7179999947547913,id0,
1729403422.241441,2411,1729403422,240919512,,0.7210000157356262,0.0,-0.9200000166893005,nan,nan,nan,0.9200000166893005,2,0,0,True,0.7210000157356262,id0,
1729403422.338472,2412,1729403422,337932234,,0.7200000286102295,0.0,-0.9200000166893005,nan,nan,nan,0.9200000166893005,2,0,0,True,0.7200000286102295,id0,
1729403422.4428432,2413,1729403422,441375289,,0.7210000157356262,0.0,-0.9200000166893005,nan,nan,nan,0.9200000166893005,2,0,0,True,0.7210000157356262,id0,
1729403422.5435984,2414,1729403422,542952271,,0.7139999866485596,0.0,-0.9200000166893005,nan,nan,nan,0.9200000166893005,2,0,0,True,0.7139999866485596,id0,
1729403422.6435506,2415,1729403422,642972789,,0.7160000205039978,0.0,-0.9200000166893005,nan,nan,nan,0.9200000166893005,2,0,0,True,0.7160000205039978,id0,
1729403422.7435715,2416,1729403422,742989882,,0.7239999771118164,0.0,-0.9300000071525574,nan,nan,nan,0.9200000166893005,2,0,0,True,0.7239999771118164,id0,
1729403422.8429143,2417,1729403422,841260011,,0.7229999899864197,0.0,-0.9200000166893005,nan,nan,nan,0.9200000166893005,2,0,0,True,0.7229999899864197,id0,
1729403422.9435444,2418,1729403422,943011752,,0.722000002861023,0.0,-0.9200000166893005,nan,nan,nan,0.9200000166893005,2,0,0,True,0.722000002861023,id0,
1729403423.0406818,2419,1729403423,40028141,,0.7229999899864197,0.0,-0.9200000166893005,nan,nan,nan,0.9200000166893005,2,0,0,True,0.7229999899864197,id0,
1729403423.1436293,2420,1729403423,143031419,,0.7229999899864197,0.0,-0.9200000166893005,nan,nan,nan,0.9200000166893005,2,0,0,True,0.7229999899864197,id0,
1729403423.2420104,2421,1729403423,241126604,,0.718999981880188,0.0,-0.9200000166893005,nan,nan,nan,0.9200000166893005,2,0,0,True,0.718999981880188,id0,
1729403423.3433478,2422,1729403423,341394141,,0.7179999947547913,0.0,-0.9200000166893005,nan,nan,nan,0.9200000166893005,2,0,0,True,0.7179999947547913,id0,
1729403423.4428406,2423,1729403423,441461733,,0.718999981880188,0.0,-0.9200000166893005,nan,nan,nan,0.9200000166893005,2,0,0,True,0.718999981880188,id0,
1729403423.543813,2424,1729403423,543099085,,0.7170000076293945,0.0,-0.9200000166893005,nan,nan,nan,0.9200000166893005,2,0,0,True,0.7170000076293945,id0,
1729403423.6431403,2425,1729403423,641552826,,0.722000002861023,0.0,-0.9300000071525574,nan,nan,nan,0.9200000166893005,2,0,0,True,0.722000002861023,id0,
1729403423.7429476,2426,1729403423,741402770,,0.7229999899864197,0.0,-0.9200000166893005,nan,nan,nan,0.9200000166893005,2,0,0,True,0.7229999899864197,id0,
1729403423.8428621,2427,1729403423,841544900,,0.7160000205039978,0.0,-0.9200000166893005,nan,nan,nan,0.9200000166893005,2,0,0,True,0.7160000205039978,id0,
1729403423.9416583,2428,1729403423,941149622,,0.7160000205039978,0.0,-0.9200000166893005,nan,nan,nan,0.9200000166893005,2,0,0,True,0.7160000205039978,id0,
1729403424.0418882,2429,1729403424,41208399,,0.718999981880188,0.0,-0.9200000166893005,nan,nan,nan,0.9200000166893005,2,0,0,True,0.718999981880188,id0,
1729403424.1400106,2430,1729403424,138402492,,0.722000002861023,0.0,-0.9200000166893005,nan,nan,nan,0.9200000166893005,2,0,0,True,0.722000002861023,id0,
1729403424.242015,2431,1729403424,241179473,,0.7149999737739563,0.0,-0.9200000166893005,nan,nan,nan,0.9200000166893005,2,0,0,True,0.7149999737739563,id0,
1729403424.341913,2432,1729403424,341208381,,0.7250000238418579,0.0,-0.9200000166893005,nan,nan,nan,0.9200000166893005,2,0,0,True,0.7250000238418579,id0,
1729403424.4408886,2433,1729403424,440226084,,0.7200000286102295,0.0,-0.9200000166893005,nan,nan,nan,0.9200000166893005,2,0,0,True,0.7200000286102295,id0,
1729403424.542489,2434,1729403424,540870436,,0.7160000205039978,0.0,-0.9200000166893005,nan,nan,nan,0.9200000166893005,2,0,0,True,0.7160000205039978,id0,
1729403424.6417923,2435,1729403424,641254140,,0.718999981880188,0.0,-0.9200000166893005,nan,nan,nan,0.9200000166893005,2,0,0,True,0.718999981880188,id0,
1729403424.7424202,2436,1729403424,740737362,,0.7200000286102295,0.0,-0.9200000166893005,nan,nan,nan,0.9200000166893005,2,0,0,True,0.7200000286102295,id0,
1729403424.8390815,2437,1729403424,838341843,,0.7210000157356262,0.0,-0.9200000166893005,nan,nan,nan,0.9200000166893005,2,0,0,True,0.7210000157356262,id0,
1729403424.9422877,2438,1729403424,941377251,,0.7110000252723694,0.0,-0.9200000166893005,nan,nan,nan,0.9200000166893005,2,0,0,True,0.7110000252723694,id0,
1729403425.0414424,2439,1729403425,40420991,,0.7229999899864197,0.0,-0.9200000166893005,nan,nan,nan,0.9200000166893005,2,0,0,True,0.7229999899864197,id0,
1729403425.1441257,2440,1729403425,143341917,,0.7200000286102295,0.0,-0.9200000166893005,nan,nan,nan,0.9200000166893005,2,0,0,True,0.7200000286102295,id0,
1729403425.240898,2441,1729403425,240306991,,0.722000002861023,0.0,-0.9200000166893005,nan,nan,nan,0.9200000166893005,2,0,0,True,0.722000002861023,id0,
1729403425.3426688,2442,1729403425,341682695,,0.7250000238418579,0.0,-0.9300000071525574,nan,nan,nan,0.9200000166893005,2,0,0,True,0.7250000238418579,id0,
1729403425.4420238,2443,1729403425,440853973,,0.718999981880188,0.0,-0.9200000166893005,nan,nan,nan,0.9200000166893005,2,0,0,True,0.718999981880188,id0,
1729403425.5410235,2444,1729403425,540351399,,0.7160000205039978,0.0,-0.9200000166893005,nan,nan,nan,0.9200000166893005,2,0,0,True,0.7160000205039978,id0,
1729403425.6436331,2445,1729403425,641679436,,0.7260000109672546,0.0,-0.9200000166893005,nan,nan,nan,0.9200000166893005,2,0,0,True,0.7260000109672546,id0,
1729403425.7429605,2446,1729403425,742406676,,0.7229999899864197,0.0,-0.9200000166893005,nan,nan,nan,0.9200000166893005,2,0,0,True,0.7229999899864197,id0,
1729403425.8435287,2447,1729403425,842439213,,0.722000002861023,0.0,-0.9200000166893005,nan,nan,nan,0.9200000166893005,2,0,0,True,0.722000002861023,id0,
1729403425.938984,2448,1729403425,937735121,,0.7149999737739563,0.0,-0.9200000166893005,nan,nan,nan,0.9200000166893005,2,0,0,True,0.7149999737739563,id0,
1729403426.0424109,2449,1729403426,41530324,,0.7239999771118164,0.0,-0.9300000071525574,nan,nan,nan,0.9200000166893005,2,0,0,True,0.7239999771118164,id0,
1729403426.144097,2450,1729403426,143505861,,0.7129999995231628,0.0,-0.9200000166893005,nan,nan,nan,0.9200000166893005,2,0,0,True,0.7129999995231628,id0,
1729403426.241861,2451,1729403426,240904509,,0.7160000205039978,0.0,-0.9100000262260437,nan,nan,nan,0.9200000166893005,2,0,0,True,0.7160000205039978,id0,
1729403426.343003,2452,1729403426,342483139,,0.7210000157356262,0.0,-0.9200000166893005,nan,nan,nan,0.9200000166893005,2,0,0,True,0.7210000157356262,id0,
1729403426.4412823,2453,1729403426,440576157,,0.722000002861023,0.0,-0.9200000166893005,nan,nan,nan,0.9200000166893005,2,0,0,True,0.722000002861023,id0,
1729403426.5410779,2454,1729403426,540522935,,0.7260000109672546,0.0,-0.9200000166893005,nan,nan,nan,0.9200000166893005,2,0,0,True,0.7260000109672546,id0,
1729403426.6430674,2455,1729403426,642527231,,0.7160000205039978,0.0,-0.9200000166893005,nan,nan,nan,0.9200000166893005,2,0,0,True,0.7160000205039978,id0,
1729403426.7430725,2456,1729403426,742535102,,0.7229999899864197,0.0,-0.9200000166893005,nan,nan,nan,0.9200000166893005,2,0,0,True,0.7229999899864197,id0,
1729403426.8430924,2457,1729403426,842560101,,0.7160000205039978,0.0,-0.9100000262260437,nan,nan,nan,0.9200000166893005,2,0,0,True,0.7160000205039978,id0,
1729403426.9444325,2458,1729403426,943637176,,0.722000002861023,0.0,-0.9200000166893005,nan,nan,nan,0.9200000166893005,2,0,0,True,0.722000002861023,id0,
1729403427.0414553,2459,1729403427,40658898,,0.722000002861023,0.0,-0.9200000166893005,nan,nan,nan,0.9200000166893005,2,0,0,True,0.722000002861023,id0,
1729403427.1430776,2460,1729403427,141144194,,0.7149999737739563,0.0,-0.9200000166893005,nan,nan,nan,0.9200000166893005,2,0,0,True,0.7149999737739563,id0,
1729403427.2412782,2461,1729403427,240615101,,0.722000002861023,0.0,-0.9300000071525574,nan,nan,nan,0.9200000166893005,2,0,0,True,0.722000002861023,id0,
1729403427.3433657,2462,1729403427,342676009,,0.7160000205039978,0.0,-0.9200000166893005,nan,nan,nan,0.9200000166893005,2,0,0,True,0.7160000205039978,id0,
1729403427.4413228,2463,1729403427,440650453,,0.7269999980926514,0.0,-0.9200000166893005,nan,nan,nan,0.9200000166893005,2,0,0,True,0.7269999980926514,id0,
1729403427.5415492,2464,1729403427,540733138,,0.7149999737739563,0.0,-0.9200000166893005,nan,nan,nan,0.9200000166893005,2,0,0,True,0.7149999737739563,id0,
1729403427.6431782,2465,1729403427,642665564,,0.7229999899864197,0.0,-0.9200000166893005,nan,nan,nan,0.9200000166893005,2,0,0,True,0.7229999899864197,id0,
1729403427.7412655,2466,1729403427,740699971,,0.718999981880188,0.0,-0.9200000166893005,nan,nan,nan,0.9200000166893005,2,0,0,True,0.718999981880188,id0,
1729403427.8428695,2467,1729403427,841153656,,0.722000002861023,0.0,-0.9300000071525574,nan,nan,nan,0.9200000166893005,2,0,0,True,0.722000002861023,id0,
1729403427.9427474,2468,1729403427,941088119,,0.7139999866485596,0.0,-0.9200000166893005,nan,nan,nan,0.9200000166893005,2,0,0,True,0.7139999866485596,id0,
1729403428.0416992,2469,1729403428,40799138,,0.7210000157356262,0.0,-0.9200000166893005,nan,nan,nan,0.9200000166893005,2,0,0,True,0.7210000157356262,id0,
1729403428.1425462,2470,1729403428,141133841,,0.7239999771118164,0.0,-0.9300000071525574,nan,nan,nan,0.9200000166893005,2,0,0,True,0.7239999771118164,id0,
1729403428.2414632,2471,1729403428,240762619,,0.7160000205039978,0.0,-0.9200000166893005,nan,nan,nan,0.9200000166893005,2,0,0,True,0.7160000205039978,id0,
1729403428.3433287,2472,1729403428,342739675,,0.722000002861023,0.0,-0.9200000166893005,nan,nan,nan,0.9200000166893005,2,0,0,True,0.722000002861023,id0,
1729403428.4433308,2473,1729403428,442774101,,0.7229999899864197,0.0,-0.9200000166893005,nan,nan,nan,0.9200000166893005,2,0,0,True,0.7229999899864197,id0,
1729403428.5383153,2474,1729403428,537783952,,0.7289999723434448,0.0,-0.9300000071525574,nan,nan,nan,0.9200000166893005,2,0,0,True,0.7289999723434448,id0,
1729403428.6403751,2475,1729403428,639820193,,0.7200000286102295,0.0,-0.9200000166893005,nan,nan,nan,0.9200000166893005,2,0,0,True,0.7200000286102295,id0,
1729403428.743402,2476,1729403428,742826008,,0.7200000286102295,0.0,-0.9200000166893005,nan,nan,nan,0.9200000166893005,2,0,0,True,0.7200000286102295,id0,
1729403428.8413725,2477,1729403428,840831137,,0.7160000205039978,0.0,-0.9200000166893005,nan,nan,nan,0.9200000166893005,2,0,0,True,0.7160000205039978,id0,
1729403428.9433506,2478,1729403428,942833008,,0.7250000238418579,0.0,-0.9300000071525574,nan,nan,nan,0.9200000166893005,2,0,0,True,0.7250000238418579,id0,
1729403429.0433643,2479,1729403429,42850600,,0.7260000109672546,0.0,-0.9200000166893005,nan,nan,nan,0.9200000166893005,2,0,0,True,0.7260000109672546,id0,
1729403429.1396549,2480,1729403429,138268359,,0.7099999785423279,0.0,-0.9200000166893005,nan,nan,nan,0.9200000166893005,2,0,0,True,0.7099999785423279,id0,
1729403429.2419572,2481,1729403429,240267693,,0.7149999737739563,0.0,-0.9200000166893005,nan,nan,nan,0.9200000166893005,2,0,0,True,0.7149999737739563,id0,
1729403429.3434522,2482,1729403429,342910267,,0.7170000076293945,0.0,-0.9200000166893005,nan,nan,nan,0.9200000166893005,2,0,0,True,0.7170000076293945,id0,
1729403429.4435856,2483,1729403429,442911396,,0.722000002861023,0.0,-0.9200000166893005,nan,nan,nan,0.9200000166893005,2,0,0,True,0.722000002861023,id0,
1729403429.5434875,2484,1729403429,542945600,,0.7200000286102295,0.0,-0.9200000166893005,nan,nan,nan,0.9200000166893005,2,0,0,True,0.7200000286102295,id0,
1729403429.6404986,2485,1729403429,639950766,,0.718999981880188,0.0,-0.9200000166893005,nan,nan,nan,0.9200000166893005,2,0,0,True,0.718999981880188,id0,
1729403429.7426383,2486,1729403429,740357655,,0.722000002861023,0.0,-0.9200000166893005,nan,nan,nan,0.9200000166893005,2,0,0,True,0.722000002861023,id0,
1729403429.842206,2487,1729403429,840310507,,0.7149999737739563,0.0,-0.9200000166893005,nan,nan,nan,0.9200000166893005,2,0,0,True,0.7149999737739563,id0,
1729403429.9408693,2488,1729403429,939976748,,0.718999981880188,0.0,-0.9200000166893005,nan,nan,nan,0.9200000166893005,2,0,0,True,0.718999981880188,id0,
1729403430.0406373,2489,1729403430,40008303,,0.7229999899864197,0.0,-0.9200000166893005,nan,nan,nan,0.9200000166893005,2,0,0,True,0.7229999899864197,id0,
1729403430.1429226,2490,1729403430,142074525,,0.7129999995231628,0.0,-0.9200000166893005,nan,nan,nan,0.9200000166893005,2,0,0,True,0.7129999995231628,id0,
1729403430.242467,2491,1729403430,240422488,,0.7239999771118164,0.0,-0.9200000166893005,nan,nan,nan,0.9200000166893005,2,0,0,True,0.7239999771118164,id0,
1729403430.3408194,2492,1729403430,340139655,,0.7160000205039978,0.0,-0.9200000166893005,nan,nan,nan,0.9200000166893005,2,0,0,True,0.7160000205039978,id0,
1729403430.4415865,2493,1729403430,440487840,,0.7319999933242798,0.0,-0.9200000166893005,nan,nan,nan,0.9200000166893005,2,0,0,True,0.7319999933242798,id0,
1729403430.5426316,2494,1729403430,542057118,,0.7210000157356262,0.0,-0.9200000166893005,nan,nan,nan,0.9200000166893005,2,0,0,True,0.7210000157356262,id0,
1729403430.640942,2495,1729403430,640175451,,0.7210000157356262,0.0,-0.9200000166893005,nan,nan,nan,0.9200000166893005,2,0,0,True,0.7210000157356262,id0,
1729403430.7436876,2496,1729403430,743119895,,0.7179999947547913,0.0,-0.9300000071525574,nan,nan,nan,0.9200000166893005,2,0,0,True,0.7179999947547913,id0,
1729403430.8432045,2497,1729403430,841518118,,0.7200000286102295,0.0,-0.9200000166893005,nan,nan,nan,0.9200000166893005,2,0,0,True,0.7200000286102295,id0,
1729403430.9421785,2498,1729403430,940594840,,0.7239999771118164,0.0,-0.9300000071525574,nan,nan,nan,0.9200000166893005,2,0,0,True,0.7239999771118164,id0,
1729403431.0408654,2499,1729403431,40176840,,0.7210000157356262,0.0,-0.9200000166893005,nan,nan,nan,0.9200000166893005,2,0,0,True,0.7210000157356262,id0,
1729403431.1421776,2500,1729403431,140541988,,0.7170000076293945,0.0,-0.9200000166893005,nan,nan,nan,0.9200000166893005,2,0,0,True,0.7170000076293945,id0,
1729403431.2407207,2501,1729403431,240186506,,0.7160000205039978,0.0,-0.9200000166893005,nan,nan,nan,0.9200000166893005,2,0,0,True,0.7160000205039978,id0,
1729403431.3371615,2502,1729403431,335757803,,0.7149999737739563,0.0,-0.9300000071525574,nan,nan,nan,0.9200000166893005,2,0,0,True,0.7149999737739563,id0,
1729403431.4428747,2503,1729403431,442206895,,0.7149999737739563,0.0,-0.9200000166893005,nan,nan,nan,0.9200000166893005,2,0,0,True,0.7149999737739563,id0,
1729403431.5422423,2504,1729403431,540769191,,0.7139999866485596,0.0,-0.9200000166893005,nan,nan,nan,0.9200000166893005,2,0,0,True,0.7139999866485596,id0,
1729403431.6438687,2505,1729403431,643215747,,0.7250000238418579,0.0,-0.9300000071525574,nan,nan,nan,0.9200000166893005,2,0,0,True,0.7250000238418579,id0,
1729403431.7421994,2506,1729403431,740747395,,0.7210000157356262,0.0,-0.9200000166893005,nan,nan,nan,0.9200000166893005,2,0,0,True,0.7210000157356262,id0,
1729403431.8409436,2507,1729403431,840263117,,0.7229999899864197,0.0,-0.9200000166893005,nan,nan,nan,0.9200000166893005,2,0,0,True,0.7229999899864197,id0,
1729403431.9421215,2508,1729403431,940680487,,0.718999981880188,0.0,-0.9200000166893005,nan,nan,nan,0.9200000166893005,2,0,0,True,0.718999981880188,id0,
1729403432.0429611,2509,1729403432,42287598,,0.7200000286102295,0.0,-0.9200000166893005,nan,nan,nan,0.9200000166893005,2,0,0,True,0.7200000286102295,id0,
1729403432.140877,2510,1729403432,140323654,,0.7200000286102295,0.0,-0.9200000166893005,nan,nan,nan,0.9200000166893005,2,0,0,True,0.7200000286102295,id0,
1729403432.2418454,2511,1729403432,240877765,,0.718999981880188,0.0,-0.9200000166893005,nan,nan,nan,0.9200000166893005,2,0,0,True,0.718999981880188,id0,
1729403432.3419147,2512,1729403432,340774617,,0.718999981880188,0.0,-0.9200000166893005,nan,nan,nan,0.9200000166893005,2,0,0,True,0.718999981880188,id0,
1729403432.4428935,2513,1729403432,442340209,,0.718999981880188,0.0,-0.9200000166893005,nan,nan,nan,0.9200000166893005,2,0,0,True,0.718999981880188,id0,
1729403432.5412292,2514,1729403432,540437302,,0.718999981880188,0.0,-0.9200000166893005,nan,nan,nan,0.9200000166893005,2,0,0,True,0.718999981880188,id0,
1729403432.640999,2515,1729403432,640430209,,0.722000002861023,0.0,-0.9200000166893005,nan,nan,nan,0.9200000166893005,2,0,0,True,0.722000002861023,id0,
1729403432.7409294,2516,1729403432,740383209,,0.7160000205039978,0.0,-0.9200000166893005,nan,nan,nan,0.9200000166893005,2,0,0,True,0.7160000205039978,id0,
1729403432.8411992,2517,1729403432,840483320,,0.7229999899864197,0.0,-0.9200000166893005,nan,nan,nan,0.9200000166893005,2,0,0,True,0.7229999899864197,id0,
1729403432.9409664,2518,1729403432,940429302,,0.7139999866485596,0.0,-0.9200000166893005,nan,nan,nan,0.9200000166893005,2,0,0,True,0.7139999866485596,id0,
1729403433.0429976,2519,1729403433,42442172,,0.7279999852180481,0.0,-0.9200000166893005,nan,nan,nan,0.9200000166893005,2,0,0,True,0.7279999852180481,id0,
1729403433.1430159,2520,1729403433,142458838,,0.7170000076293945,0.0,-0.9200000166893005,nan,nan,nan,0.9200000166893005,2,0,0,True,0.7170000076293945,id0,
1729403433.2411768,2521,1729403433,240474375,,0.718999981880188,0.0,-0.9300000071525574,nan,nan,nan,0.9200000166893005,2,0,0,True,0.718999981880188,id0,
1729403433.342144,2522,1729403433,340894505,,0.7239999771118164,0.0,-0.9300000071525574,nan,nan,nan,0.9200000166893005,2,0,0,True,0.7239999771118164,id0,
1729403433.4431965,2523,1729403433,442469968,,0.7260000109672546,0.0,-0.9200000166893005,nan,nan,nan,0.9200000166893005,2,0,0,True,0.7260000109672546,id0,
1729403433.5428405,2524,1729403433,540850209,,0.718999981880188,0.0,-0.9300000071525574,nan,nan,nan,0.9200000166893005,2,0,0,True,0.718999981880188,id0,
1729403433.6432176,2525,1729403433,642498968,,0.7139999866485596,0.0,-0.9200000166893005,nan,nan,nan,0.9200000166893005,2,0,0,True,0.7139999866485596,id0,
1729403433.7433395,2526,1729403433,742490190,,0.7170000076293945,0.0,-0.9200000166893005,nan,nan,nan,0.9200000166893005,2,0,0,True,0.7170000076293945,id0,
1729403433.8433745,2527,1729403433,842506338,,0.7210000157356262,0.0,-0.9200000166893005,nan,nan,nan,0.9200000166893005,2,0,0,True,0.7210000157356262,id0,
1729403433.9431064,2528,1729403433,942505505,,0.7139999866485596,0.0,-0.9200000166893005,nan,nan,nan,0.9200000166893005,2,0,0,True,0.7139999866485596,id0,
1729403434.040134,2529,1729403434,39618023,,0.7279999852180481,0.0,-0.9200000166893005,nan,nan,nan,0.9200000166893005,2,0,0,True,0.7279999852180481,id0,
1729403434.1432397,2530,1729403434,142579227,,0.718999981880188,0.0,-0.9200000166893005,nan,nan,nan,0.9200000166893005,2,0,0,True,0.718999981880188,id0,
1729403434.243325,2531,1729403434,242608060,,0.7229999899864197,0.0,-0.9200000166893005,nan,nan,nan,0.9200000166893005,2,0,0,True,0.7229999899864197,id0,
1729403434.3411598,2532,1729403434,340044912,,0.7149999737739563,0.0,-0.9200000166893005,nan,nan,nan,0.9200000166893005,2,0,0,True,0.7149999737739563,id0,
1729403434.440261,2533,1729403434,439699634,,0.7229999899864197,0.0,-0.9200000166893005,nan,nan,nan,0.9200000166893005,2,0,0,True,0.7229999899864197,id0,
1729403434.5403974,2534,1729403434,539692227,,0.7139999866485596,0.0,-0.9200000166893005,nan,nan,nan,0.9200000166893005,2,0,0,True,0.7139999866485596,id0,
1729403434.6415548,2535,1729403434,640734893,,0.718999981880188,0.0,-0.9200000166893005,nan,nan,nan,0.9200000166893005,2,0,0,True,0.718999981880188,id0,
1729403434.740054,2536,1729403434,738209578,,0.7210000157356262,0.0,-0.9200000166893005,nan,nan,nan,0.9200000166893005,2,0,0,True,0.7210000157356262,id0,
1729403434.8434227,2537,1729403434,842749060,,0.7139999866485596,0.0,-0.9200000166893005,nan,nan,nan,0.9200000166893005,2,0,0,True,0.7139999866485596,id0,
1729403434.9412913,2538,1729403434,940703578,,0.7149999737739563,0.0,-0.9200000166893005,nan,nan,nan,0.9200000166893005,2,0,0,True,0.7149999737739563,id0,
1729403435.0432634,2539,1729403435,42715671,,0.7229999899864197,0.0,-0.9200000166893005,nan,nan,nan,0.9200000166893005,2,0,0,True,0.7229999899864197,id0,
1729403435.1406784,2540,1729403435,139838245,,0.7179999947547913,0.0,-0.9200000166893005,nan,nan,nan,0.9200000166893005,2,0,0,True,0.7179999947547913,id0,
1729403435.2434292,2541,1729403435,242747430,,0.7229999899864197,0.0,-0.9200000166893005,nan,nan,nan,0.9200000166893005,2,0,0,True,0.7229999899864197,id0,
1729403435.341757,2542,1729403435,340193022,,0.718999981880188,0.0,-0.9200000166893005,nan,nan,nan,0.9200000166893005,2,0,0,True,0.718999981880188,id0,
1729403435.4405196,2543,1729403435,439805170,,0.7200000286102295,0.0,-0.9200000166893005,nan,nan,nan,0.9200000166893005,2,0,0,True,0.7200000286102295,id0,
1729403435.5401947,2544,1729403435,538334022,,0.7179999947547913,0.0,-0.9200000166893005,nan,nan,nan,0.9200000166893005,2,0,0,True,0.7179999947547913,id0,
1729403435.641725,2545,1729403435,640833781,,0.7210000157356262,0.0,-0.9200000166893005,nan,nan,nan,0.9200000166893005,2,0,0,True,0.7210000157356262,id0,
1729403435.7418413,2546,1729403435,740346467,,0.7149999737739563,0.0,-0.9200000166893005,nan,nan,nan,0.9200000166893005,2,0,0,True,0.7149999737739563,id0,
1729403435.8403862,2547,1729403435,839841059,,0.7179999947547913,0.0,-0.9200000166893005,nan,nan,nan,0.9200000166893005,2,0,0,True,0.7179999947547913,id0,
1729403435.9422617,2548,1729403435,940923300,,0.722000002861023,0.0,-0.9200000166893005,nan,nan,nan,0.9200000166893005,2,0,0,True,0.722000002861023,id0,
1729403436.0407245,2549,1729403436,38361152,,0.7260000109672546,0.0,-0.9200000166893005,nan,nan,nan,0.9200000166893005,2,0,0,True,0.7260000109672546,id0,
1729403436.145589,2550,1729403436,143543077,,0.7149999737739563,0.0,-0.9200000166893005,nan,nan,nan,0.9200000166893005,2,0,0,True,0.7149999737739563,id0,
1729403436.2403984,2551,1729403436,239871466,,0.7200000286102295,0.0,-0.9200000166893005,nan,nan,nan,0.9200000166893005,2,0,0,True,0.7200000286102295,id0,
1729403436.3407605,2552,1729403436,339968411,,0.722000002861023,0.0,-0.9200000166893005,nan,nan,nan,0.9200000166893005,2,0,0,True,0.722000002861023,id0,
1729403436.4434705,2553,1729403436,442912114,,0.7160000205039978,0.0,-0.9200000166893005,nan,nan,nan,0.9200000166893005,2,0,0,True,0.7160000205039978,id0,
1729403436.5407357,2554,1729403436,539937077,,0.7170000076293945,0.0,-0.9200000166893005,nan,nan,nan,0.9200000166893005,2,0,0,True,0.7170000076293945,id0,
1729403436.6404874,2555,1729403436,639931503,,0.7229999899864197,0.0,-0.9300000071525574,nan,nan,nan,0.9200000166893005,2,0,0,True,0.7229999899864197,id0,
1729403436.7416162,2556,1729403436,740234910,,0.7129999995231628,0.0,-0.9200000166893005,nan,nan,nan,0.9200000166893005,2,0,0,True,0.7129999995231628,id0,
1729403436.8418627,2557,1729403436,840341596,,0.7200000286102295,0.0,-0.9200000166893005,nan,nan,nan,0.9200000166893005,2,0,0,True,0.7200000286102295,id0,
1729403436.9426584,2558,1729403436,941993503,,0.7170000076293945,0.0,-0.9200000166893005,nan,nan,nan,0.9200000166893005,2,0,0,True,0.7170000076293945,id0,
1729403437.0409253,2559,1729403437,40087577,,0.7260000109672546,0.0,-0.9300000071525574,nan,nan,nan,0.9200000166893005,2,0,0,True,0.7260000109672546,id0,
1729403437.1428728,2560,1729403437,142006892,,0.718999981880188,0.0,-0.9200000166893005,nan,nan,nan,0.9200000166893005,2,0,0,True,0.718999981880188,id0,
1729403437.2417002,2561,1729403437,240399373,,0.7200000286102295,0.0,-0.9300000071525574,nan,nan,nan,0.9200000166893005,2,0,0,True,0.7200000286102295,id0,
1729403437.342637,2562,1729403437,342065336,,0.7179999947547913,0.0,-0.9200000166893005,nan,nan,nan,0.9200000166893005,2,0,0,True,0.7179999947547913,id0,
1729403437.4428997,2563,1729403437,442040077,,0.7250000238418579,0.0,-0.9200000166893005,nan,nan,nan,0.9200000166893005,2,0,0,True,0.7250000238418579,id0,
1729403437.54265,2564,1729403437,542075762,,0.7239999771118164,0.0,-0.9200000166893005,nan,nan,nan,0.9200000166893005,2,0,0,True,0.7239999771118164,id0,
1729403437.6410704,2565,1729403437,640167188,,0.7250000238418579,0.0,-0.9300000071525574,nan,nan,nan,0.9200000166893005,2,0,0,True,0.7250000238418579,id0,
1729403437.7430844,2566,1729403437,742162984,,0.7210000157356262,0.0,-0.9200000166893005,nan,nan,nan,0.9200000166893005,2,0,0,True,0.7210000157356262,id0,
1729403437.8427837,2567,1729403437,842112799,,0.7179999947547913,0.0,-0.9200000166893005,nan,nan,nan,0.9200000166893005,2,0,0,True,0.7179999947547913,id0,
1729403437.9410932,2568,1729403437,940222095,,0.722000002861023,0.0,-0.9200000166893005,nan,nan,nan,0.9200000166893005,2,0,0,True,0.722000002861023,id0,
1729403438.042798,2569,1729403438,42141299,,0.7179999947547913,0.0,-0.9200000166893005,nan,nan,nan,0.9200000166893005,2,0,0,True,0.7179999947547913,id0,
1729403438.1408455,2570,1729403438,140169002,,0.722000002861023,0.0,-0.9200000166893005,nan,nan,nan,0.9200000166893005,2,0,0,True,0.722000002861023,id0,
1729403438.2428772,2571,1729403438,240698539,,0.718999981880188,0.0,-0.9200000166893005,nan,nan,nan,0.9200000166893005,2,0,0,True,0.718999981880188,id0,
1729403438.3410277,2572,1729403438,340231335,,0.7139999866485596,0.0,-0.9200000166893005,nan,nan,nan,0.9200000166893005,2,0,0,True,0.7139999866485596,id0,
1729403438.440774,2573,1729403438,440184058,,0.7200000286102295,0.0,-0.9200000166893005,nan,nan,nan,0.9200000166893005,2,0,0,True,0.7200000286102295,id0,
1729403438.542531,2574,1729403438,540713243,,0.7149999737739563,0.0,-0.9200000166893005,nan,nan,nan,0.9200000166893005,2,0,0,True,0.7149999737739563,id0,
1729403438.6431267,2575,1729403438,642219891,,0.7229999899864197,0.0,-0.9200000166893005,nan,nan,nan,0.9200000166893005,2,0,0,True,0.7229999899864197,id0,
1729403438.7419264,2576,1729403438,740648168,,0.7200000286102295,0.0,-0.9200000166893005,nan,nan,nan,0.9200000166893005,2,0,0,True,0.7200000286102295,id0,
1729403438.8378632,2577,1729403438,837225557,,0.7239999771118164,0.0,-0.9200000166893005,nan,nan,nan,0.9200000166893005,2,0,0,True,0.7239999771118164,id0,
1729403438.9420345,2578,1729403438,940508687,,0.7179999947547913,0.0,-0.9200000166893005,nan,nan,nan,0.9200000166893005,2,0,0,True,0.7179999947547913,id0,
1729403439.04294,2579,1729403439,42283353,,0.7210000157356262,0.0,-0.9200000166893005,nan,nan,nan,0.9200000166893005,2,0,0,True,0.7210000157356262,id0,
1729403439.1429262,2580,1729403439,142288483,,0.7149999737739563,0.0,-0.9200000166893005,nan,nan,nan,0.9200000166893005,2,0,0,True,0.7149999737739563,id0,
1729403439.2429636,2581,1729403439,242291224,,0.7229999899864197,0.0,-0.9200000166893005,nan,nan,nan,0.9200000166893005,2,0,0,True,0.7229999899864197,id0,
1729403439.342993,2582,1729403439,342282187,,0.722000002861023,0.0,-0.9200000166893005,nan,nan,nan,0.9200000166893005,2,0,0,True,0.722000002861023,id0,
1729403439.4430988,2583,1729403439,442297038,,0.7160000205039978,0.0,-0.9200000166893005,nan,nan,nan,0.9200000166893005,2,0,0,True,0.7160000205039978,id0,
1729403439.540995,2584,1729403439,540337705,,0.7239999771118164,0.0,-0.9200000166893005,nan,nan,nan,0.9200000166893005,2,0,0,True,0.7239999771118164,id0,
1729403439.6401567,2585,1729403439,639422520,,0.7229999899864197,0.0,-0.9300000071525574,nan,nan,nan,0.9200000166893005,2,0,0,True,0.7229999899864197,id0,
1729403439.7423255,2586,1729403439,740927149,,0.7239999771118164,0.0,-0.9200000166893005,nan,nan,nan,0.9200000166893005,2,0,0,True,0.7239999771118164,id0,
1729403439.8410869,2587,1729403439,840391446,,0.7210000157356262,0.0,-0.9200000166893005,nan,nan,nan,0.9200000166893005,2,0,0,True,0.7210000157356262,id0,
1729403439.9411352,2588,1729403439,939942223,,0.722000002861023,0.0,-0.9200000166893005,nan,nan,nan,0.9200000166893005,2,0,0,True,0.722000002861023,id0,
1729403440.0430505,2589,1729403440,42406964,,0.7229999899864197,0.0,-0.9200000166893005,nan,nan,nan,0.9200000166893005,2,0,0,True,0.7229999899864197,id0,
1729403440.1414804,2590,1729403440,139954649,,0.7300000190734863,0.0,-0.9200000166893005,nan,nan,nan,0.9200000166893005,2,0,0,True,0.7300000190734863,id0,
1729403440.2426999,2591,1729403440,240705186,,0.718999981880188,0.0,-0.9200000166893005,nan,nan,nan,0.9200000166893005,2,0,0,True,0.718999981880188,id0,
1729403440.3409202,2592,1729403440,340430890,,0.7229999899864197,0.0,-0.9200000166893005,nan,nan,nan,0.9200000166893005,2,0,0,True,0.7229999899864197,id0,
1729403440.4444067,2593,1729403440,442852816,,0.7200000286102295,0.0,-0.9200000166893005,nan,nan,nan,0.9200000166893005,2,0,0,True,0.7200000286102295,id0,
1729403440.543001,2594,1729403440,542469501,,0.7210000157356262,0.0,-0.9200000166893005,nan,nan,nan,0.9200000166893005,2,0,0,True,0.7210000157356262,id0,
1729403440.6404467,2595,1729403440,639495130,,0.7160000205039978,0.0,-0.9100000262260437,nan,nan,nan,0.9200000166893005,2,0,0,True,0.7160000205039978,id0,
1729403440.7404594,2596,1729403440,739633538,,0.7260000109672546,0.0,-0.9200000166893005,nan,nan,nan,0.9200000166893005,2,0,0,True,0.7260000109672546,id0,
1729403440.8403893,2597,1729403440,839722630,,0.7179999947547913,0.0,-0.9200000166893005,nan,nan,nan,0.9200000166893005,2,0,0,True,0.7179999947547913,id0,
1729403440.9403362,2598,1729403440,939534260,,0.718999981880188,0.0,-0.9300000071525574,nan,nan,nan,0.9200000166893005,2,0,0,True,0.718999981880188,id0,
1729403441.04162,2599,1729403441,40075704,,0.7269999980926514,0.0,-0.9200000166893005,nan,nan,nan,0.9200000166893005,2,0,0,True,0.7269999980926514,id0,
1729403441.1446996,2600,1729403441,143110297,,0.7170000076293945,0.0,-0.9200000166893005,nan,nan,nan,0.9200000166893005,2,0,0,True,0.7170000076293945,id0,
1729403441.2417,2601,1729403441,240108056,,0.7229999899864197,0.0,-0.9200000166893005,nan,nan,nan,0.9200000166893005,2,0,0,True,0.7229999899864197,id0,
1729403441.3431363,2602,1729403441,342573130,,0.7149999737739563,0.0,-0.9200000166893005,nan,nan,nan,0.9200000166893005,2,0,0,True,0.7149999737739563,id0,
1729403441.4415567,2603,1729403441,439986852,,0.718999981880188,0.0,-0.9200000166893005,nan,nan,nan,0.9200000166893005,2,0,0,True,0.718999981880188,id0,
1729403441.5412838,2604,1729403441,540615056,,0.7210000157356262,0.0,-0.9300000071525574,nan,nan,nan,0.9200000166893005,2,0,0,True,0.7210000157356262,id0,
1729403441.6409338,2605,1729403441,639763389,,0.722000002861023,0.0,-0.9200000166893005,nan,nan,nan,0.9200000166893005,2,0,0,True,0.722000002861023,id0,
1729403441.7421281,2606,1729403441,739991130,,0.7170000076293945,0.0,-0.9200000166893005,nan,nan,nan,0.9200000166893005,2,0,0,True,0.7170000076293945,id0,
1729403441.8415496,2607,1729403441,840734815,,0.7179999947547913,0.0,-0.9200000166893005,nan,nan,nan,0.9200000166893005,2,0,0,True,0.7179999947547913,id0,
1729403441.9415696,2608,1729403441,940085518,,0.7160000205039978,0.0,-0.9200000166893005,nan,nan,nan,0.9200000166893005,2,0,0,True,0.7160000205039978,id0,
1729403442.040432,2609,1729403442,39756352,,0.7229999899864197,0.0,-0.9300000071525574,nan,nan,nan,0.9200000166893005,2,0,0,True,0.7229999899864197,id0,
1729403442.1417315,2610,1729403442,140186833,,0.7170000076293945,0.0,-0.9200000166893005,nan,nan,nan,0.9200000166893005,2,0,0,True,0.7170000076293945,id0,
1729403442.240552,2611,1729403442,239741852,,0.7160000205039978,0.0,-0.9200000166893005,nan,nan,nan,0.9200000166893005,2,0,0,True,0.7160000205039978,id0,
1729403442.341983,2612,1729403442,340136574,,0.7179999947547913,0.0,-0.9200000166893005,nan,nan,nan,0.9200000166893005,2,0,0,True,0.7179999947547913,id0,
1729403442.4385004,2613,1729403442,437041388,,0.7229999899864197,0.0,-0.9200000166893005,nan,nan,nan,0.9200000166893005,2,0,0,True,0.7229999899864197,id0,
1729403442.542326,2614,1729403442,541753463,,0.7229999899864197,0.0,-0.9300000071525574,nan,nan,nan,0.9200000166893005,2,0,0,True,0.7229999899864197,id0,
1729403442.640518,2615,1729403442,639841759,,0.7239999771118164,0.0,-0.9200000166893005,nan,nan,nan,0.9200000166893005,2,0,0,True,0.7239999771118164,id0,
1729403442.743327,2616,1729403442,742789407,,0.7179999947547913,0.0,-0.9200000166893005,nan,nan,nan,0.9200000166893005,2,0,0,True,0.7179999947547913,id0,
1729403442.8404214,2617,1729403442,839824925,,0.7269999980926514,0.0,-0.9200000166893005,nan,nan,nan,0.9200000166893005,2,0,0,True,0.7269999980926514,id0,
1729403442.9417934,2618,1729403442,940243925,,0.7269999980926514,0.0,-0.9200000166893005,nan,nan,nan,0.9200000166893005,2,0,0,True,0.7269999980926514,id0,
1729403443.040395,2619,1729403443,39836518,,0.7200000286102295,0.0,-0.9300000071525574,nan,nan,nan,0.9200000166893005,2,0,0,True,0.7200000286102295,id0,
1729403443.1424966,2620,1729403443,141839444,,0.7260000109672546,0.0,-0.9300000071525574,nan,nan,nan,0.9200000166893005,2,0,0,True,0.7260000109672546,id0,
1729403443.2425597,2621,1729403443,240329499,,0.7149999737739563,0.0,-0.9100000262260437,nan,nan,nan,0.9200000166893005,2,0,0,True,0.7149999737739563,id0,
1729403443.3413298,2622,1729403443,340252240,,0.7170000076293945,0.0,-0.9200000166893005,nan,nan,nan,0.9200000166893005,2,0,0,True,0.7170000076293945,id0,
1729403443.4417193,2623,1729403443,440244943,,0.7210000157356262,0.0,-0.9200000166893005,nan,nan,nan,0.9200000166893005,2,0,0,True,0.7210000157356262,id0,
1729403443.540755,2624,1729403443,539981203,,0.7170000076293945,0.0,-0.9300000071525574,nan,nan,nan,0.9200000166893005,2,0,0,True,0.7170000076293945,id0,
1729403443.6417646,2625,1729403443,640341036,,0.7160000205039978,0.0,-0.9200000166893005,nan,nan,nan,0.9200000166893005,2,0,0,True,0.7160000205039978,id0,
1729403443.7424617,2626,1729403443,741933443,,0.7179999947547913,0.0,-0.9100000262260437,nan,nan,nan,0.9200000166893005,2,0,0,True,0.7179999947547913,id0,
1729403443.8424864,2627,1729403443,841945351,,0.7239999771118164,0.0,-0.9200000166893005,nan,nan,nan,0.9200000166893005,2,0,0,True,0.7239999771118164,id0,
1729403443.9376993,2628,1729403443,937023628,,0.722000002861023,0.0,-0.9300000071525574,nan,nan,nan,0.9200000166893005,2,0,0,True,0.722000002861023,id0,
1729403444.0407317,2629,1729403444,40059480,,0.7279999852180481,0.0,-0.9200000166893005,nan,nan,nan,0.9200000166893005,2,0,0,True,0.7279999852180481,id0,
1729403444.1408541,2630,1729403444,140056536,,0.7170000076293945,0.0,-0.9200000166893005,nan,nan,nan,0.9200000166893005,2,0,0,True,0.7170000076293945,id0,
1729403444.2424562,2631,1729403444,240284221,,0.7200000286102295,0.0,-0.9200000166893005,nan,nan,nan,0.9200000166893005,2,0,0,True,0.7200000286102295,id0,
1729403444.33955,2632,1729403444,339012498,,0.7170000076293945,0.0,-0.9200000166893005,nan,nan,nan,0.9200000166893005,2,0,0,True,0.7170000076293945,id0,
1729403444.4405582,2633,1729403444,440029369,,0.7200000286102295,0.0,-0.9300000071525574,nan,nan,nan,0.9200000166893005,2,0,0,True,0.7200000286102295,id0,
1729403444.5418835,2634,1729403444,540346628,,0.7229999899864197,0.0,-0.9200000166893005,nan,nan,nan,0.9200000166893005,2,0,0,True,0.7229999899864197,id0,
1729403444.6426163,2635,1729403444,642074332,,0.7229999899864197,0.0,-0.9200000166893005,nan,nan,nan,0.9200000166893005,2,0,0,True,0.7229999899864197,id0,
1729403444.7427194,2636,1729403444,742074887,,0.7229999899864197,0.0,-0.9200000166893005,nan,nan,nan,0.9200000166893005,2,0,0,True,0.7229999899864197,id0,
1729403444.8398657,2637,1729403444,839098406,,0.7200000286102295,0.0,-0.9200000166893005,nan,nan,nan,0.9200000166893005,2,0,0,True,0.7200000286102295,id0,
1729403444.9418855,2638,1729403444,940543794,,0.7179999947547913,0.0,-0.9200000166893005,nan,nan,nan,0.9200000166893005,2,0,0,True,0.7179999947547913,id0,
1729403445.0401545,2639,1729403445,39188257,,0.7250000238418579,0.0,-0.9200000166893005,nan,nan,nan,0.9200000166893005,2,0,0,True,0.7250000238418579,id0,
1729403445.1428976,2640,1729403445,142126924,,0.7179999947547913,0.0,-0.9200000166893005,nan,nan,nan,0.9200000166893005,2,0,0,True,0.7179999947547913,id0,
1729403445.2428157,2641,1729403445,242153016,,0.7170000076293945,0.0,-0.9200000166893005,nan,nan,nan,0.9200000166893005,2,0,0,True,0.7170000076293945,id0,
1729403445.341081,2642,1729403445,339548350,,0.7229999899864197,0.0,-0.9300000071525574,nan,nan,nan,0.9200000166893005,2,0,0,True,0.7229999899864197,id0,
1729403445.4428847,2643,1729403445,442189146,,0.718999981880188,0.0,-0.9200000166893005,nan,nan,nan,0.9200000166893005,2,0,0,True,0.718999981880188,id0,
1729403445.5418885,2644,1729403445,541189146,,0.722000002861023,0.0,-0.9200000166893005,nan,nan,nan,0.9200000166893005,2,0,0,True,0.722000002861023,id0,
1729403445.6400967,2645,1729403445,639282924,,0.7149999737739563,0.0,-0.9200000166893005,nan,nan,nan,0.9200000166893005,2,0,0,True,0.7149999737739563,id0,
1729403445.7420108,2646,1729403445,739511127,,0.7149999737739563,0.0,-0.9200000166893005,nan,nan,nan,0.9200000166893005,2,0,0,True,0.7149999737739563,id0,
1729403445.843484,2647,1729403445,842302812,,0.7160000205039978,0.0,-0.9200000166893005,nan,nan,nan,0.9200000166893005,2,0,0,True,0.7160000205039978,id0,
1729403445.9428468,2648,1729403445,942231979,,0.7149999737739563,0.0,-0.9200000166893005,nan,nan,nan,0.9200000166893005,2,0,0,True,0.7149999737739563,id0,
1729403446.0422754,2649,1729403446,40686201,,0.7160000205039978,0.0,-0.9200000166893005,nan,nan,nan,0.9200000166893005,2,0,0,True,0.7160000205039978,id0,
1729403446.1371486,2650,1729403446,136342997,,0.7170000076293945,0.0,-0.9200000166893005,nan,nan,nan,0.9200000166893005,2,0,0,True,0.7170000076293945,id0,
1729403446.2411096,2651,1729403446,239768405,,0.7179999947547913,0.0,-0.9200000166893005,nan,nan,nan,0.9200000166893005,2,0,0,True,0.7179999947547913,id0,
1729403446.3421888,2652,1729403446,340624164,,0.7160000205039978,0.0,-0.9200000166893005,nan,nan,nan,0.9200000166893005,2,0,0,True,0.7160000205039978,id0,
1729403446.440204,2653,1729403446,439390256,,0.7120000123977661,0.0,-0.9200000166893005,nan,nan,nan,0.9200000166893005,2,0,0,True,0.7120000123977661,id0,
1729403446.541999,2654,1729403446,541340442,,0.7160000205039978,0.0,-0.9200000166893005,nan,nan,nan,0.9200000166893005,2,0,0,True,0.7160000205039978,id0,
1729403446.6426704,2655,1729403446,640896053,,0.7120000123977661,0.0,-0.9200000166893005,nan,nan,nan,0.9200000166893005,2,0,0,True,0.7120000123977661,id0,
1729403446.742489,2656,1729403446,741306904,,0.7250000238418579,0.0,-0.9200000166893005,nan,nan,nan,0.9200000166893005,2,0,0,True,0.7250000238418579,id0,
1729403446.8429492,2657,1729403446,842383756,,0.7179999947547913,0.0,-0.9200000166893005,nan,nan,nan,0.9200000166893005,2,0,0,True,0.7179999947547913,id0,
1729403446.9423287,2658,1729403446,940869015,,0.7179999947547913,0.0,-0.9200000166893005,nan,nan,nan,0.9200000166893005,2,0,0,True,0.7179999947547913,id0,
1729403447.0401123,2659,1729403447,39392830,,0.7200000286102295,0.0,-0.9200000166893005,nan,nan,nan,0.9200000166893005,2,0,0,True,0.7200000286102295,id0,
1729403447.1460547,2660,1729403447,145404238,,0.7170000076293945,0.0,-0.9200000166893005,nan,nan,nan,0.9200000166893005,2,0,0,True,0.718999981880188,id0,
1729403447.2400463,2661,1729403447,239406145,,0.718999981880188,0.0,-0.9200000166893005,nan,nan,nan,0.9200000166893005,2,0,0,True,0.718999981880188,id0,
1729403447.342176,2662,1729403447,339991423,,0.7160000205039978,0.0,-0.9200000166893005,nan,nan,nan,0.9200000166893005,2,0,0,True,0.7160000205039978,id0,
1729403447.4414933,2663,1729403447,439916756,,0.7160000205039978,0.0,-0.9200000166893005,nan,nan,nan,0.9200000166893005,2,0,0,True,0.7160000205039978,id0,
1729403447.5412226,2664,1729403447,540059367,,0.7239999771118164,0.0,-0.9300000071525574,nan,nan,nan,0.9200000166893005,2,0,0,True,0.7239999771118164,id0,
1729403447.6425006,2665,1729403447,641486978,,0.7170000076293945,0.0,-0.9200000166893005,nan,nan,nan,0.9200000166893005,2,0,0,True,0.7170000076293945,id0,
1729403447.7411933,2666,1729403447,740048608,,0.7179999947547913,0.0,-0.9200000166893005,nan,nan,nan,0.9200000166893005,2,0,0,True,0.7179999947547913,id0,
1729403447.842081,2667,1729403447,841515330,,0.7170000076293945,0.0,-0.9200000166893005,nan,nan,nan,0.9200000166893005,2,0,0,True,0.7170000076293945,id0,
1729403447.940252,2668,1729403447,939722552,,0.7179999947547913,0.0,-0.9200000166893005,nan,nan,nan,0.9200000166893005,2,0,0,True,0.7179999947547913,id0,
1729403448.0402513,2669,1729403448,39528385,,0.7160000205039978,0.0,-0.9200000166893005,nan,nan,nan,0.9200000166893005,2,0,0,True,0.7160000205039978,id0,
1729403448.1452153,2670,1729403448,144547181,,0.7160000205039978,0.0,-0.9200000166893005,nan,nan,nan,0.9200000166893005,2,0,0,True,0.7239999771118164,id0,
1729403448.2418556,2671,1729403448,240155367,,0.7239999771118164,0.0,-0.9200000166893005,nan,nan,nan,0.9200000166893005,2,0,0,True,0.7239999771118164,id0,
1729403448.340087,2672,1729403448,339597218,,0.718999981880188,0.0,-0.9200000166893005,nan,nan,nan,0.9200000166893005,2,0,0,True,0.718999981880188,id0,
1729403448.4404671,2673,1729403448,439670292,,0.7179999947547913,0.0,-0.9200000166893005,nan,nan,nan,0.9200000166893005,2,0,0,True,0.7179999947547913,id0,
1729403448.5402024,2674,1729403448,539641181,,0.7170000076293945,0.0,-0.9200000166893005,nan,nan,nan,0.9100000262260437,2,0,0,True,0.7170000076293945,id0,
1729403448.642336,2675,1729403448,641597607,,0.7170000076293945,0.0,-0.9200000166893005,nan,nan,nan,0.9100000262260437,2,0,0,True,0.7170000076293945,id0,
1729403448.7423356,2676,1729403448,739972255,,0.7179999947547913,0.0,-0.9300000071525574,nan,nan,nan,0.9100000262260437,2,0,0,True,0.7179999947547913,id0,
1729403448.842108,2677,1729403448,841622070,,0.718999981880188,0.0,-0.9200000166893005,nan,nan,nan,0.9100000262260437,2,0,0,True,0.718999981880188,id0,
1729403448.9404733,2678,1729403448,939721811,,0.722000002861023,0.0,-0.9200000166893005,nan,nan,nan,0.9100000262260437,2,0,0,True,0.722000002861023,id0,
1729403449.0415921,2679,1729403449,40028459,,0.7160000205039978,0.0,-0.9100000262260437,nan,nan,nan,0.9100000262260437,2,0,0,True,0.7160000205039978,id0,
1729403449.1417987,2680,1729403449,140051181,,0.7160000205039978,0.0,-0.9200000166893005,nan,nan,nan,0.9100000262260437,2,0,0,True,0.7160000205039978,id0,
1729403449.2423725,2681,1729403449,241707755,,0.7179999947547913,0.0,-0.9300000071525574,nan,nan,nan,0.9100000262260437,2,0,0,True,0.7179999947547913,id0,
1729403449.342308,2682,1729403449,341699236,,0.7229999899864197,0.0,-0.9200000166893005,nan,nan,nan,0.9100000262260437,2,0,0,True,0.7229999899864197,id0,
1729403449.4404027,2683,1729403449,439738125,,0.7250000238418579,0.0,-0.9200000166893005,nan,nan,nan,0.9100000262260437,2,0,0,True,0.7250000238418579,id0,
1729403449.5423515,2684,1729403449,541748884,,0.7170000076293945,0.0,-0.9200000166893005,nan,nan,nan,0.9100000262260437,2,0,0,True,0.7170000076293945,id0,
1729403449.6424038,2685,1729403449,641756866,,0.722000002861023,0.0,-0.9200000166893005,nan,nan,nan,0.9100000262260437,2,0,0,True,0.722000002861023,id0,
1729403449.740557,2686,1729403449,739873032,,0.7139999866485596,0.0,-0.9200000166893005,nan,nan,nan,0.9100000262260437,2,0,0,True,0.7139999866485596,id0,
1729403449.8393831,2687,1729403449,838804643,,0.7120000123977661,0.0,-0.9200000166893005,nan,nan,nan,0.9100000262260437,2,0,0,True,0.7120000123977661,id0,
1729403449.9423318,2688,1729403449,941796606,,0.718999981880188,0.0,-0.9200000166893005,nan,nan,nan,0.9100000262260437,2,0,0,True,0.718999981880188,id0,
1729403450.0403893,2689,1729403450,39831606,,0.7129999995231628,0.0,-0.9200000166893005,nan,nan,nan,0.9100000262260437,2,0,0,True,0.7129999995231628,id0,
1729403450.142896,2690,1729403450,142009328,,0.7160000205039978,0.0,-0.9300000071525574,nan,nan,nan,0.9100000262260437,2,0,0,True,0.7160000205039978,id0,
1729403450.2412894,2691,1729403450,239174013,,0.7200000286102295,0.0,-0.9200000166893005,nan,nan,nan,0.9100000262260437,2,0,0,True,0.7200000286102295,id0,
1729403450.3424397,2692,1729403450,341823606,,0.718999981880188,0.0,-0.9200000166893005,nan,nan,nan,0.9100000262260437,2,0,0,True,0.718999981880188,id0,
1729403450.4424436,2693,1729403450,441862328,,0.718999981880188,0.0,-0.9200000166893005,nan,nan,nan,0.9100000262260437,2,0,0,True,0.718999981880188,id0,
1729403450.5395515,2694,1729403450,537386050,,0.7200000286102295,0.0,-0.9200000166893005,nan,nan,nan,0.9100000262260437,2,0,0,True,0.7200000286102295,id0,
1729403450.640877,2695,1729403450,639976402,,0.7229999899864197,0.0,-0.9200000166893005,nan,nan,nan,0.9100000262260437,2,0,0,True,0.7229999899864197,id0,
1729403450.7427156,2696,1729403450,740852421,,0.7160000205039978,0.0,-0.9200000166893005,nan,nan,nan,0.9100000262260437,2,0,0,True,0.7160000205039978,id0,
1729403450.8377275,2697,1729403450,836975921,,0.7260000109672546,0.0,-0.9300000071525574,nan,nan,nan,0.9100000262260437,2,0,0,True,0.7260000109672546,id0,
1729403450.9424882,2698,1729403450,941941365,,0.7229999899864197,0.0,-0.9200000166893005,nan,nan,nan,0.9100000262260437,2,0,0,True,0.7229999899864197,id0,
