Time,header.seq,header.stamp.secs,header.stamp.nsecs,header.frame_id,airspeed,groundspeed,heading,throttle,altitude,climb
1737285472.7450838,12809,1737285462,736608557,,0.07699982821941376,0.07519908994436264,288,0.33000001311302185,568.4099731445312,-0.016555089503526688
1737285472.7451332,12810,1737285462,836784316,,0.07900457829236984,0.07721235603094101,288,0.33000001311302185,568.3999633789062,-0.016732487827539444
1737285472.7452369,12811,1737285462,936646649,,0.06822015345096588,0.06707465648651123,288,0.33000001311302185,568.3999633789062,-0.012449083849787712
1737285472.7453063,12812,1737285463,36847372,,0.06899234652519226,0.0684526115655899,287,0.33000001311302185,568.3999633789062,-0.008613026700913906
1737285472.7454023,12813,1737285463,136631538,,0.06684563308954239,0.0668456181883812,287,0.33000001311302185,568.3999633789062,-4.8122976295417175e-05
1737285472.7454631,12814,1737285463,236594409,,0.07319512963294983,0.07293040305376053,286,0.33000001311302185,568.3999633789062,-0.006219598930329084
1737285472.7455676,12815,1737285463,336755742,,0.06991540640592575,0.0689384788274765,285,0.33000001311302185,568.3999633789062,-0.011646891944110394
1737285472.7456143,12816,1737285463,436814686,,0.06268181651830673,0.060617852956056595,285,0.33000001311302185,568.3999633789062,-0.015952637419104576
1737285472.7456765,12817,1737285463,536987631,,0.07249552011489868,0.07227430492639542,284,0.33000001311302185,568.3999633789062,-0.005659135058522224
1737285472.745784,12818,1737285463,636843631,,0.08119482547044754,0.07925114780664444,283,0.33000001311302185,568.3999633789062,-0.017659444361925125
1737285472.7459035,12819,1737285463,736965168,,0.08965323865413666,0.08961870521306992,283,0.33000001311302185,568.3999633789062,-0.0024881893768906593
1737285472.7459962,12820,1737285463,836794797,,0.09638962149620056,0.09478028863668442,282,0.3400000035762787,568.3999633789062,-0.017540138214826584
1737285472.746059,12821,1737285463,936956408,,0.10247918963432312,0.1023789718747139,282,0.33000001311302185,568.3999633789062,-0.004531177692115307
1737285472.7467248,12822,1737285464,37065204,,0.10624926537275314,0.10590054094791412,281,0.33000001311302185,568.3999633789062,0.00860129576176405
1737285472.746822,12823,1737285464,136700315,,0.08966127038002014,0.08874531835317612,281,0.33000001311302185,568.3999633789062,0.012783292680978775
1737285472.7469316,12824,1737285464,236793297,,0.08305424451828003,0.08183582872152328,281,0.33000001311302185,568.3999633789062,-0.014174072071909904
1737285472.7470114,12825,1737285464,336665501,,0.0671469196677208,0.06701081246137619,281,0.33000001311302185,568.4099731445312,-0.00427309051156044
1737285472.7470765,12826,1737285464,436744334,,0.062130920588970184,0.06128695234656334,281,0.33000001311302185,568.4099731445312,0.010205917060375214
1737285472.747203,12827,1737285464,536678519,,0.04754146188497543,0.046911951154470444,281,0.33000001311302185,568.4099731445312,0.007710977923125029
1737285472.7472816,12828,1737285464,636849037,,0.03326910734176636,0.033267512917518616,281,0.3199999928474426,568.4199829101562,0.00032533713965676725
1737285472.747413,12829,1737285464,736848722,,0.02322331815958023,0.02310461923480034,281,0.3199999928474426,568.4199829101562,-0.0023449815344065428
1737285472.74752,12830,1737285464,836852982,,0.008062797598540783,0.007997069507837296,281,0.3199999928474426,568.4299926757812,-0.0010274098021909595
1737285472.747554,12831,1737285464,936951130,,0.03160026669502258,0.027483034878969193,281,0.3199999928474426,568.4299926757812,0.015596783719956875
1737285472.7476432,12832,1737285465,36933722,,0.024312816560268402,0.02323414385318756,281,0.3199999928474426,568.4299926757812,-0.00716154370456934
1737285472.7477493,12833,1737285465,136778185,,0.04690168797969818,0.03367408365011215,282,0.3199999928474426,568.4299926757812,-0.03264697268605232
1737285472.74785,12834,1737285465,236702556,,0.04474754258990288,0.03198522329330444,282,0.3199999928474426,568.4199829101562,-0.031293582171201706
1737285472.7479377,12835,1737285465,336886093,,0.045994870364665985,0.043857391923666,282,0.3199999928474426,568.4199829101562,-0.013858477585017681
1737285472.748048,12836,1737285465,436994018,,0.06565345823764801,0.05094882473349571,282,0.3199999928474426,568.4199829101562,-0.04140765964984894
1737285472.7481189,12837,1737285465,536766889,,0.05043099448084831,0.0410931259393692,282,0.33000001311302185,568.4199829101562,-0.029234228655695915
1737285472.748209,12838,1737285465,637001407,,0.04932263493537903,0.04346636310219765,282,0.33000001311302185,568.4199829101562,-0.023310892283916473
1737285472.74828,12839,1737285465,736892759,,0.0778786763548851,0.0664631649851799,282,0.33000001311302185,568.4199829101562,-0.04059230908751488
1737285472.7483585,12840,1737285465,837082203,,0.07454247027635574,0.06261152029037476,282,0.3199999928474426,568.4199829101562,-0.04045216739177704
1737285472.7484512,12841,1737285465,936805333,,0.06153657287359238,0.058486685156822205,282,0.33000001311302185,568.4199829101562,-0.019132625311613083
1737285472.748529,12842,1737285466,36835999,,0.07481231540441513,0.0722927376627922,282,0.33000001311302185,568.4199829101562,-0.019252093508839607
1737285472.7487385,12843,1737285466,137102425,,0.10620774328708649,0.09945236146450043,283,0.3199999928474426,568.4199829101562,-0.03727348521351814
1737285472.74879,12844,1737285466,237255536,,0.07707743346691132,0.07421613484621048,282,0.3199999928474426,568.4199829101562,-0.020806169137358665
1737285472.74885,12845,1737285466,337227055,,0.08531554788351059,0.08460956066846848,282,0.3199999928474426,568.4199829101562,-0.010952813550829887
1737285472.7490442,12846,1737285466,436986055,,0.11219408363103867,0.10867786407470703,282,0.33000001311302185,568.4199829101562,-0.027868155390024185
1737285472.7491379,12847,1737285466,536739481,,0.0962909683585167,0.08859944343566895,282,0.33000001311302185,568.4199829101562,-0.03771056979894638
1737285472.749258,12848,1737285466,637382962,,0.0722828060388565,0.0673137903213501,282,0.33000001311302185,568.4199829101562,-0.026337387040257454
1737285472.7493153,12849,1737285466,737275425,,0.07038085162639618,0.06807762384414673,282,0.33000001311302185,568.4199829101562,-0.01785779558122158
1737285472.7493374,12850,1737285466,837287203,,0.07714009284973145,0.07219637930393219,282,0.33000001311302185,568.4199829101562,-0.027171257883310318
1737285472.7493575,12851,1737285466,937204869,,0.08407864719629288,0.071696937084198,282,0.33000001311302185,568.4199829101562,-0.043917737901210785
1737285472.7496493,12852,1737285467,37279573,,0.06510854512453079,0.054638057947158813,282,0.33000001311302185,568.4199829101562,-0.0354091040790081
1737285472.7501225,12853,1737285467,137243295,,0.06368187069892883,0.0607309527695179,283,0.33000001311302185,568.4199829101562,-0.01916070654988289
1737285472.7592854,12854,1737285467,237262777,,0.05543409287929535,0.052830975502729416,283,0.33000001311302185,568.4199829101562,-0.01678769290447235
1737285472.7611961,12855,1737285467,336363758,,0.06056399643421173,0.05305730924010277,283,0.33000001311302185,568.4199829101562,-0.029204782098531723
1737285472.7612252,12856,1737285467,437405869,,0.06073400378227234,0.04651455581188202,283,0.33000001311302185,568.4199829101562,-0.03905143961310387
1737285472.7612906,12857,1737285467,537417850,,0.0760730654001236,0.07209240645170212,283,0.33000001311302185,568.4299926757812,-0.02428574301302433
1737285472.7613528,12858,1737285467,637185776,,0.06958833336830139,0.06265462189912796,282,0.33000001311302185,568.4199829101562,-0.03028092347085476
1737285472.7613883,12859,1737285467,737883165,,0.06315173953771591,0.050097931176424026,282,0.33000001311302185,568.4199829101562,-0.038449183106422424
1737285472.761432,12860,1737285467,837060535,,0.0597388856112957,0.04564459249377251,283,0.33000001311302185,568.4199829101562,-0.038539666682481766
1737285472.761455,12861,1737285467,936347221,,0.0684511736035347,0.061595138162374496,283,0.33000001311302185,568.4199829101562,-0.029859701171517372
1737285472.7614813,12862,1737285468,36384091,,0.07533148676156998,0.07496362924575806,282,0.33000001311302185,568.4199829101562,-0.00743557745590806
1737285472.7615132,12863,1737285468,136268239,,0.06192465499043465,0.06156277284026146,282,0.3199999928474426,568.4199829101562,-0.006684871856123209
1737285472.7615383,12864,1737285468,236389220,,0.04992472007870674,0.039787229150533676,283,0.3199999928474426,568.4199829101562,-0.03015715628862381
1737285472.7615688,12865,1737285468,336419387,,0.057766396552324295,0.052192214876413345,282,0.33000001311302185,568.4199829101562,-0.02475740574300289
1737285472.7616265,12866,1737285468,436446109,,0.05594095587730408,0.05593596398830414,282,0.33000001311302185,568.4199829101562,-0.0007473493460565805
1737285472.7616477,12867,1737285468,536455128,,0.029745209962129593,0.01922657899558544,282,0.33000001311302185,568.4099731445312,-0.022696170955896378
1737285472.7616727,12868,1737285468,636548054,,0.040563106536865234,0.015135260298848152,282,0.33000001311302185,568.4099731445312,-0.03763362392783165
1737285472.7616982,12869,1737285468,736574831,,0.03618666157126427,0.03214676305651665,282,0.33000001311302185,568.3999633789062,-0.016615061089396477
1737285472.7669873,12870,1737285468,836624164,,0.03256988897919655,0.03209031745791435,282,0.3199999928474426,568.3999633789062,-0.0055685946717858315
1737285472.7670114,12871,1737285468,936452461,,0.02989020198583603,0.029887134209275246,282,0.3199999928474426,568.3999633789062,-0.0004282730515114963
1737285472.7670352,12872,1737285469,36571313,,0.01260490994900465,0.006850673817098141,282,0.3199999928474426,568.3999633789062,-0.010580738075077534
1737285472.767092,12873,1737285469,136492998,,0.021914513781666756,0.012548153288662434,282,0.3199999928474426,568.3999633789062,-0.01796635054051876
1737285472.7686412,12874,1737285469,236280349,,0.03161114826798439,0.03137224540114403,282,0.33000001311302185,568.3999633789062,-0.0038790423423051834
1737285472.7686892,12875,1737285469,336368923,,0.034800268709659576,0.03469489887356758,282,0.33000001311302185,568.3999633789062,0.002706020139157772
1737285472.7690196,12876,1737285469,436664164,,0.016789695248007774,0.010668112896382809,282,0.33000001311302185,568.4099731445312,-0.012964768335223198
1737285472.769081,12877,1737285469,536541497,,0.02650376781821251,0.017439521849155426,282,0.33000001311302185,568.4099731445312,-0.019957775250077248
1737285472.7691119,12878,1737285469,636658942,,0.023782946169376373,0.01831858791410923,282,0.33000001311302185,568.4099731445312,-0.015167657285928726
1737285472.7721648,12879,1737285469,736642349,,0.02201872691512108,0.02081402763724327,282,0.33000001311302185,568.3999633789062,-0.007183353882282972
1737285472.7725024,12880,1737285469,836686794,,0.019775042310357094,0.017623210325837135,283,0.33000001311302185,568.3999633789062,-0.008970770984888077
1737285472.7725458,12881,1737285469,936718275,,0.037113040685653687,0.028904059901833534,283,0.33000001311302185,568.3999633789062,-0.0232794601470232
1737285472.7725675,12882,1737285470,38018775,,0.022167174145579338,0.013370993547141552,283,0.33000001311302185,568.3999633789062,-0.01768050156533718
1737285472.7755702,12883,1737285470,136498701,,0.019594436511397362,0.018149586394429207,283,0.3499999940395355,568.3999633789062,-0.00738474540412426
1737285472.7756205,12884,1737285470,237431793,,0.01385256927460432,0.004410737194120884,283,0.3700000047683716,568.3900146484375,0.01313160639256239
1737285472.775645,12885,1737285470,337639293,,0.09254562854766846,0.03958466276526451,283,0.38999998569488525,568.3999633789062,0.0836525484919548
1737285472.7757204,12886,1737285470,437502201,,0.25015342235565186,0.15951161086559296,284,0.4000000059604645,568.4099731445312,0.19269868731498718
1737285472.7757623,12887,1737285470,536786423,,0.3928897976875305,0.25329816341400146,284,0.4000000059604645,568.4299926757812,0.30033719539642334
1737285472.7761366,12888,1737285470,636864275,,0.5488284826278687,0.36984503269195557,283,0.4099999964237213,568.4599609375,0.4054964482784271
1737285472.7786431,12889,1737285470,736768626,,0.6663641929626465,0.4179300367832184,281,0.41999998688697815,568.510009765625,0.5190141201019287
1737285472.7786777,12890,1737285470,836884997,,0.7514898777008057,0.41897642612457275,277,0.41999998688697815,568.5700073242188,0.6238555908203125
1737285472.7787406,12891,1737285470,936949719,,0.8280580639839172,0.37798765301704407,272,0.4300000071525574,568.6400146484375,0.7367533445358276
1737285472.7787647,12892,1737285471,36918645,,0.8948226571083069,0.2824009656906128,267,0.4399999976158142,568.7099609375,0.8490920662879944
1737285472.7787979,12893,1737285471,136864108,,1.0197219848632812,0.2878986597061157,264,0.4399999976158142,568.7999877929688,0.9782367944717407
1737285472.7822032,12894,1737285471,238693367,,1.209374189376831,0.42259544134140015,262,0.41999998688697815,568.9099731445312,1.1331367492675781
1737285472.7837734,12895,1737285471,336707867,,1.4238258600234985,0.6570531725883484,263,0.38999998569488525,569.0299682617188,1.263155221939087
1737285472.7838433,12896,1737285471,436891607,,1.605488896369934,0.8974942564964294,267,0.3700000047683716,569.1599731445312,1.3312020301818848
1737285472.7838748,12897,1737285471,536885441,,1.7542780637741089,1.1151992082595825,272,0.3499999940395355,569.2899780273438,1.3541868925094604
1737285472.7839031,12898,1737285471,637201533,,1.87575364112854,1.3228634595870972,278,0.3400000035762787,569.4199829101562,1.329843521118164
1737285472.7839386,12899,1737285471,736751218,,1.9734314680099487,1.4805631637573242,286,0.3199999928474426,569.5599975585938,1.3047466278076172
1737285472.7839668,12900,1737285471,837115848,,2.0408661365509033,1.6060078144073486,294,0.3100000023841858,569.6799926757812,1.259315013885498
1737285472.7839875,12901,1737285471,936953570,,2.0574276447296143,1.682281494140625,302,0.30000001192092896,569.8099975585938,1.1844565868377686
1737285472.7840095,12902,1737285472,36595903,,2.0253989696502686,1.7043452262878418,311,0.28999999165534973,569.9199829101562,1.0942796468734741
1737285472.7840505,12903,1737285472,137013700,,1.9544686079025269,1.6689003705978394,322,0.28999999165534973,570.0299682617188,1.0172115564346313
1737285472.7840757,12904,1737285472,236814348,,1.8338161706924438,1.575291395187378,333,0.28999999165534973,570.1300048828125,0.9387962818145752
1737285472.7873769,12905,1737285472,337019625,,1.6787916421890259,1.4531664848327637,340,0.28999999165534973,570.219970703125,0.8406238555908203
1737285472.787444,12906,1737285472,436854570,,1.4735124111175537,1.2706400156021118,345,0.30000001192092896,570.2999877929688,0.7461318373680115
1737285472.78747,12907,1737285472,536980496,,1.2332839965820312,1.046735405921936,350,0.3100000023841858,570.3699951171875,0.6521766185760498
1737285472.7875426,12908,1737285472,637201014,,0.985276460647583,0.7990968823432922,354,0.3199999928474426,570.4400024414062,0.5763799548149109
1737285472.7884457,12909,1737285472,737278033,,0.7384126782417297,0.5369260311126709,359,0.3199999928474426,570.489990234375,0.506915807723999
1737285472.8404012,12910,1737285472,837322625,,0.5440700054168701,0.27801334857940674,4,0.3199999928474426,570.5399780273438,0.4676758944988251
1737285472.940229,12911,1737285472,937249384,,0.4139164388179779,0.06571640074253082,9,0.3199999928474426,570.5899658203125,0.40866634249687195
1737285473.0404737,12912,1737285473,37242477,,0.3840223550796509,0.1428479105234146,14,0.3199999928474426,570.6300048828125,0.35646548867225647
1737285473.1399202,12913,1737285473,137237347,,0.4251317083835602,0.27582216262817383,17,0.3100000023841858,570.6599731445312,0.3235105574131012
1737285473.2381878,12914,1737285473,236828884,,0.4621177315711975,0.3700800836086273,17,0.3100000023841858,570.6900024414062,0.27675536274909973
1737285473.3387337,12915,1737285473,336752606,,0.5025628805160522,0.4468894898891449,16,0.3199999928474426,570.719970703125,0.2299114167690277
1737285473.4388895,12916,1737285473,436708995,,0.5335453748703003,0.5007555484771729,13,0.3199999928474426,570.739990234375,0.1841590851545334
1737285473.541296,12917,1737285473,537105069,,0.5891870260238647,0.5631778240203857,7,0.33000001311302185,570.75,0.1731245517730713
1737285473.639824,12918,1737285473,636963699,,0.6264263391494751,0.607390820980072,1,0.3199999928474426,570.7699584960938,0.1532527655363083
1737285473.740102,12919,1737285473,736988310,,0.6630045175552368,0.651166558265686,353,0.3199999928474426,570.7799682617188,0.12472809851169586
1737285473.8418148,12920,1737285473,837205476,,0.6910899877548218,0.6855689883232117,344,0.3199999928474426,570.7899780273438,0.08718101680278778
1737285473.9422407,12921,1737285473,937169921,,0.6886985301971436,0.6873674988746643,335,0.3199999928474426,570.7899780273438,0.042797189205884933
1737285474.042972,12922,1737285474,37354254,,0.6990921497344971,0.698702871799469,325,0.3199999928474426,570.7899780273438,0.023327665403485298
1737285474.1412163,12923,1737285474,137224347,,0.6823940873146057,0.682392418384552,315,0.33000001311302185,570.7899780273438,-0.0015278994105756283
1737285474.2422583,12924,1737285474,237382309,,0.6451151967048645,0.6447480916976929,306,0.33000001311302185,570.7899780273438,-0.021759064868092537
1737285474.342553,12925,1737285474,337145661,,0.6572161316871643,0.6570557355880737,298,0.33000001311302185,570.7899780273438,-0.014520836994051933
1737285474.442993,12926,1737285474,437343569,,0.6055045127868652,0.6053308248519897,290,0.33000001311302185,570.7899780273438,-0.014501106925308704
1737285474.5441885,12927,1737285474,537612624,,0.5654585361480713,0.5649248957633972,283,0.33000001311302185,570.7899780273438,-0.024560734629631042
1737285474.644849,12928,1737285474,637403976,,0.5224709510803223,0.5214812159538269,277,0.33000001311302185,570.7799682617188,-0.03214379772543907
1737285474.7399523,12929,1737285474,736408254,,0.48690202832221985,0.4867871403694153,272,0.33000001311302185,570.7799682617188,-0.010576615110039711
1737285474.8433926,12930,1737285474,837259550,,0.4456353783607483,0.44508931040763855,267,0.33000001311302185,570.7799682617188,-0.02205432765185833
1737285474.9406958,12931,1737285474,937118105,,0.40127962827682495,0.4006655514240265,262,0.3400000035762787,570.7699584960938,-0.022191274911165237
1737285475.043984,12932,1737285475,37580161,,0.36736637353897095,0.3666452169418335,257,0.3400000035762787,570.7699584960938,-0.023007700219750404
1737285475.144767,12933,1737285475,137806846,,0.3649764060974121,0.36497625708580017,252,0.3400000035762787,570.7699584960938,0.00032558312523178756
1737285475.244998,12934,1737285475,238011457,,0.3069036602973938,0.3069007098674774,247,0.3400000035762787,570.7699584960938,0.0013496079482138157
1737285475.3418758,12935,1737285475,336274550,,0.3072018623352051,0.3071984350681305,242,0.3400000035762787,570.760009765625,0.00145537534262985
1737285475.4423313,12936,1737285475,436389475,,0.2569817900657654,0.25698092579841614,236,0.3400000035762787,570.760009765625,0.0006780939875170588
1737285475.5406868,12937,1737285475,536617753,,0.2675330340862274,0.2667985260486603,230,0.3400000035762787,570.760009765625,0.01981094665825367
1737285475.6410632,12938,1737285475,636360623,,0.2548333406448364,0.2527829706668854,225,0.36000001430511475,570.760009765625,0.03226142004132271
1737285475.742743,12939,1737285475,736391901,,0.30898430943489075,0.29675641655921936,221,0.3799999952316284,570.760009765625,0.08606354892253876
1737285475.8419027,12940,1737285475,836361531,,0.4148874282836914,0.385569304227829,218,0.36000001430511475,570.7699584960938,0.15319225192070007
1737285475.942706,12941,1737285475,936465234,,0.5707953572273254,0.5341684818267822,216,0.3499999940395355,570.7899780273438,0.20117498934268951
1737285476.041608,12942,1737285476,36498308,,0.7498297095298767,0.7218782901763916,213,0.3499999940395355,570.8099975585938,0.20282100141048431
1737285476.1414487,12943,1737285476,136596105,,0.9549099802970886,0.9350153803825378,210,0.36000001430511475,570.8300170898438,0.19390520453453064
1737285476.2405849,12944,1737285476,236477660,,1.2212814092636108,1.2023556232452393,206,0.36000001430511475,570.8399658203125,0.21417111158370972
1737285476.343092,12945,1737285476,338453975,,1.453794002532959,1.437426209449768,201,0.36000001430511475,570.8599853515625,0.21753832697868347
1737285476.4417605,12946,1737285476,436455716,,1.6379190683364868,1.6231029033660889,198,0.3499999940395355,570.8800048828125,0.21980881690979004
1737285476.5394962,12947,1737285476,536876567,,1.7576576471328735,1.7435039281845093,195,0.3400000035762787,570.9099731445312,0.2226085066795349
1737285476.640262,12948,1737285476,636728382,,1.8255853652954102,1.8132976293563843,193,0.33000001311302185,570.9299926757812,0.2114555984735489
1737285476.7541485,12949,1737285476,736578715,,1.8858457803726196,1.8766374588012695,193,0.33000001311302185,570.9599609375,0.1861335039138794
1737285476.8415437,12950,1737285476,836847882,,1.9331310987472534,1.9246264696121216,193,0.3199999928474426,570.97998046875,0.1811322420835495
1737285476.9402695,12951,1737285476,936592734,,1.9443576335906982,1.938374400138855,194,0.3199999928474426,571.0,0.1524188369512558
1737285477.0420113,12952,1737285477,36589771,,1.9389865398406982,1.9350610971450806,195,0.3199999928474426,571.0199584960938,0.12331948429346085
1737285477.1417375,12953,1737285477,136763326,,1.9216762781143188,1.9192811250686646,196,0.3199999928474426,571.0399780273438,0.09591199457645416
1737285477.2410092,12954,1737285477,236794641,,1.8709086179733276,1.8697563409805298,197,0.3199999928474426,571.0599975585938,0.06565115600824356
1737285477.3410883,12955,1737285477,336919178,,1.8039268255233765,1.8036541938781738,198,0.3199999928474426,571.0700073242188,0.03136802464723587
1737285477.4414108,12956,1737285477,436796011,,1.705467700958252,1.705465316772461,199,0.33000001311302185,571.0899658203125,0.0029056670609861612
1737285477.5407844,12957,1737285477,536722826,,1.6100343465805054,1.6099642515182495,199,0.33000001311302185,571.0999755859375,-0.01501703355461359
1737285477.6400564,12958,1737285477,636806456,,1.499366283416748,1.4991859197616577,199,0.33000001311302185,571.1099853515625,-0.023250039666891098
1737285477.7413352,12959,1737285477,736751011,,1.3629728555679321,1.3621121644973755,199,0.33000001311302185,571.1099853515625,-0.0484333336353302
1737285477.8394337,12960,1737285477,836878622,,1.2539759874343872,1.252274990081787,199,0.3400000035762787,571.1199951171875,-0.0652913749217987
1737285477.9403517,12961,1737285477,936966381,,1.1748237609863281,1.173397421836853,199,0.3400000035762787,571.1199951171875,-0.057874854654073715
1737285478.0432541,12962,1737285478,37915918,,1.1162357330322266,1.1147392988204956,199,0.3400000035762787,571.1199951171875,-0.057782601565122604
1737285478.1395936,12963,1737285478,138122863,,1.093502402305603,1.092566967010498,199,0.3400000035762787,571.1099853515625,-0.045224010944366455
1737285478.2417333,12964,1737285478,236589603,,1.1224645376205444,1.1220422983169556,199,0.36000001430511475,571.1099853515625,-0.030785871669650078
1737285478.3439894,12965,1737285478,336499455,,1.1620783805847168,1.1620570421218872,199,0.36000001430511475,571.1099853515625,0.0070508685894310474
1737285478.4417553,12966,1737285478,436954881,,1.2096948623657227,1.2081711292266846,200,0.3400000035762787,571.1099853515625,0.060694485902786255
1737285478.5431125,12967,1737285478,536647936,,1.2597662210464478,1.2573058605194092,200,0.3499999940395355,571.1199951171875,0.07869629561901093
1737285478.6410909,12968,1737285478,636849251,,1.3175339698791504,1.3146686553955078,200,0.3499999940395355,571.1300048828125,0.0868452712893486
1737285478.7430408,12969,1737285478,736584862,,1.390616774559021,1.3873041868209839,200,0.3499999940395355,571.1400146484375,0.09592840820550919
1737285478.8490636,12970,1737285478,836996936,,1.4892706871032715,1.4839231967926025,200,0.3400000035762787,571.1499633789062,0.12609027326107025
1737285478.9403718,12971,1737285478,936807658,,1.5801576375961304,1.5746878385543823,200,0.3400000035762787,571.1599731445312,0.1313636600971222
1737285479.0421555,12972,1737285479,36875362,,1.6517808437347412,1.6474981307983398,200,0.3400000035762787,571.1699829101562,0.11886817961931229
1737285479.1420946,12973,1737285479,136912621,,1.7110410928726196,1.7065848112106323,200,0.33000001311302185,571.1799926757812,0.12340951710939407
1737285479.241486,12974,1737285479,237192714,,1.7204951047897339,1.7161864042282104,199,0.33000001311302185,571.1900024414062,0.12168756872415543
1737285479.3422062,12975,1737285479,337890047,,1.689074993133545,1.684583067893982,198,0.33000001311302185,571.2000122070312,0.12310343980789185
1737285479.4448233,12976,1737285479,437666973,,1.6176166534423828,1.614174485206604,198,0.33000001311302185,571.2099609375,0.10547135025262833
1737285479.5417974,12977,1737285479,536933677,,1.541061520576477,1.5377371311187744,197,0.3199999928474426,571.219970703125,0.10117070376873016
1737285479.6499364,12978,1737285479,637135862,,1.4579253196716309,1.454681396484375,197,0.3199999928474426,571.22998046875,0.09720291197299957
1737285479.7419777,12979,1737285479,736951602,,1.3746165037155151,1.3725526332855225,197,0.3199999928474426,571.25,0.07529657334089279
1737285479.8447711,12980,1737285479,836604732,,1.2734557390213013,1.2728633880615234,197,0.3199999928474426,571.260009765625,0.0388394296169281
1737285479.9424558,12981,1737285479,937499584,,1.1699732542037964,1.169743537902832,197,0.33000001311302185,571.260009765625,0.023190177977085114
1737285480.0433073,12982,1737285480,36948584,,1.0542410612106323,1.0542306900024414,198,0.33000001311302185,571.2699584960938,0.004688648972660303
1737285480.142616,12983,1737285480,138298102,,0.9583068490028381,0.9583068490028381,198,0.33000001311302185,571.2699584960938,4.1608334868215024e-05
1737285480.2405016,12984,1737285480,237488065,,0.8518832921981812,0.8517916202545166,199,0.33000001311302185,571.2799682617188,-0.012498998083174229
1737285480.3531916,12985,1737285480,336744917,,0.7418212890625,0.74141925573349,200,0.3400000035762787,571.2799682617188,-0.024421067908406258
1737285480.445441,12986,1737285480,438395380,,0.6268330812454224,0.6264597773551941,200,0.36000001430511475,571.2799682617188,-0.021629206836223602
1737285480.541256,12987,1737285480,538675139,,0.5084303021430969,0.5070727467536926,201,0.3799999952316284,571.2899780273438,0.037129148840904236
1737285480.6407087,12988,1737285480,637113491,,0.3635431230068207,0.3498630225658417,201,0.3799999952316284,571.2899780273438,0.09879002720117569
1737285480.743069,12989,1737285480,737435380,,0.22978469729423523,0.17027844488620758,201,0.36000001430511475,571.3099975585938,0.1542927622795105
1737285480.8421369,12990,1737285480,838337065,,0.20014090836048126,0.035144902765750885,200,0.3499999940395355,571.3300170898438,0.19703100621700287
1737285480.9456775,12991,1737285480,937181028,,0.2748517692089081,0.13881176710128784,199,0.3499999940395355,571.3499755859375,0.2372230589389801
1737285481.0423052,12992,1737285481,37059028,,0.39332473278045654,0.3177340626716614,197,0.3400000035762787,571.3699951171875,0.2318391501903534
1737285481.1408432,12993,1737285481,137216620,,0.50746089220047,0.45568767189979553,195,0.33000001311302185,571.3900146484375,0.22330543398857117
1737285481.2425923,12994,1737285481,237497898,,0.6287790536880493,0.5905130505561829,192,0.33000001311302185,571.4099731445312,0.21600329875946045
1737285481.3427868,12995,1737285481,337034379,,0.7414520382881165,0.7158768773078918,188,0.33000001311302185,571.4199829101562,0.1930580735206604
1737285481.4425752,12996,1737285481,437062268,,0.8422641754150391,0.828944206237793,182,0.3400000035762787,571.4400024414062,0.149199441075325
1737285481.5444193,12997,1737285481,537390787,,0.9427968859672546,0.9365379214286804,175,0.3400000035762787,571.4500122070312,0.10845603048801422
1737285481.6433005,12998,1737285481,637556305,,1.0466159582138062,1.0404703617095947,167,0.3499999940395355,571.4500122070312,0.11325312405824661
1737285481.7475934,12999,1737285481,737833842,,1.1497852802276611,1.1451722383499146,159,0.3400000035762787,571.4599609375,0.10289191454648972
1737285481.8426936,13000,1737285481,837423416,,1.2523902654647827,1.2479450702667236,150,0.3400000035762787,571.4599609375,0.1054246798157692
1737285481.9470997,13001,1737285481,937470138,,1.3377598524093628,1.3340002298355103,142,0.3400000035762787,571.4599609375,0.10022357106208801
1737285482.041838,13002,1737285482,37538360,,1.372984766960144,1.3702585697174072,135,0.3499999940395355,571.469970703125,0.08648104965686798
1737285482.1436248,13003,1737285482,137645212,,1.458935260772705,1.4550464153289795,127,0.3400000035762787,571.469970703125,0.10645231604576111
1737285482.241478,13004,1737285482,236096879,,1.4776242971420288,1.473742961883545,120,0.3400000035762787,571.469970703125,0.10703098028898239
1737285482.3506072,13005,1737285482,338747138,,1.5065782070159912,1.5026744604110718,114,0.3400000035762787,571.47998046875,0.10838380455970764
1737285482.4404414,13006,1737285482,436241138,,1.5771994590759277,1.5728267431259155,108,0.3499999940395355,571.47998046875,0.11736278980970383
1737285482.5384712,13007,1737285482,536368212,,1.5888359546661377,1.5845611095428467,102,0.3499999940395355,571.489990234375,0.11647357046604156
1737285482.6410894,13008,1737285482,636487434,,1.660071611404419,1.654771089553833,96,0.3499999940395355,571.5,0.13255317509174347
1737285482.7431421,13009,1737285482,737420434,,1.7257386445999146,1.7190297842025757,91,0.3400000035762787,571.510009765625,0.15202072262763977
1737285482.8534193,13010,1737285482,837677934,,1.7860966920852661,1.7763863801956177,85,0.33000001311302185,571.5299682617188,0.1859915852546692
1737285482.9388812,13011,1737285482,936919249,,1.7505364418029785,1.7440732717514038,80,0.33000001311302185,571.5399780273438,0.15028876066207886
1737285483.0391243,13012,1737285483,36789693,,1.690586805343628,1.6844687461853027,74,0.33000001311302185,571.5599975585938,0.14369617402553558
1737285483.1394057,13013,1737285483,136426489,,1.649449110031128,1.6430017948150635,69,0.33000001311302185,571.5700073242188,0.1456960141658783
1737285483.2409265,13014,1737285483,236651730,,1.5598045587539673,1.5556504726409912,63,0.33000001311302185,571.5899658203125,0.11376181244850159
1737285483.3404293,13015,1737285483,336454637,,1.4400010108947754,1.437310814857483,58,0.3199999928474426,571.5999755859375,0.08798045665025711
1737285483.4419,13016,1737285483,436810045,,1.3490145206451416,1.3469610214233398,51,0.3199999928474426,571.6099853515625,0.07440824061632156
1737285483.5408275,13017,1737285483,536715230,,1.2668339014053345,1.2653664350509644,45,0.33000001311302185,571.6199951171875,0.060958653688430786
1737285483.6418095,13018,1737285483,636800396,,1.1557185649871826,1.1553515195846558,39,0.33000001311302185,571.6300048828125,0.029127316549420357
1737285483.7421224,13019,1737285483,737107507,,1.0426760911941528,1.0425883531570435,33,0.33000001311302185,571.6300048828125,0.013516885228455067
1737285483.8439755,13020,1737285483,836508989,,0.9568251371383667,0.9567561149597168,27,0.33000001311302185,571.6300048828125,0.011493678204715252
1737285483.9400532,13021,1737285483,936533248,,0.8467535972595215,0.8464811444282532,20,0.33000001311302185,571.6300048828125,-0.02148004062473774
1737285484.0414634,13022,1737285484,36518915,,0.7613419890403748,0.7607404589653015,15,0.33000001311302185,571.6300048828125,-0.03025902807712555
1737285484.1417196,13023,1737285484,136683674,,0.6655265092849731,0.6648809909820557,11,0.33000001311302185,571.6300048828125,-0.02930663526058197
1737285484.2402987,13024,1737285484,236581100,,0.5870147943496704,0.5867712497711182,8,0.33000001311302185,571.6300048828125,-0.01690877042710781
1737285484.341412,13025,1737285484,336765266,,0.5236578583717346,0.5236138701438904,7,0.33000001311302185,571.6300048828125,-0.00679190456867218
1737285484.4433393,13026,1737285484,436716803,,0.45979419350624084,0.4596635103225708,7,0.33000001311302185,571.6300048828125,-0.010961984284222126
1737285484.5424433,13027,1737285484,537487414,,0.40822067856788635,0.40728428959846497,8,0.3499999940395355,571.6199951171875,-0.027633901685476303
1737285484.6450074,13028,1737285484,637630840,,0.37615591287612915,0.3761415481567383,9,0.3400000035762787,571.6199951171875,-0.003288492327556014
1737285484.7460167,13029,1737285484,737522970,,0.3260064721107483,0.3257808983325958,11,0.33000001311302185,571.6199951171875,0.01212471816688776
1737285484.8494778,13030,1737285484,837801211,,0.3415040671825409,0.33852633833885193,14,0.3400000035762787,571.6199951171875,0.04499966651201248
1737285484.9532154,13031,1737285484,937730507,,0.4100315570831299,0.40336257219314575,17,0.36000001430511475,571.6300048828125,0.07365124672651291
1737285485.0503454,13032,1737285485,37437099,,0.49113890528678894,0.48155900835990906,19,0.36000001430511475,571.6300048828125,0.09653161466121674
1737285485.1381624,13033,1737285485,136490266,,0.6473380923271179,0.6334075927734375,21,0.3499999940395355,571.6300048828125,0.13357175886631012
1737285485.2521708,13034,1737285485,238157784,,0.8206329345703125,0.8099490404129028,22,0.3499999940395355,571.6400146484375,0.13198822736740112
1737285485.3450186,13035,1737285485,336859673,,1.0663039684295654,1.0577189922332764,23,0.36000001430511475,571.6499633789062,0.13503611087799072
1737285485.441938,13036,1737285485,436695525,,1.3087986707687378,1.300666093826294,23,0.36000001430511475,571.6499633789062,0.14567576348781586
1737285485.5437367,13037,1737285485,537729543,,1.582782506942749,1.5770812034606934,23,0.36000001430511475,571.6599731445312,0.13422122597694397
1737285485.6451428,13038,1737285485,637567877,,1.8323616981506348,1.8273495435714722,22,0.36000001430511475,571.6699829101562,0.13543564081192017
1737285485.7428806,13039,1737285485,738275358,,2.039020538330078,2.034604072570801,22,0.36000001430511475,571.6799926757812,0.13413237035274506
1737285485.8398385,13040,1737285485,836630969,,2.2154452800750732,2.2106595039367676,21,0.3499999940395355,571.6900024414062,0.1455419808626175
1737285485.9438488,13041,1737285485,937079932,,2.3622937202453613,2.357726812362671,21,0.3400000035762787,571.7000122070312,0.14681898057460785
1737285486.0403924,13042,1737285486,39325988,,2.4659171104431152,2.4615602493286133,20,0.3400000035762787,571.719970703125,0.1465248316526413
1737285486.143479,13043,1737285486,136820710,,2.5285065174102783,2.524143934249878,20,0.33000001311302185,571.739990234375,0.14846788346767426
1737285486.2430158,13044,1737285486,236987062,,2.5558393001556396,2.5514285564422607,19,0.33000001311302185,571.75,0.15008823573589325
1737285486.3431017,13045,1737285486,336973228,,2.5375189781188965,2.533297061920166,19,0.3199999928474426,571.7699584960938,0.1463158279657364
1737285486.4401016,13046,1737285486,437051784,,2.5089151859283447,2.5054125785827637,18,0.3199999928474426,571.7899780273438,0.13252350687980652
1737285486.542046,13047,1737285486,537067135,,2.452524185180664,2.4500036239624023,18,0.3199999928474426,571.8099975585938,0.11116903275251389
1737285486.6401815,13048,1737285486,636714284,,2.3905141353607178,2.3882882595062256,18,0.3100000023841858,571.8399658203125,0.10313542932271957
1737285486.7424092,13049,1737285486,737148228,,2.3261990547180176,2.32509446144104,17,0.3100000023841858,571.8599853515625,0.07168036699295044
1737285486.8453352,13050,1737285486,837206561,,2.2804183959960938,2.280151128768921,18,0.3100000023841858,571.8800048828125,0.03491062670946121
1737285486.9412777,13051,1737285486,937062006,,2.215940475463867,2.2158360481262207,19,0.3199999928474426,571.8999633789062,-0.021514713764190674
1737285487.0428493,13052,1737285487,37483820,,2.1679656505584717,2.16750168800354,21,0.33000001311302185,571.9099731445312,-0.04484708234667778
1737285487.1411529,13053,1737285487,137281394,,2.1282389163970947,2.12722110748291,25,0.33000001311302185,571.9199829101562,-0.06580591201782227
1737285487.2425086,13054,1737285487,237335672,,2.103966474533081,2.102562189102173,30,0.33000001311302185,571.9199829101562,-0.0768573060631752
1737285487.3415778,13055,1737285487,337191357,,2.043140411376953,2.0398025512695312,35,0.33000001311302185,571.9199829101562,-0.11674037575721741
1737285487.4407003,13056,1737285487,437277653,,1.9980629682540894,1.9949599504470825,40,0.3400000035762787,571.9099731445312,-0.11131133884191513
1737285487.5407119,13057,1737285487,537268487,,1.9061018228530884,1.9012768268585205,46,0.3400000035762787,571.9099731445312,-0.13553735613822937
1737285487.6419015,13058,1737285487,637520264,,1.834509015083313,1.8305264711380005,50,0.3400000035762787,571.8999633789062,-0.12081260234117508
1737285487.742656,13059,1737285487,737538320,,1.7446454763412476,1.7405054569244385,54,0.3400000035762787,571.8999633789062,-0.12012052536010742
1737285487.8403742,13060,1737285487,837474894,,1.6360981464385986,1.630674958229065,58,0.3400000035762787,571.8900146484375,-0.13310053944587708
1737285487.9414432,13061,1737285487,937692764,,1.5254309177398682,1.5202072858810425,61,0.3400000035762787,571.8800048828125,-0.12613368034362793
1737285488.040817,13062,1737285488,37541709,,1.4201542139053345,1.4175516366958618,63,0.3400000035762787,571.8800048828125,-0.08594024181365967
1737285488.14286,13063,1737285488,137568079,,1.2880524396896362,1.284799337387085,64,0.3400000035762787,571.8800048828125,-0.09148657321929932
1737285488.2402914,13064,1737285488,237162264,,1.1792290210723877,1.1764413118362427,65,0.3400000035762787,571.8699951171875,-0.08103536814451218
1737285488.3413653,13065,1737285488,337591616,,1.0676292181015015,1.0662397146224976,66,0.3400000035762787,571.8699951171875,-0.054452084004879
1737285488.4410422,13066,1737285488,437484394,,0.9592666625976562,0.9574583768844604,67,0.3400000035762787,571.8599853515625,-0.0588734932243824
1737285488.542442,13067,1737285488,537680634,,0.8486543297767639,0.8469994068145752,68,0.3400000035762787,571.8599853515625,-0.05297393351793289
1737285488.6410086,13068,1737285488,637650060,,0.7408173084259033,0.7386807203292847,69,0.3400000035762787,571.8499755859375,-0.05622298642992973
1737285488.7414434,13069,1737285488,738227079,,0.6652333736419678,0.6641695499420166,71,0.3400000035762787,571.8499755859375,-0.037607476115226746
1737285488.8421257,13070,1737285488,837586579,,0.5888035893440247,0.587307333946228,73,0.3400000035762787,571.8399658203125,-0.04194890335202217
1737285488.9423294,13071,1737285488,937615893,,0.5157210230827332,0.5147467851638794,75,0.3400000035762787,571.8300170898438,-0.03168404474854469
1737285489.0419488,13072,1737285489,37757838,,0.45346131920814514,0.45251670479774475,78,0.3400000035762787,571.8200073242188,-0.029254235327243805
1737285489.1403196,13073,1737285489,137491597,,0.3880919814109802,0.3874548673629761,82,0.3400000035762787,571.8099975585938,-0.022228943184018135
1737285489.2418778,13074,1737285489,237551541,,0.34376460313796997,0.3437310755252838,86,0.33000001311302185,571.7999877929688,0.004802622366696596
1737285489.3396866,13075,1737285489,336694078,,0.2843250036239624,0.28411805629730225,91,0.3400000035762787,571.7799682617188,-0.01084620226174593
1737285489.4397037,13076,1737285489,437386041,,0.24705180525779724,0.2463470697402954,97,0.3400000035762787,571.7699584960938,0.0186469703912735
1737285489.5409484,13077,1737285489,537393671,,0.2259693294763565,0.22152061760425568,104,0.33000001311302185,571.760009765625,0.044617846608161926
1737285489.6424534,13078,1737285489,637608115,,0.19160108268260956,0.18489083647727966,110,0.33000001311302185,571.760009765625,0.05026286095380783
1737285489.7411668,13079,1737285489,736581096,,0.17781977355480194,0.17263323068618774,116,0.33000001311302185,571.75,0.042633820325136185
1737285489.8432755,13080,1737285489,838539170,,0.19654130935668945,0.19271501898765564,119,0.3400000035762787,571.739990234375,0.03859278932213783
1737285489.941336,13081,1737285489,937716911,,0.2040841281414032,0.1990882009267807,121,0.3400000035762787,571.739990234375,0.04488006979227066
1737285490.0435047,13082,1737285490,37711726,,0.2484368532896042,0.24823686480522156,121,0.3499999940395355,571.72998046875,0.009966296143829823
1737285490.1411176,13083,1737285490,136686874,,0.2495877593755722,0.2467491328716278,120,0.3499999940395355,571.719970703125,0.03753543645143509
1737285490.2411506,13084,1737285490,236716985,,0.2629964351654053,0.2612101137638092,118,0.3499999940395355,571.7099609375,0.0306005347520113
1737285490.3398929,13085,1737285490,336843818,,0.2736399173736572,0.2691664397716522,116,0.3499999940395355,571.7099609375,0.049277111887931824
1737285490.4442759,13086,1737285490,436899411,,0.22728006541728973,0.21153753995895386,113,0.3499999940395355,571.7000122070312,0.08311496675014496
1737285490.5390682,13087,1737285490,536460411,,0.21833297610282898,0.1922674924135208,111,0.3499999940395355,571.7099609375,0.10345286875963211
1737285490.6425226,13088,1737285490,636724411,,0.20339469611644745,0.17336629331111908,109,0.3400000035762787,571.7099609375,0.10636507719755173
1737285490.7425528,13089,1737285490,736733818,,0.18513382971286774,0.13896223902702332,107,0.3400000035762787,571.719970703125,0.12232757359743118
1737285490.8416684,13090,1737285490,836701596,,0.17987076938152313,0.10290966182947159,107,0.33000001311302185,571.72998046875,0.1475231945514679
1737285490.9416842,13091,1737285490,936784522,,0.16959600150585175,0.1048048883676529,106,0.33000001311302185,571.739990234375,0.13333694636821747
1737285491.04185,13092,1737285491,36810225,,0.16721230745315552,0.11947173625230789,106,0.33000001311302185,571.739990234375,0.1169891431927681
1737285491.1403887,13093,1737285491,136881392,,0.16012884676456451,0.1290546953678131,106,0.33000001311302185,571.75,0.09479521214962006
1737285491.2419705,13094,1737285491,236863040,,0.15296801924705505,0.1267564594745636,106,0.33000001311302185,571.760009765625,0.08562719821929932
1737285491.3412719,13095,1737285491,336824484,,0.14249743521213531,0.10986976325511932,107,0.33000001311302185,571.760009765625,0.09074223786592484
1737285491.4419715,13096,1737285491,436613318,,0.12565761804580688,0.09646525233983994,107,0.33000001311302185,571.7699584960938,0.08052511513233185
1737285491.538674,13097,1737285491,536526003,,0.10931188613176346,0.0924648642539978,108,0.33000001311302185,571.7799682617188,0.058303821831941605
1737285491.639295,13098,1737285491,636529632,,0.08026488125324249,0.055543798953294754,109,0.33000001311302185,571.7799682617188,0.05794253200292587
1737285491.7394617,13099,1737285491,736563169,,0.06392310559749603,0.028407519683241844,109,0.33000001311302185,571.7799682617188,0.05726409703493118
1737285491.841496,13100,1737285491,836576317,,0.05986737459897995,0.03360467404127121,109,0.33000001311302185,571.7799682617188,0.04954622685909271
1737285491.9413152,13101,1737285491,936826780,,0.06358911842107773,0.05361132323741913,109,0.33000001311302185,571.7799682617188,0.034196510910987854
1737285492.0415769,13102,1737285492,37004725,,0.04772123694419861,0.037648774683475494,109,0.33000001311302185,571.7799682617188,0.029323820024728775
1737285492.1428444,13103,1737285492,138308558,,0.05078816041350365,0.035169463604688644,109,0.33000001311302185,571.7799682617188,0.03664076700806618
1737285492.2429776,13104,1737285492,237053558,,0.06002727150917053,0.036836013197898865,109,0.33000001311302185,571.7799682617188,0.04739600792527199
1737285492.3420548,13105,1737285492,336961021,,0.05335700139403343,0.03893715515732765,109,0.33000001311302185,571.7799682617188,0.03648105263710022
1737285492.4406822,13106,1737285492,436860336,,0.04275348410010338,0.033375486731529236,109,0.33000001311302185,571.7799682617188,0.026719605550169945
1737285492.540668,13107,1737285492,536782169,,0.027882928028702736,0.015767216682434082,109,0.33000001311302185,571.7799682617188,0.022996794432401657
1737285492.6412306,13108,1737285492,637121724,,0.060147881507873535,0.043126046657562256,109,0.33000001311302185,571.7799682617188,0.041927456855773926
1737285492.7425332,13109,1737285492,737146021,,0.029568148776888847,0.024158064275979996,109,0.33000001311302185,571.7799682617188,0.017048852518200874
1737285492.8419888,13110,1737285492,837121095,,0.030105741694569588,0.015759164467453957,109,0.33000001311302185,571.7799682617188,0.02565159648656845
1737285492.9425492,13111,1737285492,937332446,,0.018362293019890785,0.0003088413504883647,109,0.33000001311302185,571.7799682617188,0.018359696492552757
1737285493.0424066,13112,1737285493,37506650,,0.043767500668764114,0.02572891302406788,109,0.33000001311302185,571.7799682617188,0.035406459122896194
1737285493.1402137,13113,1737285493,137439706,,0.03344916179776192,0.002664261730387807,109,0.33000001311302185,571.7799682617188,0.033342886716127396
1737285493.2421656,13114,1737285493,237267724,,0.03377726301550865,0.02189331315457821,109,0.33000001311302185,571.7799682617188,0.025721320882439613
1737285493.3437543,13115,1737285493,337019205,,0.03648830205202103,0.015197252854704857,109,0.33000001311302185,571.7799682617188,0.03317287564277649
1737285493.4441803,13116,1737285493,437014131,,0.03783343359827995,0.022735189646482468,109,0.33000001311302185,571.7799682617188,0.030240368098020554
1737285493.5425396,13117,1737285493,537148576,,0.050318554043769836,0.018776394426822662,109,0.33000001311302185,571.7799682617188,0.046684086322784424
1737285493.6442208,13118,1737285493,637089946,,0.04833107814192772,0.04555686563253403,109,0.33000001311302185,571.7799682617188,0.016138939186930656
1737285493.743598,13119,1737285493,737282335,,0.04214717820286751,0.03016396425664425,109,0.33000001311302185,571.7799682617188,0.029436713084578514
1737285493.8495982,13120,1737285493,837102964,,0.05186418071389198,0.03502858057618141,109,0.33000001311302185,571.7799682617188,0.038247767835855484
1737285493.9430676,13121,1737285493,936907390,,0.06512649357318878,0.0461050420999527,109,0.33000001311302185,571.7799682617188,0.04599766433238983
1737285494.0414884,13122,1737285494,37130761,,0.0694287121295929,0.06309274584054947,109,0.33000001311302185,571.7799682617188,0.028976719826459885
1737285494.1470277,13123,1737285494,137514223,,0.07682789862155914,0.06948576867580414,109,0.33000001311302185,571.7799682617188,0.03277581185102463
1737285494.2414029,13124,1737285494,237089131,,0.0781828910112381,0.061317335814237595,109,0.33000001311302185,571.7799682617188,0.048505134880542755
1737285494.3403442,13125,1737285494,337016094,,0.0897301509976387,0.08564592152833939,109,0.33000001311302185,571.7799682617188,0.026763346046209335
1737285494.4404957,13126,1737285494,437418446,,0.08466144651174545,0.07913554459810257,109,0.33000001311302185,571.7799682617188,0.030085304751992226
1737285494.5407107,13127,1737285494,537241742,,0.09203033149242401,0.08368950337171555,109,0.3199999928474426,571.7799682617188,0.03828379511833191
1737285494.641634,13128,1737285494,637561742,,0.10110422223806381,0.08871990442276001,109,0.3199999928474426,571.7799682617188,0.04848548024892807
1737285494.7407355,13129,1737285494,737277705,,0.1002039834856987,0.09903047233819962,109,0.33000001311302185,571.7899780273438,0.015290623530745506
1737285494.8415418,13130,1737285494,837285519,,0.10032480955123901,0.09417428076267242,109,0.33000001311302185,571.7899780273438,0.03458717465400696
1737285494.9408076,13131,1737285494,937416927,,0.10726658254861832,0.10381592810153961,109,0.33000001311302185,571.7899780273438,0.02698838710784912
1737285495.0417883,13132,1737285495,37357019,,0.12269480526447296,0.12039810419082642,109,0.3199999928474426,571.7999877929688,0.023628635331988335
1737285495.1404352,13133,1737285495,137424371,,0.11476095020771027,0.1099073588848114,109,0.3199999928474426,571.7999877929688,0.033021923154592514
1737285495.240321,13134,1737285495,237181260,,0.1213955208659172,0.11659328639507294,109,0.3199999928474426,571.7999877929688,0.033806491643190384
1737285495.3436012,13135,1737285495,337340204,,0.12255032360553741,0.12136638909578323,110,0.3199999928474426,571.7999877929688,0.016993634402751923
1737285495.444423,13136,1737285495,437357463,,0.1097334623336792,0.1077926829457283,110,0.33000001311302185,571.7999877929688,0.02054671198129654
1737285495.543809,13137,1737285495,537369241,,0.11576678603887558,0.11575304716825485,110,0.33000001311302185,571.7999877929688,0.0017834050813689828
1737285495.641758,13138,1737285495,637239889,,0.11255006492137909,0.11252167820930481,110,0.33000001311302185,571.7999877929688,0.0025281591806560755
1737285495.7418506,13139,1737285495,737266408,,0.11053865402936935,0.11035671830177307,110,0.33000001311302185,571.7999877929688,0.006339450366795063
1737285495.8427308,13140,1737285495,837493260,,0.10631398856639862,0.10630442947149277,110,0.33000001311302185,571.7999877929688,-0.00142617744859308
1737285495.939899,13141,1737285495,937449759,,0.09859839826822281,0.09559426456689835,110,0.33000001311302185,571.7999877929688,0.02415328100323677
1737285496.043986,13142,1737285496,37557111,,0.10219265520572662,0.09897393733263016,110,0.33000001311302185,571.7999877929688,0.02544601634144783
1737285496.144136,13143,1737285496,137571278,,0.10396724939346313,0.10250101238489151,110,0.33000001311302185,571.7999877929688,0.01739921234548092
1737285496.2463427,13144,1737285496,237415889,,0.10143991559743881,0.0989021584391594,110,0.33000001311302185,571.7999877929688,0.022548116743564606
1737285496.3395867,13145,1737285496,337806796,,0.1042785495519638,0.10401247441768646,110,0.33000001311302185,571.8099975585938,0.007444306276738644
1737285496.4419892,13146,1737285496,437567204,,0.1009264662861824,0.09951865673065186,110,0.33000001311302185,571.8099975585938,0.016798442229628563
1737285496.5408616,13147,1737285496,537543111,,0.10590660572052002,0.10583887249231339,110,0.33000001311302185,571.8099975585938,-0.003787136869505048
1737285496.6416597,13148,1737285496,637745778,,0.09188714623451233,0.09188555181026459,111,0.33000001311302185,571.8099975585938,-0.0005401143571361899
1737285496.739147,13149,1737285496,736588555,,0.0865180492401123,0.08650580793619156,111,0.33000001311302185,571.8099975585938,-0.0014551806962117553
1737285496.8433452,13150,1737285496,837521777,,0.09169492870569229,0.09167914092540741,111,0.33000001311302185,571.8099975585938,-0.001701538683846593
1737285496.9439833,13151,1737285496,937653296,,0.08788276463747025,0.08669847995042801,111,0.33000001311302185,571.8099975585938,0.014378922060132027
1737285497.0397685,13152,1737285497,37451574,,0.08503362536430359,0.08414509892463684,111,0.33000001311302185,571.8099975585938,-0.012260464020073414
1737285497.1425948,13153,1737285497,137786666,,0.08361051976680756,0.08360259234905243,111,0.33000001311302185,571.8099975585938,0.001151285134255886
1737285497.2432878,13154,1737285497,237977518,,0.08783363550901413,0.08654424548149109,111,0.33000001311302185,571.8099975585938,-0.014994692988693714
1737285497.3412383,13155,1737285497,336735703,,0.0839468315243721,0.08318395912647247,111,0.33000001311302185,571.8099975585938,-0.011291530914604664
1737285497.4419944,13156,1737285497,436665314,,0.070818692445755,0.07054891437292099,111,0.33000001311302185,571.8099975585938,0.006175520829856396
1737285497.5394654,13157,1737285497,536533647,,0.07705522328615189,0.0755108892917633,111,0.33000001311302185,571.8099975585938,-0.015349720604717731
1737285497.6432552,13158,1737285497,637803814,,0.07521817833185196,0.07509128004312515,111,0.33000001311302185,571.8099975585938,0.004367396701127291
1737285497.7398639,13159,1737285497,736752203,,0.07553165405988693,0.07550522685050964,111,0.33000001311302185,571.8099975585938,-0.0019977004267275333
1737285497.8409123,13160,1737285497,836620777,,0.07676834613084793,0.07674024999141693,111,0.33000001311302185,571.8099975585938,0.0020768132526427507
1737285497.942063,13161,1737285497,936622925,,0.0695023164153099,0.06922384351491928,111,0.33000001311302185,571.8099975585938,0.0062154801562428474
1737285498.041218,13162,1737285498,36669092,,0.06951349228620529,0.06935839354991913,111,0.33000001311302185,571.8099975585938,0.004640992730855942
1737285498.140782,13163,1737285498,136622369,,0.06522367894649506,0.06367703527212143,111,0.33000001311302185,571.8200073242188,0.014119605533778667
1737285498.2416832,13164,1737285498,236482073,,0.056437790393829346,0.056074801832437515,111,0.33000001311302185,571.8200073242188,0.006390687078237534
1737285498.3479354,13165,1737285498,336589314,,0.05892570689320564,0.0549154132604599,110,0.33000001311302185,571.8200073242188,0.021366707980632782
1737285498.441246,13166,1737285498,436601980,,0.058404721319675446,0.058001771569252014,110,0.33000001311302185,571.8200073242188,-0.006848789285868406
1737285498.5418522,13167,1737285498,536801554,,0.050908371806144714,0.05090228468179703,110,0.33000001311302185,571.8200073242188,-0.0007870905683375895
1737285498.6423004,13168,1737285498,636857184,,0.048174310475587845,0.04675746709108353,110,0.33000001311302185,571.8200073242188,-0.011597572825849056
1737285498.7420223,13169,1737285498,737043721,,0.0504874624311924,0.04973458871245384,110,0.33000001311302185,571.8200073242188,-0.008686481975018978
1737285498.8421042,13170,1737285498,837054776,,0.04844340682029724,0.04685775935649872,110,0.33000001311302185,571.8200073242188,0.012292851693928242
1737285498.9405477,13171,1737285498,936908128,,0.0473615899682045,0.04735978692770004,110,0.33000001311302185,571.8200073242188,-0.00041354456334374845
1737285499.0422194,13172,1737285499,37015258,,0.03898070380091667,0.0383024737238884,110,0.33000001311302185,571.8200073242188,0.007239873521029949
1737285499.14192,13173,1737285499,136880443,,0.04609603434801102,0.046063389629125595,111,0.3199999928474426,571.8200073242188,-0.001734499353915453
1737285499.24096,13174,1737285499,236931202,,0.032584864646196365,0.03252824768424034,110,0.33000001311302185,571.8200073242188,0.0019200110109522939
1737285499.341896,13175,1737285499,336917794,,0.0473678857088089,0.047191072255373,110,0.33000001311302185,571.8200073242188,-0.004088921006768942
1737285499.4419038,13176,1737285499,437035591,,0.03637387603521347,0.03465820103883743,110,0.33000001311302185,571.8099975585938,-0.011039375327527523
1737285499.5419836,13177,1737285499,537000405,,0.017114194110035896,0.016415664926171303,110,0.33000001311302185,571.8099975585938,0.004839588422328234
1737285499.6390576,13178,1737285499,636832498,,0.020153293386101723,0.0198224950581789,110,0.33000001311302185,571.8099975585938,0.0036364849656820297
1737285499.747633,13179,1737285499,737046979,,0.036562055349349976,0.032886337488889694,110,0.33000001311302185,571.8200073242188,0.01597725786268711
1737285499.841049,13180,1737285499,837028072,,0.012579599395394325,0.012538900598883629,110,0.3199999928474426,571.8200073242188,0.0010110785951837897
1737285499.942582,13181,1737285499,937897516,,0.037263963371515274,0.036953721195459366,110,0.3199999928474426,571.8200073242188,0.004798472858965397
1737285500.0412424,13182,1737285500,36909294,,0.02584793232381344,0.021975677460432053,110,0.3199999928474426,571.8300170898438,0.013608277775347233
1737285500.141177,13183,1737285500,137088053,,0.023397168144583702,0.02118210680782795,110,0.3199999928474426,571.8300170898438,-0.00993709359318018
1737285500.2432585,13184,1737285500,237046164,,0.016135450452566147,0.015297090634703636,110,0.3199999928474426,571.8300170898438,-0.005133400205522776
1737285500.3433883,13185,1737285500,336987349,,0.0352773554623127,0.028135264292359352,110,0.3100000023841858,571.8300170898438,-0.021281417459249496
1737285500.4433417,13186,1737285500,437066609,,0.037682097405195236,0.012239083647727966,110,0.2800000011920929,571.8200073242188,-0.03563909977674484
1737285500.549251,13187,1737285500,536919794,,0.1168561801314354,0.008205403573811054,110,0.27000001072883606,571.8200073242188,-0.11656774580478668
1737285500.6421485,13188,1737285500,637655497,,0.21222810447216034,0.008203062228858471,110,0.2800000011920929,571.7999877929688,-0.21206949651241302
1737285500.7429857,13189,1737285500,737141127,,0.2995215058326721,0.009569158777594566,109,0.28999999165534973,571.7699584960938,-0.29936861991882324
1737285500.8432765,13190,1737285500,837097275,,0.36991211771965027,0.016205796971917152,109,0.30000001192092896,571.739990234375,-0.3695569634437561
1737285500.943904,13191,1737285500,937198238,,0.42775285243988037,0.043584514409303665,109,0.3100000023841858,571.7000122070312,-0.42552661895751953
1737285501.0476649,13192,1737285501,37234701,,0.4339379072189331,0.007104445248842239,108,0.3100000023841858,571.6499633789062,-0.4338797330856323
1737285501.1440148,13193,1737285501,137207812,,0.4679003059864044,0.05152331292629242,109,0.3199999928474426,571.6099853515625,-0.4650548994541168
1737285501.242074,13194,1737285501,237205534,,0.4711078703403473,0.0309126153588295,109,0.3199999928474426,571.5599975585938,-0.4700925946235657
1737285501.3421867,13195,1737285501,337154108,,0.44862931966781616,0.033803790807724,109,0.3199999928474426,571.5199584960938,-0.44735395908355713
1737285501.4485397,13196,1737285501,437285478,,0.45954999327659607,0.04424047842621803,109,0.3199999928474426,571.47998046875,-0.45741555094718933
1737285501.542412,13197,1737285501,537025126,,0.4604314863681793,0.05147898569703102,110,0.3199999928474426,571.4400024414062,-0.45754459500312805
1737285501.647712,13198,1737285501,637270460,,0.4474562108516693,0.04099602997303009,110,0.3199999928474426,571.3999633789062,-0.44557425379753113
1737285501.742293,13199,1737285501,737660126,,0.45114344358444214,0.05478905513882637,110,0.3199999928474426,571.3599853515625,-0.44780415296554565
1737285501.8420417,13200,1737285501,837279682,,0.44780033826828003,0.058541666716337204,111,0.3199999928474426,571.3200073242188,-0.44395720958709717
1737285501.9432833,13201,1737285501,937436830,,0.4425441324710846,0.0598447285592556,111,0.3199999928474426,571.2699584960938,-0.43847912549972534
1737285502.042368,13202,1737285502,37340700,,0.43504834175109863,0.051985643804073334,111,0.3199999928474426,571.22998046875,-0.43193116784095764
1737285502.1418743,13203,1737285502,137412589,,0.4335401952266693,0.05851638317108154,111,0.3199999928474426,571.1799926757812,-0.4295729696750641
1737285502.24209,13204,1737285502,237381367,,0.42349547147750854,0.060722947120666504,111,0.3199999928474426,571.1400146484375,-0.4191194772720337
1737285502.343256,13205,1737285502,337412645,,0.4213482737541199,0.04778610169887543,111,0.3199999928474426,571.0899658203125,-0.4186297357082367
1737285502.440236,13206,1737285502,437334515,,0.39997729659080505,0.042424265295267105,110,0.3199999928474426,571.0499877929688,-0.3977210521697998
1737285502.5407276,13207,1737285502,537393256,,0.4071350395679474,0.05278727784752846,110,0.3199999928474426,571.010009765625,-0.4036984443664551
1737285502.6441348,13208,1737285502,637257718,,0.3938993513584137,0.05026719346642494,110,0.3199999928474426,570.969970703125,-0.3906788229942322
1737285502.7435346,13209,1737285502,737418107,,0.40838396549224854,0.06283769011497498,110,0.3199999928474426,570.9299926757812,-0.4035206139087677
1737285502.8448317,13210,1737285502,837256737,,0.3833751380443573,0.05898459628224373,109,0.3199999928474426,570.8900146484375,-0.3788103759288788
1737285502.9436572,13211,1737285502,937349403,,0.4041164517402649,0.057569198310375214,109,0.3199999928474426,570.8499755859375,-0.3999948799610138
1737285503.044059,13212,1737285503,37337700,,0.4014464020729065,0.047030262649059296,109,0.3199999928474426,570.8099975585938,-0.39868202805519104
1737285503.1429143,13213,1737285503,137695496,,0.3927159905433655,0.03670945763587952,109,0.3199999928474426,570.7699584960938,-0.3909964859485626
1737285503.2429044,13214,1737285503,237705274,,0.39939984679222107,0.03736991062760353,110,0.3199999928474426,570.72998046875,-0.3976477384567261
