Time,header.seq,header.stamp.secs,header.stamp.nsecs,header.frame_id,status.status,status.service,latitude,longitude,altitude,position_covariance_0,position_covariance_1,position_covariance_2,position_covariance_3,position_covariance_4,position_covariance_5,position_covariance_6,position_covariance_7,position_covariance_8,position_covariance_type
1737285472.7269363,12809,1737285462,641673152,base_link,0,1,33.6371023,72.9912441,500.325860763929,0.48163599999999995,0.0,0.0,0.0,0.48163599999999995,0.0,0.0,0.0,0.9254439999999999,2
1737285472.7269876,12810,1737285462,641673408,base_link,0,1,33.6371023,72.9912441,500.325860763929,0.48163599999999995,0.0,0.0,0.0,0.48163599999999995,0.0,0.0,0.0,0.9254439999999999,2
1737285472.7271736,12811,1737285462,841672384,base_link,0,1,33.6371021,72.9912439,500.31585874374053,0.4830249999999999,0.0,0.0,0.0,0.4830249999999999,0.0,0.0,0.0,0.9273689999999999,2
1737285472.727259,12812,1737285462,841672640,base_link,0,1,33.6371021,72.9912439,500.31585874374053,0.4830249999999999,0.0,0.0,0.0,0.4830249999999999,0.0,0.0,0.0,0.9273689999999999,2
1737285472.7273746,12813,1737285463,41673152,base_link,0,1,33.6371019,72.9912439,500.3158575178846,0.48580899999999994,0.0,0.0,0.0,0.48580899999999994,0.0,0.0,0.0,0.9292959999999999,2
1737285472.727455,12814,1737285463,41673408,base_link,0,1,33.6371019,72.9912439,500.3158575178846,0.48580899999999994,0.0,0.0,0.0,0.48580899999999994,0.0,0.0,0.0,0.9292959999999999,2
1737285472.727534,12815,1737285463,241672384,base_link,0,1,33.6371018,72.9912439,500.3158569049568,0.4872039999999999,0.0,0.0,0.0,0.4872039999999999,0.0,0.0,0.0,0.9292959999999999,2
1737285472.7275996,12816,1737285463,241672384,base_link,0,1,33.6371018,72.9912439,500.3158569049568,0.4872039999999999,0.0,0.0,0.0,0.4872039999999999,0.0,0.0,0.0,0.9292959999999999,2
1737285472.7276752,12817,1737285463,441672384,base_link,0,1,33.6371016,72.991244,500.3058560762671,0.48999999999999994,0.0,0.0,0.0,0.48999999999999994,0.0,0.0,0.0,0.931225,2
1737285472.7277744,12818,1737285463,441672640,base_link,0,1,33.6371016,72.991244,500.3058560762671,0.48999999999999994,0.0,0.0,0.0,0.48999999999999994,0.0,0.0,0.0,0.931225,2
1737285472.7278523,12819,1737285463,641672128,base_link,0,1,33.6371015,72.9912441,500.30585586050523,0.4914009999999999,0.0,0.0,0.0,0.4914009999999999,0.0,0.0,0.0,0.933156,2
1737285472.7280211,12820,1737285463,641672128,base_link,0,1,33.6371015,72.9912441,500.30585586050523,0.4914009999999999,0.0,0.0,0.0,0.4914009999999999,0.0,0.0,0.0,0.933156,2
1737285472.7280886,12821,1737285463,841671360,base_link,0,1,33.6371014,72.9912443,500.2958560419092,0.49280399999999996,0.0,0.0,0.0,0.49280399999999996,0.0,0.0,0.0,0.935089,2
1737285472.7281919,12822,1737285463,841671616,base_link,0,1,33.6371014,72.9912443,500.2958560419092,0.49280399999999996,0.0,0.0,0.0,0.49280399999999996,0.0,0.0,0.0,0.935089,2
1737285472.7282596,12823,1737285464,41671104,base_link,0,1,33.6371011,72.9912443,500.3058542031268,0.49420899999999995,0.0,0.0,0.0,0.49420899999999995,0.0,0.0,0.0,0.935089,2
1737285472.7283077,12824,1737285464,41671360,base_link,0,1,33.6371011,72.9912443,500.3058542031268,0.49420899999999995,0.0,0.0,0.0,0.49420899999999995,0.0,0.0,0.0,0.935089,2
1737285472.7283556,12825,1737285464,241670592,base_link,0,1,33.6371009,72.9912445,500.28585377160334,0.49561599999999995,0.0,0.0,0.0,0.49561599999999995,0.0,0.0,0.0,0.935089,2
1737285472.7283943,12826,1737285464,241670848,base_link,0,1,33.6371009,72.9912445,500.28585377160334,0.49561599999999995,0.0,0.0,0.0,0.49561599999999995,0.0,0.0,0.0,0.935089,2
1737285472.7284536,12827,1737285464,441670080,base_link,0,1,33.6371008,72.9912446,500.2858535558417,0.49843599999999993,0.0,0.0,0.0,0.49843599999999993,0.0,0.0,0.0,0.937024,2
1737285472.7284954,12828,1737285464,441670592,base_link,0,1,33.6371008,72.9912446,500.2858535558417,0.49843599999999993,0.0,0.0,0.0,0.49843599999999993,0.0,0.0,0.0,0.937024,2
1737285472.7285683,12829,1737285464,641671104,base_link,0,1,33.6371006,72.9912447,500.295852727153,0.5012639999999999,0.0,0.0,0.0,0.5012639999999999,0.0,0.0,0.0,0.937024,2
1737285472.728636,12830,1737285464,641671616,base_link,0,1,33.6371006,72.9912447,500.295852727153,0.5012639999999999,0.0,0.0,0.0,0.5012639999999999,0.0,0.0,0.0,0.937024,2
1737285472.7286968,12831,1737285464,841670848,base_link,0,1,33.6371005,72.9912446,500.2958517170605,0.5026809999999999,0.0,0.0,0.0,0.5026809999999999,0.0,0.0,0.0,0.937024,2
1737285472.7287917,12832,1737285464,841671360,base_link,0,1,33.6371005,72.9912446,500.2958517170605,0.5026809999999999,0.0,0.0,0.0,0.5026809999999999,0.0,0.0,0.0,0.937024,2
1737285472.728869,12833,1737285465,41670848,base_link,0,1,33.6371005,72.9912446,500.2858517170605,0.505521,0.0,0.0,0.0,0.505521,0.0,0.0,0.0,0.937024,2
1737285472.728962,12834,1737285465,41671360,base_link,0,1,33.6371005,72.9912446,500.2858517170605,0.505521,0.0,0.0,0.0,0.505521,0.0,0.0,0.0,0.937024,2
1737285472.7290437,12835,1737285465,241670848,base_link,0,1,33.6371004,72.9912446,500.2958511041336,0.506944,0.0,0.0,0.0,0.506944,0.0,0.0,0.0,0.937024,2
1737285472.72913,12836,1737285465,241671616,base_link,0,1,33.6371004,72.9912446,500.2958511041336,0.506944,0.0,0.0,0.0,0.506944,0.0,0.0,0.0,0.937024,2
1737285472.729201,12837,1737285465,441671360,base_link,0,1,33.6371004,72.9912446,500.3058511041336,0.508369,0.0,0.0,0.0,0.508369,0.0,0.0,0.0,0.937024,2
1737285472.7292767,12838,1737285465,441671872,base_link,0,1,33.6371004,72.9912446,500.3058511041336,0.508369,0.0,0.0,0.0,0.508369,0.0,0.0,0.0,0.937024,2
1737285472.7293508,12839,1737285465,641671360,base_link,0,1,33.6371004,72.9912445,500.30585070696816,0.5097959999999999,0.0,0.0,0.0,0.5097959999999999,0.0,0.0,0.0,0.937024,2
1737285472.7294285,12840,1737285465,641672128,base_link,0,1,33.6371004,72.9912445,500.30585070696816,0.5097959999999999,0.0,0.0,0.0,0.5097959999999999,0.0,0.0,0.0,0.937024,2
1737285472.7295296,12841,1737285465,841671872,base_link,0,1,33.6371004,72.9912445,500.29585070696817,0.5097959999999999,0.0,0.0,0.0,0.5097959999999999,0.0,0.0,0.0,0.937024,2
1737285472.7296813,12842,1737285465,841672640,base_link,0,1,33.6371004,72.9912445,500.29585070696817,0.5097959999999999,0.0,0.0,0.0,0.5097959999999999,0.0,0.0,0.0,0.937024,2
1737285472.7297552,12843,1737285466,41673408,base_link,0,1,33.6371006,72.9912446,500.27585232998746,0.5112249999999999,0.0,0.0,0.0,0.5112249999999999,0.0,0.0,0.0,0.937024,2
1737285472.7298598,12844,1737285466,41674176,base_link,0,1,33.6371006,72.9912446,500.27585232998746,0.5112249999999999,0.0,0.0,0.0,0.5112249999999999,0.0,0.0,0.0,0.937024,2
1737285472.7299898,12845,1737285466,241673664,base_link,0,1,33.6371008,72.9912448,500.25585435017297,0.512656,0.0,0.0,0.0,0.512656,0.0,0.0,0.0,0.937024,2
1737285472.730065,12846,1737285466,241674688,base_link,0,1,33.6371008,72.9912448,500.25585435017297,0.512656,0.0,0.0,0.0,0.512656,0.0,0.0,0.0,0.937024,2
1737285472.7301598,12847,1737285466,441674432,base_link,0,1,33.637101,72.9912449,500.23585597319345,0.512656,0.0,0.0,0.0,0.512656,0.0,0.0,0.0,0.937024,2
1737285472.7302115,12848,1737285466,441675456,base_link,0,1,33.637101,72.9912449,500.23585597319345,0.512656,0.0,0.0,0.0,0.512656,0.0,0.0,0.0,0.937024,2
1737285472.7302763,12849,1737285466,641675200,base_link,0,1,33.6371011,72.991245,500.2358569832869,0.5140889999999999,0.0,0.0,0.0,0.5140889999999999,0.0,0.0,0.0,0.937024,2
1737285472.7303772,12850,1737285466,641675968,base_link,0,1,33.6371011,72.991245,500.2358569832869,0.5140889999999999,0.0,0.0,0.0,0.5140889999999999,0.0,0.0,0.0,0.937024,2
1737285472.730426,12851,1737285466,841675968,base_link,0,1,33.6371012,72.9912449,500.2158571990487,0.5140889999999999,0.0,0.0,0.0,0.5140889999999999,0.0,0.0,0.0,0.937024,2
1737285472.7304907,12852,1737285466,841676992,base_link,0,1,33.6371012,72.9912449,500.2158571990487,0.5140889999999999,0.0,0.0,0.0,0.5140889999999999,0.0,0.0,0.0,0.937024,2
1737285472.7305303,12853,1737285467,41677760,base_link,0,1,33.6371013,72.9912449,500.20585781197633,0.515524,0.0,0.0,0.0,0.515524,0.0,0.0,0.0,0.937024,2
1737285472.7306275,12854,1737285467,41678784,base_link,0,1,33.6371013,72.9912449,500.20585781197633,0.515524,0.0,0.0,0.0,0.515524,0.0,0.0,0.0,0.937024,2
1737285472.730688,12855,1737285467,241679808,base_link,0,1,33.6371014,72.9912448,500.20585802773826,0.516961,0.0,0.0,0.0,0.516961,0.0,0.0,0.0,0.937024,2
1737285472.7307658,12856,1737285467,241680832,base_link,0,1,33.6371014,72.9912448,500.20585802773826,0.516961,0.0,0.0,0.0,0.516961,0.0,0.0,0.0,0.937024,2
1737285472.7308307,12857,1737285467,441680832,base_link,0,1,33.6371015,72.9912447,500.18585824350026,0.5184,0.0,0.0,0.0,0.5184,0.0,0.0,0.0,0.9389609999999999,2
1737285472.7308667,12858,1737285467,441681856,base_link,0,1,33.6371015,72.9912447,500.18585824350026,0.5184,0.0,0.0,0.0,0.5184,0.0,0.0,0.0,0.9389609999999999,2
1737285472.730941,12859,1737285467,641681600,base_link,0,1,33.6371015,72.9912445,500.17585744916846,0.521284,0.0,0.0,0.0,0.521284,0.0,0.0,0.0,0.9389609999999999,2
1737285472.7319553,12860,1737285467,641682880,base_link,0,1,33.6371015,72.9912445,500.17585744916846,0.521284,0.0,0.0,0.0,0.521284,0.0,0.0,0.0,0.9389609999999999,2
1737285472.732735,12861,1737285467,841682624,base_link,0,1,33.6371015,72.9912443,500.16585665483683,0.522729,0.0,0.0,0.0,0.522729,0.0,0.0,0.0,0.9389609999999999,2
1737285472.7506032,12862,1737285467,841682112,base_link,0,1,33.6371015,72.9912443,500.16585665483683,0.522729,0.0,0.0,0.0,0.522729,0.0,0.0,0.0,0.9389609999999999,2
1737285472.7506435,12863,1737285468,41682368,base_link,0,1,33.6371014,72.9912441,500.1558552475777,0.525625,0.0,0.0,0.0,0.525625,0.0,0.0,0.0,0.9409,2
1737285472.7507,12864,1737285468,41682112,base_link,0,1,33.6371014,72.9912441,500.1558552475777,0.525625,0.0,0.0,0.0,0.525625,0.0,0.0,0.0,0.9409,2
1737285472.7509553,12865,1737285468,241681856,base_link,0,1,33.6371015,72.991244,500.1458554633395,0.527076,0.0,0.0,0.0,0.527076,0.0,0.0,0.0,0.9409,2
1737285472.7511606,12866,1737285468,241681344,base_link,0,1,33.6371015,72.991244,500.1458554633395,0.527076,0.0,0.0,0.0,0.527076,0.0,0.0,0.0,0.9409,2
1737285472.751432,12867,1737285468,441681088,base_link,0,1,33.6371015,72.9912439,500.1158550661738,0.5285289999999999,0.0,0.0,0.0,0.5285289999999999,0.0,0.0,0.0,0.9409,2
1737285472.7515874,12868,1737285468,441680832,base_link,0,1,33.6371015,72.9912439,500.1158550661738,0.5285289999999999,0.0,0.0,0.0,0.5285289999999999,0.0,0.0,0.0,0.9409,2
1737285472.7517915,12869,1737285468,641680576,base_link,0,1,33.6371016,72.9912438,500.0858552819356,0.529984,0.0,0.0,0.0,0.529984,0.0,0.0,0.0,0.9428409999999999,2
1737285472.751938,12870,1737285468,641680576,base_link,0,1,33.6371016,72.9912438,500.0858552819356,0.529984,0.0,0.0,0.0,0.529984,0.0,0.0,0.0,0.9428409999999999,2
1737285472.752252,12871,1737285468,841680320,base_link,0,1,33.6371016,72.9912438,500.0758552819356,0.529984,0.0,0.0,0.0,0.529984,0.0,0.0,0.0,0.9428409999999999,2
1737285472.753284,12872,1737285468,841680064,base_link,0,1,33.6371016,72.9912438,500.0758552819356,0.529984,0.0,0.0,0.0,0.529984,0.0,0.0,0.0,0.9428409999999999,2
1737285472.7533982,12873,1737285469,41680064,base_link,0,1,33.6371018,72.9912438,500.045856507791,0.5314409999999999,0.0,0.0,0.0,0.5314409999999999,0.0,0.0,0.0,0.9428409999999999,2
1737285472.7534993,12874,1737285469,41679808,base_link,0,1,33.6371018,72.9912438,500.045856507791,0.5314409999999999,0.0,0.0,0.0,0.5314409999999999,0.0,0.0,0.0,0.9428409999999999,2
1737285472.7535977,12875,1737285469,241680064,base_link,0,1,33.6371018,72.9912439,500.0258569049568,0.5314409999999999,0.0,0.0,0.0,0.5314409999999999,0.0,0.0,0.0,0.9428409999999999,2
1737285472.7537243,12876,1737285469,241679808,base_link,0,1,33.6371018,72.9912439,500.0258569049568,0.5314409999999999,0.0,0.0,0.0,0.5314409999999999,0.0,0.0,0.0,0.9428409999999999,2
1737285472.7538645,12877,1737285469,441680064,base_link,0,1,33.6371019,72.9912439,500.00585751788464,0.5328999999999999,0.0,0.0,0.0,0.5328999999999999,0.0,0.0,0.0,0.9428409999999999,2
1737285472.7594633,12878,1737285469,441680064,base_link,0,1,33.6371019,72.9912439,500.00585751788464,0.5328999999999999,0.0,0.0,0.0,0.5328999999999999,0.0,0.0,0.0,0.9428409999999999,2
1737285472.762425,12879,1737285469,641680064,base_link,0,1,33.637102,72.991244,499.9658585279785,0.5328999999999999,0.0,0.0,0.0,0.5328999999999999,0.0,0.0,0.0,0.9428409999999999,2
1737285472.7625456,12880,1737285469,641680064,base_link,0,1,33.637102,72.991244,499.9658585279785,0.5328999999999999,0.0,0.0,0.0,0.5328999999999999,0.0,0.0,0.0,0.9428409999999999,2
1737285472.7625935,12881,1737285469,841680320,base_link,0,1,33.637102,72.9912441,499.93585892514443,0.5328999999999999,0.0,0.0,0.0,0.5328999999999999,0.0,0.0,0.0,0.9428409999999999,2
1737285472.7626665,12882,1737285469,841680320,base_link,0,1,33.637102,72.9912441,499.93585892514443,0.5328999999999999,0.0,0.0,0.0,0.5328999999999999,0.0,0.0,0.0,0.9428409999999999,2
1737285472.7636874,12883,1737285470,41680320,base_link,0,1,33.6371021,72.9912442,499.9058599352386,0.5328999999999999,0.0,0.0,0.0,0.5328999999999999,0.0,0.0,0.0,0.9428409999999999,2
1737285472.7695625,12884,1737285470,41673664,base_link,0,1,33.6371021,72.9912442,499.9058599352386,0.5328999999999999,0.0,0.0,0.0,0.5328999999999999,0.0,0.0,0.0,0.9428409999999999,2
1737285472.7698276,12885,1737285470,241673664,base_link,0,1,33.6371021,72.9912443,499.8758603324047,0.5328999999999999,0.0,0.0,0.0,0.5328999999999999,0.0,0.0,0.0,0.9428409999999999,2
1737285472.7698557,12886,1737285470,241667008,base_link,0,1,33.6371021,72.9912443,499.8758603324047,0.5328999999999999,0.0,0.0,0.0,0.5328999999999999,0.0,0.0,0.0,0.9428409999999999,2
1737285472.7699313,12887,1737285470,441665728,base_link,0,1,33.6371022,72.9912444,499.8558613424991,0.5328999999999999,0.0,0.0,0.0,0.5328999999999999,0.0,0.0,0.0,0.944784,2
1737285472.7701173,12888,1737285470,441665728,base_link,0,1,33.6371022,72.9912444,499.8558613424991,0.5328999999999999,0.0,0.0,0.0,0.5328999999999999,0.0,0.0,0.0,0.944784,2
1737285472.773291,12889,1737285470,641664960,base_link,0,1,33.6371022,72.9912443,499.865860945333,0.5328999999999999,0.0,0.0,0.0,0.5328999999999999,0.0,0.0,0.0,0.944784,2
1737285472.7772474,12890,1737285470,641665216,base_link,0,1,33.6371022,72.9912443,499.865860945333,0.5328999999999999,0.0,0.0,0.0,0.5328999999999999,0.0,0.0,0.0,0.944784,2
1737285472.7793775,12891,1737285470,841665728,base_link,0,1,33.6371021,72.991244,499.92585914090654,0.5328999999999999,0.0,0.0,0.0,0.5328999999999999,0.0,0.0,0.0,0.9428409999999999,2
1737285472.779439,12892,1737285470,841665984,base_link,0,1,33.6371021,72.991244,499.92585914090654,0.5328999999999999,0.0,0.0,0.0,0.5328999999999999,0.0,0.0,0.0,0.9428409999999999,2
1737285472.782164,12893,1737285471,41665984,base_link,0,1,33.6371021,72.9912434,500.05585675791093,0.5328999999999999,0.0,0.0,0.0,0.5328999999999999,0.0,0.0,0.0,0.9428409999999999,2
1737285472.7822642,12894,1737285471,41666240,base_link,0,1,33.6371021,72.9912434,500.05585675791093,0.5328999999999999,0.0,0.0,0.0,0.5328999999999999,0.0,0.0,0.0,0.9428409999999999,2
1737285472.7855783,12895,1737285471,241667264,base_link,0,1,33.6371024,72.9912431,500.185857405197,0.5314409999999999,0.0,0.0,0.0,0.5314409999999999,0.0,0.0,0.0,0.9428409999999999,2
1737285472.7878354,12896,1737285471,241667776,base_link,0,1,33.6371024,72.9912431,500.185857405197,0.5314409999999999,0.0,0.0,0.0,0.5314409999999999,0.0,0.0,0.0,0.9428409999999999,2
1737285472.788752,12897,1737285471,441667008,base_link,0,1,33.6371031,72.9912433,500.4058624900275,0.529984,0.0,0.0,0.0,0.529984,0.0,0.0,0.0,0.944784,2
1737285472.7901382,12898,1737285471,441667520,base_link,0,1,33.6371031,72.9912433,500.4058624900275,0.529984,0.0,0.0,0.0,0.529984,0.0,0.0,0.0,0.944784,2
1737285472.790545,12899,1737285471,641670848,base_link,0,1,33.6371045,72.991244,500.66587385120675,0.5285289999999999,0.0,0.0,0.0,0.5285289999999999,0.0,0.0,0.0,0.944784,2
1737285472.7947302,12900,1737285471,641671360,base_link,0,1,33.6371045,72.991244,500.66587385120675,0.5285289999999999,0.0,0.0,0.0,0.5285289999999999,0.0,0.0,0.0,0.944784,2
1737285472.7949677,12901,1737285471,841671872,base_link,0,1,33.6371065,72.9912452,500.9758908758461,0.5285289999999999,0.0,0.0,0.0,0.5285289999999999,0.0,0.0,0.0,0.944784,2
1737285472.7956457,12902,1737285471,841672384,base_link,0,1,33.6371065,72.9912452,500.9758908758461,0.5285289999999999,0.0,0.0,0.0,0.5285289999999999,0.0,0.0,0.0,0.944784,2
1737285472.7989519,12903,1737285472,41671616,base_link,0,1,33.6371088,72.9912467,501.24591093085877,0.5285289999999999,0.0,0.0,0.0,0.5285289999999999,0.0,0.0,0.0,0.9467289999999999,2
1737285472.7992783,12904,1737285472,41672384,base_link,0,1,33.6371088,72.9912467,501.24591093085877,0.5285289999999999,0.0,0.0,0.0,0.5285289999999999,0.0,0.0,0.0,0.9467289999999999,2
1737285472.7993479,12905,1737285472,241672896,base_link,0,1,33.6371112,72.9912484,501.4959323932336,0.5285289999999999,0.0,0.0,0.0,0.5285289999999999,0.0,0.0,0.0,0.9506249999999999,2
1737285472.7996411,12906,1737285472,241672384,base_link,0,1,33.6371112,72.9912484,501.4959323932336,0.5285289999999999,0.0,0.0,0.0,0.5285289999999999,0.0,0.0,0.0,0.9506249999999999,2
1737285472.7999208,12907,1737285472,441672896,base_link,0,1,33.6371137,72.9912498,501.65595327712566,0.529984,0.0,0.0,0.0,0.529984,0.0,0.0,0.0,0.954529,2
1737285472.8002903,12908,1737285472,441673408,base_link,0,1,33.6371137,72.9912498,501.65595327712566,0.529984,0.0,0.0,0.0,0.529984,0.0,0.0,0.0,0.954529,2
1737285472.8004727,12909,1737285472,641672896,base_link,0,1,33.6371157,72.9912507,501.7859691105228,0.5314409999999999,0.0,0.0,0.0,0.5314409999999999,0.0,0.0,0.0,0.952576,2
1737285472.8406894,12910,1737285472,641673664,base_link,0,1,33.6371157,72.9912507,501.7859691105228,0.5314409999999999,0.0,0.0,0.0,0.5314409999999999,0.0,0.0,0.0,0.952576,2
1737285472.940378,12911,1737285472,841672640,base_link,0,1,33.6371171,72.9912513,501.8759800747803,0.5314409999999999,0.0,0.0,0.0,0.5314409999999999,0.0,0.0,0.0,0.954529,2
1737285473.0404906,12912,1737285472,841673152,base_link,0,1,33.6371171,72.9912513,501.8759800747803,0.5314409999999999,0.0,0.0,0.0,0.5314409999999999,0.0,0.0,0.0,0.954529,2
1737285473.1402066,12913,1737285473,41672640,base_link,0,1,33.6371179,72.9912514,501.9559853755147,0.5314409999999999,0.0,0.0,0.0,0.5314409999999999,0.0,0.0,0.0,0.956484,2
1737285473.2423897,12914,1737285473,41673408,base_link,0,1,33.6371179,72.9912514,501.9559853755147,0.5314409999999999,0.0,0.0,0.0,0.5314409999999999,0.0,0.0,0.0,0.956484,2
1737285473.3388953,12915,1737285473,241672896,base_link,0,1,33.6371181,72.9912512,501.9759858070564,0.5314409999999999,0.0,0.0,0.0,0.5314409999999999,0.0,0.0,0.0,0.958441,2
1737285473.4380033,12916,1737285473,241673664,base_link,0,1,33.6371181,72.9912512,501.9759858070564,0.5314409999999999,0.0,0.0,0.0,0.5314409999999999,0.0,0.0,0.0,0.958441,2
1737285473.5413954,12917,1737285473,441673152,base_link,0,1,33.6371177,72.9912506,502.02598097222887,0.5314409999999999,0.0,0.0,0.0,0.5314409999999999,0.0,0.0,0.0,0.962361,2
1737285473.6412725,12918,1737285473,441674176,base_link,0,1,33.6371177,72.9912506,502.02598097222887,0.5314409999999999,0.0,0.0,0.0,0.5314409999999999,0.0,0.0,0.0,0.962361,2
1737285473.7417495,12919,1737285473,641673920,base_link,0,1,33.637117,72.9912498,502.0459735042257,0.5314409999999999,0.0,0.0,0.0,0.5314409999999999,0.0,0.0,0.0,0.964324,2
1737285473.8401117,12920,1737285473,641674944,base_link,0,1,33.637117,72.9912498,502.0459735042257,0.5314409999999999,0.0,0.0,0.0,0.5314409999999999,0.0,0.0,0.0,0.964324,2
1737285473.9406133,12921,1737285473,841675712,base_link,0,1,33.6371161,72.9912489,502.0759644131742,0.529984,0.0,0.0,0.0,0.529984,0.0,0.0,0.0,0.966289,2
1737285474.040906,12922,1737285473,841676736,base_link,0,1,33.6371161,72.9912489,502.0759644131742,0.529984,0.0,0.0,0.0,0.529984,0.0,0.0,0.0,0.966289,2
1737285474.1429012,12923,1737285474,41676480,base_link,0,1,33.637115,72.991248,502.1059540962562,0.5314409999999999,0.0,0.0,0.0,0.5314409999999999,0.0,0.0,0.0,0.968256,2
1737285474.2405486,12924,1737285474,41677504,base_link,0,1,33.637115,72.991248,502.1059540962562,0.5314409999999999,0.0,0.0,0.0,0.5314409999999999,0.0,0.0,0.0,0.968256,2
1737285474.340803,12925,1737285474,241679040,base_link,0,1,33.6371139,72.9912471,502.1059437793593,0.5328999999999999,0.0,0.0,0.0,0.5328999999999999,0.0,0.0,0.0,0.970225,2
1737285474.443096,12926,1737285474,241679808,base_link,0,1,33.6371139,72.9912471,502.1059437793593,0.5328999999999999,0.0,0.0,0.0,0.5328999999999999,0.0,0.0,0.0,0.970225,2
1737285474.5448923,12927,1737285474,441671104,base_link,0,1,33.6371129,72.9912463,502.0859344725934,0.5328999999999999,0.0,0.0,0.0,0.5328999999999999,0.0,0.0,0.0,0.970225,2
1737285474.640871,12928,1737285474,441670848,base_link,0,1,33.6371129,72.9912463,502.0859344725934,0.5328999999999999,0.0,0.0,0.0,0.5328999999999999,0.0,0.0,0.0,0.970225,2
1737285474.741264,12929,1737285474,641670592,base_link,0,1,33.6371121,72.9912457,502.0659271860617,0.534361,0.0,0.0,0.0,0.534361,0.0,0.0,0.0,0.968256,2
1737285474.8415234,12930,1737285474,641670080,base_link,0,1,33.6371121,72.9912457,502.0659271860617,0.534361,0.0,0.0,0.0,0.534361,0.0,0.0,0.0,0.968256,2
1737285474.944152,12931,1737285474,841669824,base_link,0,1,33.6371113,72.9912451,502.0459198995406,0.534361,0.0,0.0,0.0,0.534361,0.0,0.0,0.0,0.968256,2
1737285475.0422702,12932,1737285474,841669312,base_link,0,1,33.6371113,72.9912451,502.0459198995406,0.534361,0.0,0.0,0.0,0.534361,0.0,0.0,0.0,0.968256,2
1737285475.1465662,12933,1737285475,41669056,base_link,0,1,33.6371106,72.9912445,502.055913225966,0.5328999999999999,0.0,0.0,0.0,0.5328999999999999,0.0,0.0,0.0,0.968256,2
1737285475.2424538,12934,1737285475,41668800,base_link,0,1,33.6371106,72.9912445,502.055913225966,0.5328999999999999,0.0,0.0,0.0,0.5328999999999999,0.0,0.0,0.0,0.968256,2
1737285475.3397639,12935,1737285475,241661888,base_link,0,1,33.6371101,72.991244,502.04590817544,0.5314409999999999,0.0,0.0,0.0,0.5314409999999999,0.0,0.0,0.0,0.968256,2
1737285475.4407763,12936,1737285475,241661632,base_link,0,1,33.6371101,72.991244,502.04590817544,0.5314409999999999,0.0,0.0,0.0,0.5314409999999999,0.0,0.0,0.0,0.968256,2
1737285475.5408468,12937,1737285475,441661632,base_link,0,1,33.6371097,72.9912436,502.0459041350228,0.5314409999999999,0.0,0.0,0.0,0.5314409999999999,0.0,0.0,0.0,0.968256,2
1737285475.6394262,12938,1737285475,441661376,base_link,0,1,33.6371097,72.9912436,502.0459041350228,0.5314409999999999,0.0,0.0,0.0,0.5314409999999999,0.0,0.0,0.0,0.968256,2
1737285475.7399786,12939,1737285475,641665728,base_link,0,1,33.6371094,72.9912432,502.04590070754296,0.5314409999999999,0.0,0.0,0.0,0.5314409999999999,0.0,0.0,0.0,0.970225,2
1737285475.8420086,12940,1737285475,641665472,base_link,0,1,33.6371094,72.9912432,502.04590070754296,0.5314409999999999,0.0,0.0,0.0,0.5314409999999999,0.0,0.0,0.0,0.970225,2
1737285475.9401445,12941,1737285475,841665472,base_link,0,1,33.637109,72.9912431,502.0458978586378,0.5314409999999999,0.0,0.0,0.0,0.5314409999999999,0.0,0.0,0.0,0.970225,2
1737285476.0399528,12942,1737285475,841665216,base_link,0,1,33.637109,72.9912431,502.0458978586378,0.5314409999999999,0.0,0.0,0.0,0.5314409999999999,0.0,0.0,0.0,0.970225,2
1737285476.1419306,12943,1737285476,41665216,base_link,0,1,33.6371083,72.9912428,502.06589237659756,0.5314409999999999,0.0,0.0,0.0,0.5314409999999999,0.0,0.0,0.0,0.970225,2
1737285476.2387938,12944,1737285476,41664960,base_link,0,1,33.6371083,72.9912428,502.06589237659756,0.5314409999999999,0.0,0.0,0.0,0.5314409999999999,0.0,0.0,0.0,0.970225,2
1737285476.3413339,12945,1737285476,241665472,base_link,0,1,33.6371071,72.9912421,502.08588224123196,0.529984,0.0,0.0,0.0,0.529984,0.0,0.0,0.0,0.972196,2
1737285476.4400668,12946,1737285476,241665216,base_link,0,1,33.6371071,72.9912421,502.08588224123196,0.529984,0.0,0.0,0.0,0.529984,0.0,0.0,0.0,0.972196,2
1737285476.539528,12947,1737285476,441665472,base_link,0,1,33.6371052,72.9912411,502.1358666238773,0.5285289999999999,0.0,0.0,0.0,0.5285289999999999,0.0,0.0,0.0,0.972196,2
1737285476.6414893,12948,1737285476,441665472,base_link,0,1,33.6371052,72.9912411,502.1358666238773,0.5285289999999999,0.0,0.0,0.0,0.5285289999999999,0.0,0.0,0.0,0.972196,2
1737285476.752686,12949,1737285476,641665984,base_link,0,1,33.6371027,72.9912398,502.1958461375142,0.525625,0.0,0.0,0.0,0.525625,0.0,0.0,0.0,0.972196,2
1737285476.8402638,12950,1737285476,641666240,base_link,0,1,33.6371027,72.9912398,502.1958461375142,0.525625,0.0,0.0,0.0,0.525625,0.0,0.0,0.0,0.972196,2
1737285476.940979,12951,1737285476,841666240,base_link,0,1,33.6370996,72.9912384,502.23582157653294,0.525625,0.0,0.0,0.0,0.525625,0.0,0.0,0.0,0.974169,2
1737285477.0403993,12952,1737285476,841666496,base_link,0,1,33.6370996,72.9912384,502.23582157653294,0.525625,0.0,0.0,0.0,0.525625,0.0,0.0,0.0,0.974169,2
1737285477.140078,12953,1737285477,41666752,base_link,0,1,33.6370964,72.9912372,502.2957971970832,0.524176,0.0,0.0,0.0,0.524176,0.0,0.0,0.0,0.976144,2
1737285477.2412174,12954,1737285477,41667008,base_link,0,1,33.6370964,72.9912372,502.2957971970832,0.524176,0.0,0.0,0.0,0.524176,0.0,0.0,0.0,0.976144,2
1737285477.3396177,12955,1737285477,241667264,base_link,0,1,33.6370932,72.9912358,502.32577202344083,0.522729,0.0,0.0,0.0,0.522729,0.0,0.0,0.0,0.976144,2
1737285477.4399366,12956,1737285477,241667776,base_link,0,1,33.6370932,72.9912358,502.32577202344083,0.522729,0.0,0.0,0.0,0.522729,0.0,0.0,0.0,0.976144,2
1737285477.5416603,12957,1737285477,441668032,base_link,0,1,33.63709,72.9912345,502.3457472470919,0.522729,0.0,0.0,0.0,0.522729,0.0,0.0,0.0,0.976144,2
1737285477.6406124,12958,1737285477,441668288,base_link,0,1,33.63709,72.9912345,502.3457472470919,0.522729,0.0,0.0,0.0,0.522729,0.0,0.0,0.0,0.976144,2
1737285477.7396524,12959,1737285477,641668800,base_link,0,1,33.6370872,72.9912332,502.34572492251397,0.521284,0.0,0.0,0.0,0.521284,0.0,0.0,0.0,0.974169,2
1737285477.8394792,12960,1737285477,641669056,base_link,0,1,33.6370872,72.9912332,502.34572492251397,0.521284,0.0,0.0,0.0,0.521284,0.0,0.0,0.0,0.974169,2
1737285477.9422665,12961,1737285477,841669568,base_link,0,1,33.6370846,72.9912322,502.3257050153225,0.519841,0.0,0.0,0.0,0.519841,0.0,0.0,0.0,0.974169,2
1737285478.0412893,12962,1737285477,841670080,base_link,0,1,33.6370846,72.9912322,502.3257050153225,0.519841,0.0,0.0,0.0,0.519841,0.0,0.0,0.0,0.974169,2
1737285478.1428719,12963,1737285478,41670592,base_link,0,1,33.6370823,72.9912312,502.2856869469307,0.519841,0.0,0.0,0.0,0.519841,0.0,0.0,0.0,0.974169,2
1737285478.2453363,12964,1737285478,41670848,base_link,0,1,33.6370823,72.9912312,502.2856869469307,0.519841,0.0,0.0,0.0,0.519841,0.0,0.0,0.0,0.974169,2
1737285478.3403072,12965,1737285478,241670080,base_link,0,1,33.6370803,72.9912305,502.265671908776,0.5184,0.0,0.0,0.0,0.5184,0.0,0.0,0.0,0.972196,2
1737285478.439933,12966,1737285478,241671104,base_link,0,1,33.6370803,72.9912305,502.265671908776,0.5184,0.0,0.0,0.0,0.5184,0.0,0.0,0.0,0.972196,2
1737285478.541885,12967,1737285478,441670080,base_link,0,1,33.6370782,72.9912298,502.2656562577696,0.515524,0.0,0.0,0.0,0.515524,0.0,0.0,0.0,0.972196,2
1737285478.6397667,12968,1737285478,441670592,base_link,0,1,33.6370782,72.9912298,502.2656562577696,0.515524,0.0,0.0,0.0,0.515524,0.0,0.0,0.0,0.972196,2
1737285478.746356,12969,1737285478,641669824,base_link,0,1,33.6370761,72.9912291,502.2956406068163,0.5140889999999999,0.0,0.0,0.0,0.5140889999999999,0.0,0.0,0.0,0.970225,2
1737285478.8445973,12970,1737285478,641670336,base_link,0,1,33.6370761,72.9912291,502.2956406068163,0.5140889999999999,0.0,0.0,0.0,0.5140889999999999,0.0,0.0,0.0,0.970225,2
1737285478.9393039,12971,1737285478,841669312,base_link,0,1,33.6370738,72.9912283,502.33562333297374,0.512656,0.0,0.0,0.0,0.512656,0.0,0.0,0.0,0.970225,2
1737285479.0423822,12972,1737285478,841669824,base_link,0,1,33.6370738,72.9912283,502.33562333297374,0.512656,0.0,0.0,0.0,0.512656,0.0,0.0,0.0,0.970225,2
1737285479.1421962,12973,1737285479,41670336,base_link,0,1,33.6370711,72.9912273,502.34560281332455,0.5112249999999999,0.0,0.0,0.0,0.5112249999999999,0.0,0.0,0.0,0.968256,2
1737285479.2399573,12974,1737285479,41671104,base_link,0,1,33.6370711,72.9912273,502.34560281332455,0.5112249999999999,0.0,0.0,0.0,0.5112249999999999,0.0,0.0,0.0,0.968256,2
1737285479.3426602,12975,1737285479,241675968,base_link,0,1,33.6370684,72.9912261,502.35558149947144,0.5097959999999999,0.0,0.0,0.0,0.5097959999999999,0.0,0.0,0.0,0.968256,2
1737285479.444924,12976,1737285479,241676736,base_link,0,1,33.6370684,72.9912261,502.35558149947144,0.5097959999999999,0.0,0.0,0.0,0.5097959999999999,0.0,0.0,0.0,0.968256,2
1737285479.5394988,12977,1737285479,441676224,base_link,0,1,33.6370656,72.9912249,502.35555957282753,0.5097959999999999,0.0,0.0,0.0,0.5097959999999999,0.0,0.0,0.0,0.966289,2
1737285479.6460786,12978,1737285479,441676992,base_link,0,1,33.6370656,72.9912249,502.35555957282753,0.5097959999999999,0.0,0.0,0.0,0.5097959999999999,0.0,0.0,0.0,0.966289,2
1737285479.7422023,12979,1737285479,641676224,base_link,0,1,33.6370629,72.9912238,502.3755386563146,0.508369,0.0,0.0,0.0,0.508369,0.0,0.0,0.0,0.968256,2
1737285479.8421452,12980,1737285479,641676736,base_link,0,1,33.6370629,72.9912238,502.3755386563146,0.508369,0.0,0.0,0.0,0.508369,0.0,0.0,0.0,0.968256,2
1737285479.9437973,12981,1737285479,841678016,base_link,0,1,33.6370604,72.9912229,502.4155197599443,0.506944,0.0,0.0,0.0,0.506944,0.0,0.0,0.0,0.968256,2
1737285480.0447261,12982,1737285479,841678016,base_link,0,1,33.6370604,72.9912229,502.4155197599443,0.506944,0.0,0.0,0.0,0.506944,0.0,0.0,0.0,0.968256,2
1737285480.1450872,12983,1737285480,41677504,base_link,0,1,33.6370581,72.9912222,502.4455028836932,0.5041,0.0,0.0,0.0,0.5041,0.0,0.0,0.0,0.970225,2
1737285480.2418106,12984,1737285480,41679552,base_link,0,1,33.6370581,72.9912222,502.4455028836932,0.5041,0.0,0.0,0.0,0.5041,0.0,0.0,0.0,0.970225,2
1737285480.3451595,12985,1737285480,241680576,base_link,0,1,33.6370563,72.9912217,502.4554898661728,0.5026809999999999,0.0,0.0,0.0,0.5026809999999999,0.0,0.0,0.0,0.972196,2
1737285480.4442582,12986,1737285480,241680576,base_link,0,1,33.6370563,72.9912217,502.4554898661728,0.5026809999999999,0.0,0.0,0.0,0.5026809999999999,0.0,0.0,0.0,0.972196,2
1737285480.5417612,12987,1737285480,441680064,base_link,0,1,33.6370548,72.9912213,502.4354790844577,0.5012639999999999,0.0,0.0,0.0,0.5012639999999999,0.0,0.0,0.0,0.972196,2
1737285480.6396174,12988,1737285480,441681344,base_link,0,1,33.6370548,72.9912213,502.4354790844577,0.5012639999999999,0.0,0.0,0.0,0.5012639999999999,0.0,0.0,0.0,0.972196,2
1737285480.7419558,12989,1737285480,641681088,base_link,0,1,33.6370537,72.9912212,502.45547194568616,0.49984899999999993,0.0,0.0,0.0,0.49984899999999993,0.0,0.0,0.0,0.972196,2
1737285480.84087,12990,1737285480,641682112,base_link,0,1,33.6370537,72.9912212,502.45547194568616,0.49984899999999993,0.0,0.0,0.0,0.49984899999999993,0.0,0.0,0.0,0.972196,2
1737285480.9434078,12991,1737285480,841682112,base_link,0,1,33.6370533,72.9912212,502.4854694941866,0.49843599999999993,0.0,0.0,0.0,0.49843599999999993,0.0,0.0,0.0,0.972196,2
1737285481.0407624,12992,1737285480,841682880,base_link,0,1,33.6370533,72.9912212,502.4854694941866,0.49843599999999993,0.0,0.0,0.0,0.49843599999999993,0.0,0.0,0.0,0.972196,2
1737285481.142213,12993,1737285481,41682624,base_link,0,1,33.6370533,72.9912214,502.51547028846556,0.49843599999999993,0.0,0.0,0.0,0.49843599999999993,0.0,0.0,0.0,0.974169,2
1737285481.240881,12994,1737285481,41683392,base_link,0,1,33.6370533,72.9912214,502.51547028846556,0.49843599999999993,0.0,0.0,0.0,0.49843599999999993,0.0,0.0,0.0,0.974169,2
1737285481.3429956,12995,1737285481,241683136,base_link,0,1,33.6370538,72.9912219,502.59547533853987,0.49843599999999993,0.0,0.0,0.0,0.49843599999999993,0.0,0.0,0.0,0.976144,2
1737285481.4492881,12996,1737285481,241684160,base_link,0,1,33.6370538,72.9912219,502.59547533853987,0.49843599999999993,0.0,0.0,0.0,0.49843599999999993,0.0,0.0,0.0,0.976144,2
1737285481.5445244,12997,1737285481,441683904,base_link,0,1,33.6370548,72.9912224,502.625483453001,0.49843599999999993,0.0,0.0,0.0,0.49843599999999993,0.0,0.0,0.0,0.9801,2
1737285481.6423113,12998,1737285481,441684928,base_link,0,1,33.6370548,72.9912224,502.625483453001,0.49843599999999993,0.0,0.0,0.0,0.49843599999999993,0.0,0.0,0.0,0.9801,2
1737285481.7446656,12999,1737285481,641686208,base_link,0,1,33.6370564,72.991223,502.65549564188495,0.49843599999999993,0.0,0.0,0.0,0.49843599999999993,0.0,0.0,0.0,0.982081,2
1737285481.841534,13000,1737285481,641687232,base_link,0,1,33.6370564,72.991223,502.65549564188495,0.49843599999999993,0.0,0.0,0.0,0.49843599999999993,0.0,0.0,0.0,0.982081,2
1737285481.945306,13001,1737285481,841687232,base_link,0,1,33.6370583,72.9912238,502.6655104637257,0.49702499999999994,0.0,0.0,0.0,0.49702499999999994,0.0,0.0,0.0,0.9840639999999999,2
1737285482.040105,13002,1737285481,841688512,base_link,0,1,33.6370583,72.9912238,502.6655104637257,0.49702499999999994,0.0,0.0,0.0,0.49702499999999994,0.0,0.0,0.0,0.9840639999999999,2
1737285482.141579,13003,1737285482,41688512,base_link,0,1,33.6370605,72.9912246,502.6755271242607,0.49702499999999994,0.0,0.0,0.0,0.49702499999999994,0.0,0.0,0.0,0.982081,2
1737285482.2432678,13004,1737285482,41688512,base_link,0,1,33.6370605,72.9912246,502.6755271242607,0.49702499999999994,0.0,0.0,0.0,0.49702499999999994,0.0,0.0,0.0,0.982081,2
1737285482.3462257,13005,1737285482,241688512,base_link,0,1,33.6370629,72.9912256,502.73554580491526,0.49561599999999995,0.0,0.0,0.0,0.49561599999999995,0.0,0.0,0.0,0.982081,2
1737285482.4440238,13006,1737285482,241688256,base_link,0,1,33.6370629,72.9912256,502.73554580491526,0.49561599999999995,0.0,0.0,0.0,0.49561599999999995,0.0,0.0,0.0,0.982081,2
1737285482.539635,13007,1737285482,441688256,base_link,0,1,33.6370655,72.9912266,502.76556571141975,0.49420899999999995,0.0,0.0,0.0,0.49420899999999995,0.0,0.0,0.0,0.982081,2
1737285482.6394124,13008,1737285482,441688000,base_link,0,1,33.6370655,72.9912266,502.76556571141975,0.49420899999999995,0.0,0.0,0.0,0.49420899999999995,0.0,0.0,0.0,0.982081,2
1737285482.743301,13009,1737285482,641687744,base_link,0,1,33.6370684,72.9912279,502.8055886481246,0.49280399999999996,0.0,0.0,0.0,0.49280399999999996,0.0,0.0,0.0,0.982081,2
1737285482.8501778,13010,1737285482,641687488,base_link,0,1,33.6370684,72.9912279,502.8055886481246,0.49280399999999996,0.0,0.0,0.0,0.49280399999999996,0.0,0.0,0.0,0.982081,2
1737285482.9405077,13011,1737285482,841688768,base_link,0,1,33.6370713,72.9912292,502.8356115849412,0.49280399999999996,0.0,0.0,0.0,0.49280399999999996,0.0,0.0,0.0,0.982081,2
1737285483.0400527,13012,1737285482,841688768,base_link,0,1,33.6370713,72.9912292,502.8356115849412,0.49280399999999996,0.0,0.0,0.0,0.49280399999999996,0.0,0.0,0.0,0.982081,2
1737285483.1400528,13013,1737285483,41688768,base_link,0,1,33.6370742,72.9912305,502.89563452186945,0.49280399999999996,0.0,0.0,0.0,0.49280399999999996,0.0,0.0,0.0,0.982081,2
1737285483.2394805,13014,1737285483,41688768,base_link,0,1,33.6370742,72.9912305,502.89563452186945,0.49280399999999996,0.0,0.0,0.0,0.49280399999999996,0.0,0.0,0.0,0.982081,2
1737285483.3389812,13015,1737285483,241689024,base_link,0,1,33.6370769,72.9912316,502.9356554388039,0.4914009999999999,0.0,0.0,0.0,0.4914009999999999,0.0,0.0,0.0,0.9840639999999999,2
1737285483.4400358,13016,1737285483,241689024,base_link,0,1,33.6370769,72.9912316,502.9356554388039,0.4914009999999999,0.0,0.0,0.0,0.4914009999999999,0.0,0.0,0.0,0.9840639999999999,2
1737285483.5392227,13017,1737285483,441689280,base_link,0,1,33.6370796,72.9912327,502.975676355832,0.4914009999999999,0.0,0.0,0.0,0.4914009999999999,0.0,0.0,0.0,0.9840639999999999,2
1737285483.6401217,13018,1737285483,441689280,base_link,0,1,33.6370796,72.9912327,502.975676355832,0.4914009999999999,0.0,0.0,0.0,0.4914009999999999,0.0,0.0,0.0,0.9840639999999999,2
1737285483.7404287,13019,1737285483,641690304,base_link,0,1,33.6370818,72.9912335,502.98569301696017,0.48999999999999994,0.0,0.0,0.0,0.48999999999999994,0.0,0.0,0.0,0.986049,2
1737285483.8477154,13020,1737285483,641690304,base_link,0,1,33.6370818,72.9912335,502.98569301696017,0.48999999999999994,0.0,0.0,0.0,0.48999999999999994,0.0,0.0,0.0,0.986049,2
1737285483.9420712,13021,1737285483,841690816,base_link,0,1,33.6370837,72.9912341,502.9957070451139,0.48999999999999994,0.0,0.0,0.0,0.48999999999999994,0.0,0.0,0.0,0.988036,2
1737285484.0395958,13022,1737285483,841691072,base_link,0,1,33.6370837,72.9912341,502.9957070451139,0.48999999999999994,0.0,0.0,0.0,0.48999999999999994,0.0,0.0,0.0,0.988036,2
1737285484.1397576,13023,1737285484,41691584,base_link,0,1,33.6370855,72.9912345,503.0257196660879,0.4914009999999999,0.0,0.0,0.0,0.4914009999999999,0.0,0.0,0.0,0.990025,2
1737285484.2389338,13024,1737285484,41691840,base_link,0,1,33.6370855,72.9912345,503.0257196660879,0.4914009999999999,0.0,0.0,0.0,0.4914009999999999,0.0,0.0,0.0,0.990025,2
1737285484.339807,13025,1737285484,241692096,base_link,0,1,33.6370869,72.9912348,503.04572943829703,0.4914009999999999,0.0,0.0,0.0,0.4914009999999999,0.0,0.0,0.0,0.992016,2
1737285484.440191,13026,1737285484,241692352,base_link,0,1,33.6370869,72.9912348,503.04572943829703,0.4914009999999999,0.0,0.0,0.0,0.4914009999999999,0.0,0.0,0.0,0.992016,2
1737285484.5434885,13027,1737285484,441692864,base_link,0,1,33.637088,72.9912349,503.0857365774764,0.49280399999999996,0.0,0.0,0.0,0.49280399999999996,0.0,0.0,0.0,0.992016,2
1737285484.6460164,13028,1737285484,441693120,base_link,0,1,33.637088,72.9912349,503.0857365774764,0.49280399999999996,0.0,0.0,0.0,0.49280399999999996,0.0,0.0,0.0,0.992016,2
1737285484.741217,13029,1737285484,641698752,base_link,0,1,33.6370888,72.9912348,503.0857410836139,0.49420899999999995,0.0,0.0,0.0,0.49420899999999995,0.0,0.0,0.0,0.992016,2
1737285484.8482342,13030,1737285484,641701824,base_link,0,1,33.6370888,72.9912348,503.0857410836139,0.49420899999999995,0.0,0.0,0.0,0.49420899999999995,0.0,0.0,0.0,0.992016,2
1737285484.9486442,13031,1737285484,841701824,base_link,0,1,33.6370896,72.9912348,503.0857459869149,0.49561599999999995,0.0,0.0,0.0,0.49561599999999995,0.0,0.0,0.0,0.994009,2
1737285485.0415084,13032,1737285484,841701824,base_link,0,1,33.6370896,72.9912348,503.0857459869149,0.49561599999999995,0.0,0.0,0.0,0.49561599999999995,0.0,0.0,0.0,0.994009,2
1737285485.140548,13033,1737285485,41701824,base_link,0,1,33.6370905,72.9912348,503.0957515031354,0.49843599999999993,0.0,0.0,0.0,0.49843599999999993,0.0,0.0,0.0,0.994009,2
1737285485.2571957,13034,1737285485,41701824,base_link,0,1,33.6370905,72.9912348,503.0957515031354,0.49843599999999993,0.0,0.0,0.0,0.49843599999999993,0.0,0.0,0.0,0.994009,2
1737285485.3429499,13035,1737285485,241701824,base_link,0,1,33.6370917,72.9912352,503.1057604467447,0.49984899999999993,0.0,0.0,0.0,0.49984899999999993,0.0,0.0,0.0,0.996004,2
1737285485.452659,13036,1737285485,241706432,base_link,0,1,33.6370917,72.9912352,503.1057604467447,0.49984899999999993,0.0,0.0,0.0,0.49984899999999993,0.0,0.0,0.0,0.996004,2
1737285485.5474849,13037,1737285485,441711552,base_link,0,1,33.6370933,72.9912359,503.1257730335179,0.5012639999999999,0.0,0.0,0.0,0.5012639999999999,0.0,0.0,0.0,0.996004,2
1737285485.6415622,13038,1737285485,441711552,base_link,0,1,33.6370933,72.9912359,503.1257730335179,0.5012639999999999,0.0,0.0,0.0,0.5012639999999999,0.0,0.0,0.0,0.996004,2
1737285485.7417033,13039,1737285485,641714624,base_link,0,1,33.6370957,72.991237,503.1657921123216,0.5026809999999999,0.0,0.0,0.0,0.5026809999999999,0.0,0.0,0.0,0.996004,2
1737285485.8387055,13040,1737285485,641714624,base_link,0,1,33.6370957,72.991237,503.1657921123216,0.5026809999999999,0.0,0.0,0.0,0.5026809999999999,0.0,0.0,0.0,0.996004,2
1737285485.944146,13041,1737285485,841713600,base_link,0,1,33.6370988,72.9912384,503.1958166731481,0.5041,0.0,0.0,0.0,0.5041,0.0,0.0,0.0,0.996004,2
1737285486.043834,13042,1737285485,841713856,base_link,0,1,33.6370988,72.9912384,503.1958166731481,0.5041,0.0,0.0,0.0,0.5041,0.0,0.0,0.0,0.996004,2
1737285486.141807,13043,1737285486,41713088,base_link,0,1,33.6371026,72.9912401,503.22584671608337,0.505521,0.0,0.0,0.0,0.505521,0.0,0.0,0.0,0.994009,2
1737285486.2418344,13044,1737285486,41713344,base_link,0,1,33.6371026,72.9912401,503.22584671608337,0.505521,0.0,0.0,0.0,0.505521,0.0,0.0,0.0,0.994009,2
1737285486.3431919,13045,1737285486,241712320,base_link,0,1,33.6371068,72.991242,503.28588000526963,0.506944,0.0,0.0,0.0,0.506944,0.0,0.0,0.0,0.994009,2
1737285486.4411695,13046,1737285486,241712576,base_link,0,1,33.6371068,72.991242,503.28588000526963,0.506944,0.0,0.0,0.0,0.506944,0.0,0.0,0.0,0.994009,2
1737285486.540024,13047,1737285486,441711552,base_link,0,1,33.6371112,72.9912441,503.32591531490283,0.506944,0.0,0.0,0.0,0.506944,0.0,0.0,0.0,0.996004,2
1737285486.6423554,13048,1737285486,441711552,base_link,0,1,33.6371112,72.9912441,503.32591531490283,0.506944,0.0,0.0,0.0,0.506944,0.0,0.0,0.0,0.996004,2
1737285486.7426043,13049,1737285486,641710784,base_link,0,1,33.6371155,72.991246,503.3559492175135,0.508369,0.0,0.0,0.0,0.508369,0.0,0.0,0.0,0.998001,2
1737285486.8455327,13050,1737285486,641711296,base_link,0,1,33.6371155,72.991246,503.3559492175135,0.508369,0.0,0.0,0.0,0.508369,0.0,0.0,0.0,0.998001,2
1737285486.9396722,13051,1737285486,841711808,base_link,0,1,33.6371196,72.991248,503.3759822916516,0.5097959999999999,0.0,0.0,0.0,0.5097959999999999,0.0,0.0,0.0,1.0,2
1737285487.0410347,13052,1737285486,841712320,base_link,0,1,33.6371196,72.991248,503.3759822916516,0.5097959999999999,0.0,0.0,0.0,0.5097959999999999,0.0,0.0,0.0,1.0,2
1737285487.1424768,13053,1737285487,41712832,base_link,0,1,33.6371234,72.9912504,503.3760151158773,0.5097959999999999,0.0,0.0,0.0,0.5097959999999999,0.0,0.0,0.0,1.0060089999999997,2
1737285487.2405963,13054,1737285487,41713600,base_link,0,1,33.6371234,72.9912504,503.3760151158773,0.5097959999999999,0.0,0.0,0.0,0.5097959999999999,0.0,0.0,0.0,1.0060089999999997,2
1737285487.3398845,13055,1737285487,241714112,base_link,0,1,33.6371267,72.991253,503.3460456699116,0.5112249999999999,0.0,0.0,0.0,0.5112249999999999,0.0,0.0,0.0,1.012036,2
1737285487.4409044,13056,1737285487,241714624,base_link,0,1,33.6371267,72.991253,503.3460456699116,0.5112249999999999,0.0,0.0,0.0,0.5112249999999999,0.0,0.0,0.0,1.012036,2
1737285487.5423563,13057,1737285487,441715392,base_link,0,1,33.6371298,72.9912558,503.34607579257874,0.512656,0.0,0.0,0.0,0.512656,0.0,0.0,0.0,1.0180809999999998,2
1737285487.640315,13058,1737285487,441716160,base_link,0,1,33.6371298,72.9912558,503.34607579257874,0.512656,0.0,0.0,0.0,0.512656,0.0,0.0,0.0,1.0180809999999998,2
1737285487.740951,13059,1737285487,641715904,base_link,0,1,33.6371324,72.9912589,503.3161040421646,0.512656,0.0,0.0,0.0,0.512656,0.0,0.0,0.0,1.0201,2
1737285487.8418787,13060,1737285487,641716672,base_link,0,1,33.6371324,72.9912589,503.3161040421646,0.512656,0.0,0.0,0.0,0.512656,0.0,0.0,0.0,1.0201,2
1737285487.9426703,13061,1737285487,841716160,base_link,0,1,33.6371344,72.9912619,503.3261282169291,0.512656,0.0,0.0,0.0,0.512656,0.0,0.0,0.0,1.024144,2
1737285488.0409515,13062,1737285487,841716928,base_link,0,1,33.6371344,72.9912619,503.3261282169291,0.512656,0.0,0.0,0.0,0.512656,0.0,0.0,0.0,1.024144,2
1737285488.1405826,13063,1737285488,41717952,base_link,0,1,33.6371359,72.9912648,503.3061489297791,0.5112249999999999,0.0,0.0,0.0,0.5112249999999999,0.0,0.0,0.0,1.0261689999999999,2
1737285488.2427223,13064,1737285488,41718720,base_link,0,1,33.6371359,72.9912648,503.3061489297791,0.5112249999999999,0.0,0.0,0.0,0.5112249999999999,0.0,0.0,0.0,1.0261689999999999,2
1737285488.3419225,13065,1737285488,241718208,base_link,0,1,33.637137,72.9912672,503.29616520489503,0.5112249999999999,0.0,0.0,0.0,0.5112249999999999,0.0,0.0,0.0,1.0261689999999999,2
1737285488.4417672,13066,1737285488,241718976,base_link,0,1,33.637137,72.9912672,503.29616520489503,0.5112249999999999,0.0,0.0,0.0,0.5112249999999999,0.0,0.0,0.0,1.0261689999999999,2
1737285488.542578,13067,1737285488,441718720,base_link,0,1,33.6371377,72.9912694,503.2861782337986,0.5097959999999999,0.0,0.0,0.0,0.5097959999999999,0.0,0.0,0.0,1.0261689999999999,2
1737285488.6422992,13068,1737285488,441719744,base_link,0,1,33.6371377,72.9912694,503.2861782337986,0.5097959999999999,0.0,0.0,0.0,0.5097959999999999,0.0,0.0,0.0,1.0261689999999999,2
1737285488.7428813,13069,1737285488,641719488,base_link,0,1,33.6371384,72.9912712,503.28618967397864,0.5097959999999999,0.0,0.0,0.0,0.5097959999999999,0.0,0.0,0.0,1.028196,2
1737285488.8407817,13070,1737285488,641720512,base_link,0,1,33.6371384,72.9912712,503.28618967397864,0.5097959999999999,0.0,0.0,0.0,0.5097959999999999,0.0,0.0,0.0,1.028196,2
1737285488.9406972,13071,1737285488,841720256,base_link,0,1,33.6371388,72.9912726,503.27619768650646,0.508369,0.0,0.0,0.0,0.508369,0.0,0.0,0.0,1.028196,2
1737285489.040466,13072,1737285488,841721280,base_link,0,1,33.6371388,72.9912726,503.27619768650646,0.508369,0.0,0.0,0.0,0.508369,0.0,0.0,0.0,1.028196,2
1737285489.1410732,13073,1737285489,41720768,base_link,0,1,33.637139,72.9912738,503.2662036787189,0.506944,0.0,0.0,0.0,0.506944,0.0,0.0,0.0,1.0302249999999997,2
1737285489.240357,13074,1737285489,41721792,base_link,0,1,33.637139,72.9912738,503.2662036787189,0.506944,0.0,0.0,0.0,0.506944,0.0,0.0,0.0,1.0302249999999997,2
1737285489.3403049,13075,1737285489,241721536,base_link,0,1,33.6371391,72.9912746,503.2462074692056,0.506944,0.0,0.0,0.0,0.506944,0.0,0.0,0.0,1.0302249999999997,2
1737285489.4424067,13076,1737285489,241722560,base_link,0,1,33.6371391,72.9912746,503.2462074692056,0.506944,0.0,0.0,0.0,0.506944,0.0,0.0,0.0,1.0302249999999997,2
1737285489.5410273,13077,1737285489,441724096,base_link,0,1,33.6371391,72.9912752,503.24620985234117,0.506944,0.0,0.0,0.0,0.506944,0.0,0.0,0.0,1.032256,2
1737285489.6426558,13078,1737285489,441723584,base_link,0,1,33.6371391,72.9912752,503.24620985234117,0.506944,0.0,0.0,0.0,0.506944,0.0,0.0,0.0,1.032256,2
1737285489.7393825,13079,1737285489,641723328,base_link,0,1,33.6371389,72.9912757,503.25621061233863,0.505521,0.0,0.0,0.0,0.505521,0.0,0.0,0.0,1.0342889999999998,2
1737285489.8413322,13080,1737285489,641723072,base_link,0,1,33.6371389,72.9912757,503.25621061233863,0.505521,0.0,0.0,0.0,0.505521,0.0,0.0,0.0,1.0342889999999998,2
1737285489.9398143,13081,1737285489,841723072,base_link,0,1,33.6371386,72.9912759,503.2662095677936,0.505521,0.0,0.0,0.0,0.505521,0.0,0.0,0.0,1.036324,2
1737285490.0418346,13082,1737285489,841722816,base_link,0,1,33.6371386,72.9912759,503.2662095677936,0.505521,0.0,0.0,0.0,0.505521,0.0,0.0,0.0,1.036324,2
1737285490.1392932,13083,1737285490,41724352,base_link,0,1,33.6371382,72.9912759,503.2562071158965,0.5041,0.0,0.0,0.0,0.5041,0.0,0.0,0.0,1.0383609999999999,2
1737285490.2393317,13084,1737285490,41724096,base_link,0,1,33.6371382,72.9912759,503.2562071158965,0.5041,0.0,0.0,0.0,0.5041,0.0,0.0,0.0,1.0383609999999999,2
1737285490.341098,13085,1737285490,241724096,base_link,0,1,33.6371379,72.9912757,503.27620448259654,0.5026809999999999,0.0,0.0,0.0,0.5026809999999999,0.0,0.0,0.0,1.0404,2
1737285490.4406352,13086,1737285490,241723840,base_link,0,1,33.6371379,72.9912757,503.27620448259654,0.5026809999999999,0.0,0.0,0.0,0.5026809999999999,0.0,0.0,0.0,1.0404,2
1737285490.539445,13087,1737285490,441723840,base_link,0,1,33.6371377,72.9912754,503.3162020650828,0.5012639999999999,0.0,0.0,0.0,0.5012639999999999,0.0,0.0,0.0,1.0424409999999997,2
1737285490.6427267,13088,1737285490,441723584,base_link,0,1,33.6371377,72.9912754,503.3162020650828,0.5012639999999999,0.0,0.0,0.0,0.5012639999999999,0.0,0.0,0.0,1.0424409999999997,2
1737285490.7426648,13089,1737285490,641723584,base_link,0,1,33.6371375,72.9912751,503.34619964757024,0.5012639999999999,0.0,0.0,0.0,0.5012639999999999,0.0,0.0,0.0,1.0424409999999997,2
1737285490.8399258,13090,1737285490,641723328,base_link,0,1,33.6371375,72.9912751,503.34619964757024,0.5012639999999999,0.0,0.0,0.0,0.5012639999999999,0.0,0.0,0.0,1.0424409999999997,2
1737285490.9399238,13091,1737285490,841723328,base_link,0,1,33.6371374,72.9912748,503.37619784303155,0.49984899999999993,0.0,0.0,0.0,0.49984899999999993,0.0,0.0,0.0,1.044484,2
1737285491.040028,13092,1737285490,841723072,base_link,0,1,33.6371374,72.9912748,503.37619784303155,0.49984899999999993,0.0,0.0,0.0,0.49984899999999993,0.0,0.0,0.0,1.044484,2
1737285491.1415095,13093,1737285491,41723328,base_link,0,1,33.6371373,72.9912746,503.3961964356817,0.49843599999999993,0.0,0.0,0.0,0.49843599999999993,0.0,0.0,0.0,1.044484,2
1737285491.2404194,13094,1737285491,41723072,base_link,0,1,33.6371373,72.9912746,503.3961964356817,0.49843599999999993,0.0,0.0,0.0,0.49843599999999993,0.0,0.0,0.0,1.044484,2
1737285491.3400245,13095,1737285491,241723328,base_link,0,1,33.6371372,72.9912744,503.4361950283323,0.49843599999999993,0.0,0.0,0.0,0.49843599999999993,0.0,0.0,0.0,1.044484,2
1737285491.4398954,13096,1737285491,241723328,base_link,0,1,33.6371372,72.9912744,503.4361950283323,0.49843599999999993,0.0,0.0,0.0,0.49843599999999993,0.0,0.0,0.0,1.044484,2
1737285491.5397978,13097,1737285491,441723328,base_link,0,1,33.6371371,72.9912744,503.46619441535984,0.49702499999999994,0.0,0.0,0.0,0.49702499999999994,0.0,0.0,0.0,1.0465289999999998,2
1737285491.6427693,13098,1737285491,441723328,base_link,0,1,33.6371371,72.9912744,503.46619441535984,0.49702499999999994,0.0,0.0,0.0,0.49702499999999994,0.0,0.0,0.0,1.0465289999999998,2
1737285491.7403715,13099,1737285491,641728192,base_link,0,1,33.637137,72.9912744,503.47619380238746,0.49702499999999994,0.0,0.0,0.0,0.49702499999999994,0.0,0.0,0.0,1.048576,2
1737285491.8415968,13100,1737285491,641728192,base_link,0,1,33.637137,72.9912744,503.47619380238746,0.49702499999999994,0.0,0.0,0.0,0.49702499999999994,0.0,0.0,0.0,1.048576,2
1737285491.9395788,13101,1737285491,841728192,base_link,0,1,33.6371368,72.9912744,503.49619257644275,0.49561599999999995,0.0,0.0,0.0,0.49561599999999995,0.0,0.0,0.0,1.050625,2
1737285492.039857,13102,1737285491,841733312,base_link,0,1,33.6371368,72.9912744,503.49619257644275,0.49561599999999995,0.0,0.0,0.0,0.49561599999999995,0.0,0.0,0.0,1.050625,2
1737285492.143852,13103,1737285492,41739456,base_link,0,1,33.6371366,72.9912745,503.5261917476866,0.49561599999999995,0.0,0.0,0.0,0.49561599999999995,0.0,0.0,0.0,1.052676,2
1737285492.241674,13104,1737285492,41739456,base_link,0,1,33.6371366,72.9912745,503.5261917476866,0.49561599999999995,0.0,0.0,0.0,0.49561599999999995,0.0,0.0,0.0,1.052676,2
1737285492.340008,13105,1737285492,241739712,base_link,0,1,33.6371364,72.9912747,503.5261913161187,0.49420899999999995,0.0,0.0,0.0,0.49420899999999995,0.0,0.0,0.0,1.0547289999999998,2
1737285492.4429283,13106,1737285492,241739968,base_link,0,1,33.6371364,72.9912747,503.5261913161187,0.49420899999999995,0.0,0.0,0.0,0.49420899999999995,0.0,0.0,0.0,1.0547289999999998,2
1737285492.541402,13107,1737285492,441740224,base_link,0,1,33.6371362,72.9912749,503.54619088455075,0.49420899999999995,0.0,0.0,0.0,0.49420899999999995,0.0,0.0,0.0,1.056784,2
1737285492.6429272,13108,1737285492,441745344,base_link,0,1,33.6371362,72.9912749,503.54619088455075,0.49420899999999995,0.0,0.0,0.0,0.49420899999999995,0.0,0.0,0.0,1.056784,2
1737285492.7404904,13109,1737285492,641745856,base_link,0,1,33.6371361,72.9912751,503.56619106595485,0.49420899999999995,0.0,0.0,0.0,0.49420899999999995,0.0,0.0,0.0,1.058841,2
1737285492.8401463,13110,1737285492,641745856,base_link,0,1,33.6371361,72.9912751,503.56619106595485,0.49420899999999995,0.0,0.0,0.0,0.49420899999999995,0.0,0.0,0.0,1.058841,2
1737285492.9408154,13111,1737285492,841751232,base_link,0,1,33.6371361,72.9912753,503.57619186033094,0.49561599999999995,0.0,0.0,0.0,0.49561599999999995,0.0,0.0,0.0,1.0629609999999998,2
1737285493.040474,13112,1737285492,841751744,base_link,0,1,33.6371361,72.9912753,503.57619186033094,0.49561599999999995,0.0,0.0,0.0,0.49561599999999995,0.0,0.0,0.0,1.0629609999999998,2
1737285493.1415167,13113,1737285493,41752256,base_link,0,1,33.6371361,72.9912756,503.5861930518951,0.49561599999999995,0.0,0.0,0.0,0.49561599999999995,0.0,0.0,0.0,1.0670889999999997,2
1737285493.2421973,13114,1737285493,41752768,base_link,0,1,33.6371361,72.9912756,503.5861930518951,0.49561599999999995,0.0,0.0,0.0,0.49561599999999995,0.0,0.0,0.0,1.0670889999999997,2
1737285493.3422203,13115,1737285493,241756608,base_link,0,1,33.637136,72.9912758,503.58619323329924,0.49702499999999994,0.0,0.0,0.0,0.49702499999999994,0.0,0.0,0.0,1.0712249999999999,2
1737285493.4425137,13116,1737285493,241757120,base_link,0,1,33.637136,72.9912758,503.58619323329924,0.49702499999999994,0.0,0.0,0.0,0.49702499999999994,0.0,0.0,0.0,1.0712249999999999,2
1737285493.5406377,13117,1737285493,441756096,base_link,0,1,33.6371359,72.9912761,503.58619381189146,0.49843599999999993,0.0,0.0,0.0,0.49843599999999993,0.0,0.0,0.0,1.077444,2
1737285493.6427064,13118,1737285493,441756608,base_link,0,1,33.6371359,72.9912761,503.58619381189146,0.49843599999999993,0.0,0.0,0.0,0.49843599999999993,0.0,0.0,0.0,1.077444,2
1737285493.7424731,13119,1737285493,641760192,base_link,0,1,33.6371359,72.9912762,503.55619420907965,0.49843599999999993,0.0,0.0,0.0,0.49843599999999993,0.0,0.0,0.0,1.0795209999999997,2
1737285493.8449419,13120,1737285493,641760960,base_link,0,1,33.6371359,72.9912762,503.55619420907965,0.49843599999999993,0.0,0.0,0.0,0.49843599999999993,0.0,0.0,0.0,1.0795209999999997,2
1737285493.944616,13121,1737285493,841760192,base_link,0,1,33.6371359,72.9912762,503.55619420907965,0.49702499999999994,0.0,0.0,0.0,0.49702499999999994,0.0,0.0,0.0,1.0816000000000001,2
1737285494.0398438,13122,1737285493,841760704,base_link,0,1,33.6371359,72.9912762,503.55619420907965,0.49702499999999994,0.0,0.0,0.0,0.49702499999999994,0.0,0.0,0.0,1.0816000000000001,2
1737285494.1471248,13123,1737285494,41759936,base_link,0,1,33.6371358,72.9912763,503.5661939932957,0.49702499999999994,0.0,0.0,0.0,0.49702499999999994,0.0,0.0,0.0,1.083681,2
1737285494.2399602,13124,1737285494,41764032,base_link,0,1,33.6371358,72.9912763,503.5661939932957,0.49702499999999994,0.0,0.0,0.0,0.49702499999999994,0.0,0.0,0.0,1.083681,2
1737285494.339132,13125,1737285494,241763520,base_link,0,1,33.6371357,72.9912764,503.5861937775117,0.49561599999999995,0.0,0.0,0.0,0.49561599999999995,0.0,0.0,0.0,1.083681,2
1737285494.4418817,13126,1737285494,241767616,base_link,0,1,33.6371357,72.9912764,503.5861937775117,0.49561599999999995,0.0,0.0,0.0,0.49561599999999995,0.0,0.0,0.0,1.083681,2
1737285494.5418255,13127,1737285494,441766848,base_link,0,1,33.6371357,72.9912764,503.5961937775118,0.49420899999999995,0.0,0.0,0.0,0.49420899999999995,0.0,0.0,0.0,1.083681,2
1737285494.6401055,13128,1737285494,441770944,base_link,0,1,33.6371357,72.9912764,503.5961937775118,0.49420899999999995,0.0,0.0,0.0,0.49420899999999995,0.0,0.0,0.0,1.083681,2
1737285494.7420657,13129,1737285494,641775040,base_link,0,1,33.6371357,72.9912765,503.6061941746999,0.49280399999999996,0.0,0.0,0.0,0.49280399999999996,0.0,0.0,0.0,1.0857640000000002,2
1737285494.8398569,13130,1737285494,641779136,base_link,0,1,33.6371357,72.9912765,503.6061941746999,0.49280399999999996,0.0,0.0,0.0,0.49280399999999996,0.0,0.0,0.0,1.0857640000000002,2
1737285494.94218,13131,1737285494,841784768,base_link,0,1,33.6371357,72.9912765,503.6161941746999,0.49280399999999996,0.0,0.0,0.0,0.49280399999999996,0.0,0.0,0.0,1.0857640000000002,2
1737285495.0403135,13132,1737285494,841785536,base_link,0,1,33.6371357,72.9912765,503.6161941746999,0.49280399999999996,0.0,0.0,0.0,0.49280399999999996,0.0,0.0,0.0,1.0857640000000002,2
1737285495.1415899,13133,1737285495,41784768,base_link,0,1,33.6371357,72.9912764,503.6161937775118,0.4914009999999999,0.0,0.0,0.0,0.4914009999999999,0.0,0.0,0.0,1.0857640000000002,2
1737285495.2418706,13134,1737285495,41785536,base_link,0,1,33.6371357,72.9912764,503.6161937775118,0.4914009999999999,0.0,0.0,0.0,0.4914009999999999,0.0,0.0,0.0,1.0857640000000002,2
1737285495.3418157,13135,1737285495,241791424,base_link,0,1,33.6371356,72.9912763,503.62619276735165,0.48999999999999994,0.0,0.0,0.0,0.48999999999999994,0.0,0.0,0.0,1.0878489999999998,2
1737285495.4427173,13136,1737285495,241792448,base_link,0,1,33.6371356,72.9912763,503.62619276735165,0.48999999999999994,0.0,0.0,0.0,0.48999999999999994,0.0,0.0,0.0,1.0878489999999998,2
1737285495.5426686,13137,1737285495,441798336,base_link,0,1,33.6371356,72.9912762,503.6461923701636,0.48999999999999994,0.0,0.0,0.0,0.48999999999999994,0.0,0.0,0.0,1.0878489999999998,2
1737285495.6402414,13138,1737285495,441802688,base_link,0,1,33.6371356,72.9912762,503.6461923701636,0.48999999999999994,0.0,0.0,0.0,0.48999999999999994,0.0,0.0,0.0,1.0878489999999998,2
1737285495.7402637,13139,1737285495,641803712,base_link,0,1,33.6371356,72.9912762,503.6561923701636,0.48999999999999994,0.0,0.0,0.0,0.48999999999999994,0.0,0.0,0.0,1.0878489999999998,2
1737285495.8428829,13140,1737285495,641808064,base_link,0,1,33.6371356,72.9912762,503.6561923701636,0.48999999999999994,0.0,0.0,0.0,0.48999999999999994,0.0,0.0,0.0,1.0878489999999998,2
1737285495.9408274,13141,1737285495,841812416,base_link,0,1,33.6371356,72.9912761,503.65619197297553,0.48999999999999994,0.0,0.0,0.0,0.48999999999999994,0.0,0.0,0.0,1.089936,2
1737285496.0419753,13142,1737285495,841817024,base_link,0,1,33.6371356,72.9912761,503.65619197297553,0.48999999999999994,0.0,0.0,0.0,0.48999999999999994,0.0,0.0,0.0,1.089936,2
1737285496.1425505,13143,1737285496,41818048,base_link,0,1,33.6371356,72.991276,503.6861915757875,0.48999999999999994,0.0,0.0,0.0,0.48999999999999994,0.0,0.0,0.0,1.089936,2
1737285496.2475102,13144,1737285496,41819072,base_link,0,1,33.6371356,72.991276,503.6861915757875,0.48999999999999994,0.0,0.0,0.0,0.48999999999999994,0.0,0.0,0.0,1.089936,2
1737285496.3428931,13145,1737285496,241818816,base_link,0,1,33.6371357,72.991276,503.69619218875937,0.48999999999999994,0.0,0.0,0.0,0.48999999999999994,0.0,0.0,0.0,1.089936,2
1737285496.4404335,13146,1737285496,241819840,base_link,0,1,33.6371357,72.991276,503.69619218875937,0.48999999999999994,0.0,0.0,0.0,0.48999999999999994,0.0,0.0,0.0,1.089936,2
1737285496.5419936,13147,1737285496,441820864,base_link,0,1,33.6371357,72.9912759,503.7161917915715,0.48999999999999994,0.0,0.0,0.0,0.48999999999999994,0.0,0.0,0.0,1.089936,2
1737285496.6403165,13148,1737285496,441821888,base_link,0,1,33.6371357,72.9912759,503.7161917915715,0.48999999999999994,0.0,0.0,0.0,0.48999999999999994,0.0,0.0,0.0,1.089936,2
1737285496.7400527,13149,1737285496,641826496,base_link,0,1,33.6371357,72.9912758,503.7261913943835,0.48999999999999994,0.0,0.0,0.0,0.48999999999999994,0.0,0.0,0.0,1.089936,2
1737285496.84181,13150,1737285496,641827776,base_link,0,1,33.6371357,72.9912758,503.7261913943835,0.48999999999999994,0.0,0.0,0.0,0.48999999999999994,0.0,0.0,0.0,1.089936,2
1737285496.9440777,13151,1737285496,841832384,base_link,0,1,33.6371358,72.9912758,503.71619200735535,0.48860099999999995,0.0,0.0,0.0,0.48860099999999995,0.0,0.0,0.0,1.0920249999999998,2
1737285497.0423126,13152,1737285496,841832128,base_link,0,1,33.6371358,72.9912758,503.71619200735535,0.48860099999999995,0.0,0.0,0.0,0.48860099999999995,0.0,0.0,0.0,1.0920249999999998,2
1737285497.1409469,13153,1737285497,41831872,base_link,0,1,33.6371359,72.9912757,503.7161922231392,0.48860099999999995,0.0,0.0,0.0,0.48860099999999995,0.0,0.0,0.0,1.0920249999999998,2
1737285497.2434895,13154,1737285497,41836736,base_link,0,1,33.6371359,72.9912757,503.7161922231392,0.48860099999999995,0.0,0.0,0.0,0.48860099999999995,0.0,0.0,0.0,1.0920249999999998,2
1737285497.3428202,13155,1737285497,241841600,base_link,0,1,33.6371359,72.9912757,503.6961922231391,0.4872039999999999,0.0,0.0,0.0,0.4872039999999999,0.0,0.0,0.0,1.0920249999999998,2
1737285497.4400084,13156,1737285497,241841344,base_link,0,1,33.6371359,72.9912757,503.6961922231391,0.4872039999999999,0.0,0.0,0.0,0.4872039999999999,0.0,0.0,0.0,1.0920249999999998,2
1737285497.5398247,13157,1737285497,441841344,base_link,0,1,33.637136,72.9912756,503.69619243892305,0.4872039999999999,0.0,0.0,0.0,0.4872039999999999,0.0,0.0,0.0,1.0920249999999998,2
