Time,header.seq,header.stamp.secs,header.stamp.nsecs,header.frame_id,twist.linear.x,twist.linear.y,twist.linear.z,twist.angular.x,twist.angular.y,twist.angular.z
1737285472.7269256,12809,1737285462,641673152,map,-0.10999989277468566,0.00015358892427054063,0.0,0.0,0.0,0.0
1737285472.7269537,12810,1737285462,641673408,map,-0.10999989277468566,0.00015358892427054063,0.0,0.0,0.0,0.0
1737285472.7269769,12811,1737285462,841672384,map,-0.12999987327917398,0.00018151418322882073,0.0,0.0,0.0,0.0
1737285472.7270896,12812,1737285462,841672640,map,-0.12999987327917398,0.00018151418322882073,0.0,0.0,0.0,0.0
1737285472.7271912,12813,1737285463,41673152,map,-0.059999941513464904,8.377577687484034e-05,0.0,0.0,0.0,0.0
1737285472.7272651,12814,1737285463,41673408,map,-0.059999941513464904,8.377577687484034e-05,0.0,0.0,0.0,0.0
1737285472.727393,12815,1737285463,241672384,map,-0.059999941513464904,8.377577687484034e-05,0.0,0.0,0.0,0.0
1737285472.7274516,12816,1737285463,241672384,map,-0.059999941513464904,8.377577687484034e-05,0.0,0.0,0.0,0.0
1737285472.7275002,12817,1737285463,441672384,map,-0.09999990252244151,0.00013962629479140058,0.0,0.0,0.0,0.0
1737285472.7275624,12818,1737285463,441672640,map,-0.09999990252244151,0.00013962629479140058,0.0,0.0,0.0,0.0
1737285472.7276437,12819,1737285463,641672128,map,-0.08999991227019735,0.0001256636653122605,0.0,0.0,0.0,0.0
1737285472.7277045,12820,1737285463,641672128,map,-0.08999991227019735,0.0001256636653122605,0.0,0.0,0.0,0.0
1737285472.7277596,12821,1737285463,841671360,map,-0.12999987327917398,0.00018151418322882073,0.0,0.0,0.0,0.0
1737285472.7278306,12822,1737285463,841671616,map,-0.12999987327917398,0.00018151418322882073,0.0,0.0,0.0,0.0
1737285472.7290266,12823,1737285464,41671104,map,-0.12999987327917398,0.00018151418322882073,0.0,0.0,0.0,0.0
1737285472.7291207,12824,1737285464,41671360,map,-0.12999987327917398,0.00018151418322882073,0.0,0.0,0.0,0.0
1737285472.7291977,12825,1737285464,241670592,map,-0.10999989277468566,0.00015358892427054063,0.0,0.0,0.0,0.0
1737285472.7292802,12826,1737285464,241670848,map,-0.10999989277468566,0.00015358892427054063,0.0,0.0,0.0,0.0
1737285472.7293537,12827,1737285464,441670080,map,-0.08999991227019735,0.0001256636653122605,0.0,0.0,0.0,0.0
1737285472.7294226,12828,1737285464,441670592,map,-0.08999991227019735,0.0001256636653122605,0.0,0.0,0.0,0.0
1737285472.7295086,12829,1737285464,641671104,map,-0.039999961008976605,5.585051791656023e-05,0.0,0.0,0.0,0.0
1737285472.730139,12830,1737285464,641671616,map,-0.039999961008976605,5.585051791656023e-05,0.0,0.0,0.0,0.0
1737285472.7301939,12831,1737285464,841670848,map,-0.029999970756732452,4.188788843742017e-05,0.0,0.0,0.0,0.0
1737285472.7302868,12832,1737285464,841671360,map,-0.029999970756732452,4.188788843742017e-05,0.0,0.0,0.0,0.0
1737285472.7303321,12833,1737285465,41670848,map,-0.009999990252244151,1.3962629479140057e-05,0.0,0.0,0.0,0.0
1737285472.7303922,12834,1737285465,41671360,map,-0.009999990252244151,1.3962629479140057e-05,0.0,0.0,0.0,0.0
1737285472.7304366,12835,1737285465,241670848,map,-0.019999980504488302,2.7925258958280113e-05,0.0,0.0,0.0,0.0
1737285472.730478,12836,1737285465,241671616,map,-0.019999980504488302,2.7925258958280113e-05,0.0,0.0,0.0,0.0
1737285472.7305312,12837,1737285465,441671360,map,-0.07999992201795321,0.00011170103583312045,0.0,0.0,0.0,0.0
1737285472.7309551,12838,1737285465,441671872,map,-0.07999992201795321,0.00011170103583312045,0.0,0.0,0.0,0.0
1737285472.731011,12839,1737285465,641671360,map,-0.009999990252244151,1.3962629479140057e-05,0.0,0.0,0.0,0.0
1737285472.7310796,12840,1737285465,641672128,map,-0.009999990252244151,1.3962629479140057e-05,0.0,0.0,0.0,0.0
1737285472.7311444,12841,1737285465,841671872,map,-0.059999941513464904,8.377577687484034e-05,0.0,0.0,0.0,0.0
1737285472.731211,12842,1737285465,841672640,map,-0.059999941513464904,8.377577687484034e-05,0.0,0.0,0.0,0.0
1737285472.7312982,12843,1737285466,41673408,map,-0.09999990252244151,0.00013962629479140058,0.0,0.0,0.0,0.0
1737285472.7313948,12844,1737285466,41674176,map,-0.09999990252244151,0.00013962629479140058,0.0,0.0,0.0,0.0
1737285472.731456,12845,1737285466,241673664,map,-0.12999987327917398,0.00018151418322882073,0.0,0.0,0.0,0.0
1737285472.7319028,12846,1737285466,241674688,map,-0.12999987327917398,0.00018151418322882073,0.0,0.0,0.0,0.0
1737285472.7325547,12847,1737285466,441674432,map,-0.08999991227019735,0.0001256636653122605,0.0,0.0,0.0,0.0
1737285472.7326086,12848,1737285466,441675456,map,-0.08999991227019735,0.0001256636653122605,0.0,0.0,0.0,0.0
1737285472.7326524,12849,1737285466,641675200,map,-0.059999941513464904,8.377577687484034e-05,0.0,0.0,0.0,0.0
1737285472.7507143,12850,1737285466,641675968,map,-0.059999941513464904,8.377577687484034e-05,0.0,0.0,0.0,0.0
1737285472.75081,12851,1737285466,841675968,map,-0.059999941513464904,8.377577687484034e-05,0.0,0.0,0.0,0.0
1737285472.7508352,12852,1737285466,841676992,map,-0.059999941513464904,8.377577687484034e-05,0.0,0.0,0.0,0.0
1737285472.751104,12853,1737285467,41677760,map,-0.049999951261220754,6.981314739570029e-05,0.0,0.0,0.0,0.0
1737285472.7511308,12854,1737285467,41678784,map,-0.049999951261220754,6.981314739570029e-05,0.0,0.0,0.0,0.0
1737285472.7511864,12855,1737285467,241679808,map,-0.07999992201795321,0.00011170103583312045,0.0,0.0,0.0,0.0
1737285472.751255,12856,1737285467,241680832,map,-0.07999992201795321,0.00011170103583312045,0.0,0.0,0.0,0.0
1737285472.7513323,12857,1737285467,441680832,map,-0.039999961008976605,5.585051791656023e-05,0.0,0.0,0.0,0.0
1737285472.7514167,12858,1737285467,441681856,map,-0.039999961008976605,5.585051791656023e-05,0.0,0.0,0.0,0.0
1737285472.751492,12859,1737285467,641681600,map,-0.06999993176570907,9.77384063539804e-05,0.0,0.0,0.0,0.0
1737285472.751522,12860,1737285467,641682880,map,-0.06999993176570907,9.77384063539804e-05,0.0,0.0,0.0,0.0
1737285472.7515469,12861,1737285467,841682624,map,-0.11999988302692981,0.00016755155374968068,0.0,0.0,0.0,0.0
1737285472.751818,12862,1737285467,841682112,map,-0.11999988302692981,0.00016755155374968068,0.0,0.0,0.0,0.0
1737285472.7519593,12863,1737285468,41682368,map,-0.06999993176570907,9.77384063539804e-05,0.0,0.0,0.0,0.0
1737285472.752168,12864,1737285468,41682112,map,-0.06999993176570907,9.77384063539804e-05,0.0,0.0,0.0,0.0
1737285472.7522414,12865,1737285468,241681856,map,-0.029999970756732452,4.188788843742017e-05,0.0,0.0,0.0,0.0
1737285472.752313,12866,1737285468,241681344,map,-0.029999970756732452,4.188788843742017e-05,0.0,0.0,0.0,0.0
1737285472.752405,12867,1737285468,441681088,map,-0.06999993176570907,9.77384063539804e-05,0.0,0.0,0.0,0.0
1737285472.7524862,12868,1737285468,441680832,map,-0.06999993176570907,9.77384063539804e-05,0.0,0.0,0.0,0.0
1737285472.7525735,12869,1737285468,641680576,map,-0.019999980504488302,2.7925258958280113e-05,0.0,0.0,0.0,0.0
1737285472.7526505,12870,1737285468,641680576,map,-0.019999980504488302,2.7925258958280113e-05,0.0,0.0,0.0,0.0
1737285472.7527092,12871,1737285468,841680320,map,-0.019999980504488302,2.7925258958280113e-05,0.0,0.0,0.0,0.0
1737285472.7528472,12872,1737285468,841680064,map,-0.019999980504488302,2.7925258958280113e-05,0.0,0.0,0.0,0.0
1737285472.752949,12873,1737285469,41680064,map,-0.019999980504488302,2.7925258958280113e-05,0.0,0.0,0.0,0.0
1737285472.753102,12874,1737285469,41679808,map,-0.019999980504488302,2.7925258958280113e-05,0.0,0.0,0.0,0.0
1737285472.7532437,12875,1737285469,241680064,map,-0.07999992201795321,0.00011170103583312045,0.0,0.0,0.0,0.0
1737285472.753414,12876,1737285469,241679808,map,-0.07999992201795321,0.00011170103583312045,0.0,0.0,0.0,0.0
1737285472.7536051,12877,1737285469,441680064,map,-0.009999990252244151,1.3962629479140057e-05,0.0,0.0,0.0,0.0
1737285472.753635,12878,1737285469,441680064,map,-0.009999990252244151,1.3962629479140057e-05,0.0,0.0,0.0,0.0
1737285472.7536829,12879,1737285469,641680064,map,-0.009999990252244151,1.3962629479140057e-05,0.0,0.0,0.0,0.0
1737285472.7537887,12880,1737285469,641680064,map,-0.009999990252244151,1.3962629479140057e-05,0.0,0.0,0.0,0.0
1737285472.754012,12881,1737285469,841680320,map,-0.019999980504488302,2.7925258958280113e-05,0.0,0.0,0.0,0.0
1737285472.7595875,12882,1737285469,841680320,map,-0.019999980504488302,2.7925258958280113e-05,0.0,0.0,0.0,0.0
1737285472.7621362,12883,1737285470,41680320,map,-0.019999980504488302,2.7925258958280113e-05,0.0,0.0,0.0,0.0
1737285472.7621608,12884,1737285470,41673664,map,-0.019999980504488302,2.7925258958280113e-05,0.0,0.0,0.0,0.0
1737285472.7621903,12885,1737285470,241673664,map,-0.019999980504488302,2.7925258958280113e-05,0.0,0.0,0.0,0.0
1737285472.7622511,12886,1737285470,241667008,map,-0.019999980504488302,2.7925258958280113e-05,0.0,0.0,0.0,0.0
1737285472.7623227,12887,1737285470,441665728,map,-0.06999993176570907,9.77384063539804e-05,0.0,0.0,0.0,0.0
1737285472.7623913,12888,1737285470,441665728,map,-0.06999993176570907,9.77384063539804e-05,0.0,0.0,0.0,0.0
1737285472.762421,12889,1737285470,641664960,map,-0.18835287147938606,-0.06725470842602681,0.0,0.0,0.0,0.0
1737285472.762449,12890,1737285470,641665216,map,-0.18835287147938606,-0.06725470842602681,0.0,0.0,0.0,0.0
1737285472.762549,12891,1737285470,841665728,map,-0.2688973131639407,-0.024376935271145032,0.0,0.0,0.0,0.0
1737285472.7628167,12892,1737285470,841665984,map,-0.2688973131639407,-0.024376935271145032,0.0,0.0,0.0,0.0
1737285472.7629375,12893,1737285471,41665984,map,-0.27396234506192524,-0.057832806331446725,0.0,0.0,0.0,0.0
1737285472.7696445,12894,1737285471,41666240,map,-0.27396234506192524,-0.057832806331446725,0.0,0.0,0.0,0.0
1737285472.7696717,12895,1737285471,241667264,map,-0.2574665515630621,0.19002887892692813,0.0,0.0,0.0,0.0
1737285472.769712,12896,1737285471,241667776,map,-0.2574665515630621,0.19002887892692813,0.0,0.0,0.0,0.0
1737285472.7698095,12897,1737285471,441667008,map,0.00692698105863604,0.4899510352406792,0.0,0.0,0.0,0.0
1737285472.770168,12898,1737285471,441667520,map,0.00692698105863604,0.4899510352406792,0.0,0.0,0.0,0.0
1737285472.7733731,12899,1737285471,641670848,map,0.3649084260118924,1.0058537869022135,0.0,0.0,0.0,0.0
1737285472.773396,12900,1737285471,641671360,map,0.3649084260118924,1.0058537869022135,0.0,0.0,0.0,0.0
1737285472.7734263,12901,1737285471,841671872,map,0.5589295414876229,1.2726734725185542,0.0,0.0,0.0,0.0
1737285472.773536,12902,1737285471,841672384,map,0.5589295414876229,1.2726734725185542,0.0,0.0,0.0,0.0
1737285472.773623,12903,1737285472,41671616,map,0.6448873239747573,1.265116729545806,0.0,0.0,0.0,0.0
1737285472.7736557,12904,1737285472,41672384,map,0.6448873239747573,1.265116729545806,0.0,0.0,0.0,0.0
1737285472.7770083,12905,1737285472,241672896,map,0.7845104832177421,1.4287908530367432,0.0,0.0,0.0,0.0
1737285472.777036,12906,1737285472,241672384,map,0.7845104832177421,1.4287908530367432,0.0,0.0,0.0,0.0
1737285472.7770855,12907,1737285472,441672896,map,0.594050432180075,1.2233985793790454,0.0,0.0,0.0,0.0
1737285472.7792249,12908,1737285472,441673408,map,0.594050432180075,1.2233985793790454,0.0,0.0,0.0,0.0
1737285472.7819347,12909,1737285472,641672896,map,0.3915582188205575,0.8983775160109876,0.0,0.0,0.0,0.0
1737285472.8407278,12910,1737285472,641673664,map,0.3915582188205575,0.8983775160109876,0.0,0.0,0.0,0.0
1737285472.940411,12911,1737285472,841672640,map,0.22197996689840727,0.5681768160491785,0.0,0.0,0.0,0.0
1737285473.0408618,12912,1737285472,841673152,map,0.22197996689840727,0.5681768160491785,0.0,0.0,0.0,0.0
1737285473.140249,12913,1737285473,41672640,map,0.08733638041904547,0.22354497680623417,0.0,0.0,0.0,0.0
1737285473.2424388,12914,1737285473,41673408,map,0.08733638041904547,0.22354497680623417,0.0,0.0,0.0,0.0
1737285473.3389196,12915,1737285473,241672896,map,-0.07125637097648423,0.3222150362650099,0.0,0.0,0.0,0.0
1737285473.4380462,12916,1737285473,241673664,map,-0.07125637097648423,0.3222150362650099,0.0,0.0,0.0,0.0
1737285473.541603,12917,1737285473,441673152,map,-0.49906206411963727,-0.03061137299513092,0.0,0.0,0.0,0.0
1737285473.6414776,12918,1737285473,441674176,map,-0.49906206411963727,-0.03061137299513092,0.0,0.0,0.0,0.0
1737285473.7419646,12919,1737285473,641673920,map,-0.5691296707071423,-0.3721443509188065,0.0,0.0,0.0,0.0
1737285473.8403127,12920,1737285473,641674944,map,-0.5691296707071423,-0.3721443509188065,0.0,0.0,0.0,0.0
1737285473.9408138,12921,1737285473,841675712,map,-0.5461956098786094,-0.49926982259028435,0.0,0.0,0.0,0.0
1737285474.0411217,12922,1737285473,841676736,map,-0.5461956098786094,-0.49926982259028435,0.0,0.0,0.0,0.0
1737285474.1429374,12923,1737285474,41676480,map,-0.47219114848483645,-0.5697679521459338,0.0,0.0,0.0,0.0
1737285474.2407558,12924,1737285474,41677504,map,-0.47219114848483645,-0.5697679521459338,0.0,0.0,0.0,0.0
1737285474.3409684,12925,1737285474,241679040,map,-0.4080556773973291,-0.5314043320709825,0.0,0.0,0.0,0.0
1737285474.443294,12926,1737285474,241679808,map,-0.4080556773973291,-0.5314043320709825,0.0,0.0,0.0,0.0
1737285474.5450642,12927,1737285474,441671104,map,-0.3801733561117362,-0.48976343197786726,0.0,0.0,0.0,0.0
1737285474.6408777,12928,1737285474,441670848,map,-0.3801733561117362,-0.48976343197786726,0.0,0.0,0.0,0.0
1737285474.741433,12929,1737285474,641670592,map,-0.27301110245750027,-0.4068967165448012,0.0,0.0,0.0,0.0
1737285474.8417294,12930,1737285474,641670080,map,-0.27301110245750027,-0.4068967165448012,0.0,0.0,0.0,0.0
1737285474.9443505,12931,1737285474,841669824,map,-0.27866565576562174,-0.4030452236371448,0.0,0.0,0.0,0.0
1737285475.0423794,12932,1737285474,841669312,map,-0.27866565576562174,-0.4030452236371448,0.0,0.0,0.0,0.0
1737285475.14665,12933,1737285475,41669056,map,-0.21790471427302757,-0.3113158131184316,0.0,0.0,0.0,0.0
1737285475.2425442,12934,1737285475,41668800,map,-0.21790471427302757,-0.3113158131184316,0.0,0.0,0.0,0.0
1737285475.339844,12935,1737285475,241661888,map,-0.20279820055515976,-0.28525933788675384,0.0,0.0,0.0,0.0
1737285475.440831,12936,1737285475,241661632,map,-0.20279820055515976,-0.28525933788675384,0.0,0.0,0.0,0.0
1737285475.5410073,12937,1737285475,441661632,map,-0.17795102352449702,-0.2161791692707323,0.0,0.0,0.0,0.0
1737285475.639689,12938,1737285475,441661376,map,-0.17795102352449702,-0.2161791692707323,0.0,0.0,0.0,0.0
1737285475.7400944,12939,1737285475,641665728,map,-0.13848156545899437,-0.18363783931430433,0.0,0.0,0.0,0.0
1737285475.842094,12940,1737285475,641665472,map,-0.13848156545899437,-0.18363783931430433,0.0,0.0,0.0,0.0
1737285475.9403574,12941,1737285475,841665472,map,-0.1757229449364697,-0.29106948761911555,0.0,0.0,0.0,0.0
1737285476.0400555,12942,1737285475,841665216,map,-0.1757229449364697,-0.29106948761911555,0.0,0.0,0.0,0.0
1737285476.14207,12943,1737285476,41665216,map,-0.22535921035524692,-0.5126531247423151,0.0,0.0,0.0,0.0
1737285476.2389894,12944,1737285476,41664960,map,-0.22535921035524692,-0.5126531247423151,0.0,0.0,0.0,0.0
1737285476.341529,12945,1737285476,241665472,map,-0.4276795117795941,-0.9260076863633303,0.0,0.0,0.0,0.0
1737285476.440156,12946,1737285476,241665216,map,-0.4276795117795941,-0.9260076863633303,0.0,0.0,0.0,0.0
1737285476.5395515,12947,1737285476,441665472,map,-0.5367975016251716,-1.1730082873743792,0.0,0.0,0.0,0.0
1737285476.6416507,12948,1737285476,441665472,map,-0.5367975016251716,-1.1730082873743792,0.0,0.0,0.0,0.0
1737285476.752782,12949,1737285476,641665984,map,-0.7295730277640595,-1.6891782609183625,0.0,0.0,0.0,0.0
1737285476.840442,12950,1737285476,641666240,map,-0.7295730277640595,-1.6891782609183625,0.0,0.0,0.0,0.0
1737285476.941087,12951,1737285476,841666240,map,-0.6996273305436975,-1.7879937355472753,0.0,0.0,0.0,0.0
1737285477.0405657,12952,1737285476,841666496,map,-0.6996273305436975,-1.7879937355472753,0.0,0.0,0.0,0.0
1737285477.1401806,12953,1737285477,41666752,map,-0.6504383834666789,-1.7958368270289071,0.0,0.0,0.0,0.0
1737285477.2413282,12954,1737285477,41667008,map,-0.6504383834666789,-1.7958368270289071,0.0,0.0,0.0,0.0
1737285477.3398352,12955,1737285477,241667264,map,-0.6342713536111705,-1.8122085558754693,0.0,0.0,0.0,0.0
1737285477.4399722,12956,1737285477,241667776,map,-0.6342713536111705,-1.8122085558754693,0.0,0.0,0.0,0.0
1737285477.5418692,12957,1737285477,441668032,map,-0.5883156190295367,-1.6799656938181486,0.0,0.0,0.0,0.0
1737285477.6407752,12958,1737285477,441668288,map,-0.5883156190295367,-1.6799656938181486,0.0,0.0,0.0,0.0
1737285477.7399569,12959,1737285477,641668800,map,-0.49028267061285996,-1.4704158945334895,0.0,0.0,0.0,0.0
1737285477.8396075,12960,1737285477,641669056,map,-0.49028267061285996,-1.4704158945334895,0.0,0.0,0.0,0.0
1737285477.9424713,12961,1737285477,841669568,map,-0.43322357521863875,-1.320763920568237,0.0,0.0,0.0,0.0
1737285478.041501,12962,1737285477,841670080,map,-0.43322357521863875,-1.320763920568237,0.0,0.0,0.0,0.0
1737285478.1430461,12963,1737285478,41670592,map,-0.3823576659608514,-1.1795773036477812,0.0,0.0,0.0,0.0
1737285478.2455406,12964,1737285478,41670848,map,-0.3823576659608514,-1.1795773036477812,0.0,0.0,0.0,0.0
1737285478.3405082,12965,1737285478,241670080,map,-0.3386403122409974,-1.0465766760850923,0.0,0.0,0.0,0.0
1737285478.4401722,12966,1737285478,241671104,map,-0.3386403122409974,-1.0465766760850923,0.0,0.0,0.0,0.0
1737285478.5419729,12967,1737285478,441670080,map,-0.3320118021864107,-1.1843429246670627,0.0,0.0,0.0,0.0
1737285478.6399746,12968,1737285478,441670592,map,-0.3320118021864107,-1.1843429246670627,0.0,0.0,0.0,0.0
1737285478.7464128,12969,1737285478,641669824,map,-0.3290526671505142,-1.1643987041564126,0.0,0.0,0.0,0.0
1737285478.8447995,12970,1737285478,641670336,map,-0.3290526671505142,-1.1643987041564126,0.0,0.0,0.0,0.0
1737285478.9393842,12971,1737285478,841669312,map,-0.4152880600913452,-1.4101190826116663,0.0,0.0,0.0,0.0
1737285479.042575,12972,1737285478,841669824,map,-0.4152880600913452,-1.4101190826116663,0.0,0.0,0.0,0.0
1737285479.1423833,12973,1737285479,41670336,map,-0.4937117404876933,-1.5114062052620443,0.0,0.0,0.0,0.0
1737285479.2399921,12974,1737285479,41671104,map,-0.4937117404876933,-1.5114062052620443,0.0,0.0,0.0,0.0
1737285479.3428357,12975,1737285479,241675968,map,-0.4955689880069507,-1.4897353382818597,0.0,0.0,0.0,0.0
1737285479.4451158,12976,1737285479,241676736,map,-0.4955689880069507,-1.4897353382818597,0.0,0.0,0.0,0.0
1737285479.5395865,12977,1737285479,441676224,map,-0.5194544294480409,-1.5660993249876618,0.0,0.0,0.0,0.0
1737285479.6462865,12978,1737285479,441676992,map,-0.5194544294480409,-1.5660993249876618,0.0,0.0,0.0,0.0
1737285479.74239,12979,1737285479,641676224,map,-0.4792830522174224,-1.4424589269220638,0.0,0.0,0.0,0.0
1737285479.8423293,12980,1737285479,641676736,map,-0.4792830522174224,-1.4424589269220638,0.0,0.0,0.0,0.0
1737285479.9439468,12981,1737285479,841678016,map,-0.4032923005579245,-1.3092957344735745,0.0,0.0,0.0,0.0
1737285480.0448985,12982,1737285479,841678016,map,-0.4032923005579245,-1.3092957344735745,0.0,0.0,0.0,0.0
1737285480.1451705,12983,1737285480,41677504,map,-0.31384938875338275,-1.127119586015223,0.0,0.0,0.0,0.0
1737285480.2419755,12984,1737285480,41679552,map,-0.31384938875338275,-1.127119586015223,0.0,0.0,0.0,0.0
1737285480.3452353,12985,1737285480,241680576,map,-0.21123866580103268,-0.8645682310093284,0.0,0.0,0.0,0.0
1737285480.4444318,12986,1737285480,241680576,map,-0.21123866580103268,-0.8645682310093284,0.0,0.0,0.0,0.0
1737285480.541833,12987,1737285480,441680064,map,-0.14830210701690708,-0.7759552081495078,0.0,0.0,0.0,0.0
1737285480.6419575,12988,1737285480,441681344,map,-0.14830210701690708,-0.7759552081495078,0.0,0.0,0.0,0.0
1737285480.742049,12989,1737285480,641681088,map,-0.063780712486053,-0.42524348403564216,0.0,0.0,0.0,0.0
1737285480.8409622,12990,1737285480,641682112,map,-0.063780712486053,-0.42524348403564216,0.0,0.0,0.0,0.0
1737285480.9434538,12991,1737285480,841682112,map,-0.014832723833965817,-0.09889383349666098,0.0,0.0,0.0,0.0
1737285481.0408974,12992,1737285480,841682880,map,-0.014832723833965817,-0.09889383349666098,0.0,0.0,0.0,0.0
1737285481.142327,12993,1737285481,41682624,map,-0.032631992434724796,-0.21756643369265413,0.0,0.0,0.0,0.0
1737285481.2409844,12994,1737285481,41683392,map,-0.032631992434724796,-0.21756643369265413,0.0,0.0,0.0,0.0
1737285481.3431838,12995,1737285481,241683136,map,0.37776944982352473,-0.31207409822032883,0.0,0.0,0.0,0.0
1737285481.44938,12996,1737285481,241684160,map,0.37776944982352473,-0.31207409822032883,0.0,0.0,0.0,0.0
1737285481.5447183,12997,1737285481,441683904,map,0.5672474363155523,0.5921404782595371,0.0,0.0,0.0,0.0
1737285481.6424549,12998,1737285481,441684928,map,0.5672474363155523,0.5921404782595371,0.0,0.0,0.0,0.0
1737285481.7447686,12999,1737285481,641686208,map,0.47830974273813,0.912206001954484,0.0,0.0,0.0,0.0
1737285481.841612,13000,1737285481,641687232,map,0.47830974273813,0.912206001954484,0.0,0.0,0.0,0.0
1737285481.9454038,13001,1737285481,841687232,map,0.4505918546493952,1.1013931997809039,0.0,0.0,0.0,0.0
1737285482.0402155,13002,1737285481,841688512,map,0.4505918546493952,1.1013931997809039,0.0,0.0,0.0,0.0
1737285482.14179,13003,1737285482,41688512,map,0.43402705840382283,1.2994308417816336,0.0,0.0,0.0,0.0
1737285482.243467,13004,1737285482,41688512,map,0.43402705840382283,1.2994308417816336,0.0,0.0,0.0,0.0
1737285482.3464344,13005,1737285482,241688512,map,0.43958943835436687,1.3291956686986655,0.0,0.0,0.0,0.0
1737285482.4442067,13006,1737285482,241688256,map,0.43958943835436687,1.3291956686986655,0.0,0.0,0.0,0.0
1737285482.5396848,13007,1737285482,441688256,map,0.5079283094753351,1.5277790522302395,0.0,0.0,0.0,0.0
1737285482.63948,13008,1737285482,441688000,map,0.5079283094753351,1.5277790522302395,0.0,0.0,0.0,0.0
1737285482.7434974,13009,1737285482,641687744,map,0.5947580181584791,1.6138968058200618,0.0,0.0,0.0,0.0
1737285482.8503473,13010,1737285482,641687488,map,0.5947580181584791,1.6138968058200618,0.0,0.0,0.0,0.0
1737285482.9406476,13011,1737285482,841688768,map,0.584323598473984,1.6177039074770185,0.0,0.0,0.0,0.0
1737285483.0401733,13012,1737285482,841688768,map,0.584323598473984,1.6177039074770185,0.0,0.0,0.0,0.0
1737285483.1401367,13013,1737285483,41688768,map,0.5527439622356484,1.5227849855485298,0.0,0.0,0.0,0.0
1737285483.2395298,13014,1737285483,41688768,map,0.5527439622356484,1.5227849855485298,0.0,0.0,0.0,0.0
1737285483.3390117,13015,1737285483,241689024,map,0.5311944054653276,1.5092489866163028,0.0,0.0,0.0,0.0
1737285483.4402392,13016,1737285483,241689024,map,0.5311944054653276,1.5092489866163028,0.0,0.0,0.0,0.0
1737285483.5392685,13017,1737285483,441689280,map,0.46398968482788955,1.3843097819394745,0.0,0.0,0.0,0.0
1737285483.6401591,13018,1737285483,441689280,map,0.46398968482788955,1.3843097819394745,0.0,0.0,0.0,0.0
1737285483.740667,13019,1737285483,641690304,map,0.3659520102303551,1.1323334871884527,0.0,0.0,0.0,0.0
1737285483.8479483,13020,1737285483,641690304,map,0.3659520102303551,1.1323334871884527,0.0,0.0,0.0,0.0
1737285483.9422877,13021,1737285483,841690816,map,0.285441257595321,1.0000616423313125,0.0,0.0,0.0,0.0
1737285484.0397336,13022,1737285483,841691072,map,0.285441257595321,1.0000616423313125,0.0,0.0,0.0,0.0
1737285484.1399724,13023,1737285484,41691584,map,0.19120839619228525,0.8282145550674499,0.0,0.0,0.0,0.0
1737285484.2391734,13024,1737285484,41691840,map,0.19120839619228525,0.8282145550674499,0.0,0.0,0.0,0.0
1737285484.3400197,13025,1737285484,241692096,map,0.1375466924479795,0.6659436217853738,0.0,0.0,0.0,0.0
1737285484.4402287,13026,1737285484,241692352,map,0.1375466924479795,0.6659436217853738,0.0,0.0,0.0,0.0
1737285484.5435743,13027,1737285484,441692864,map,0.05127303616691202,0.5074160775559112,0.0,0.0,0.0,0.0
1737285484.6461554,13028,1737285484,441693120,map,0.05127303616691202,0.5074160775559112,0.0,0.0,0.0,0.0
1737285484.7414207,13029,1737285484,641698752,map,0.034215762711073405,0.4386676208498862,0.0,0.0,0.0,0.0
1737285484.848256,13030,1737285484,641701824,map,0.034215762711073405,0.4386676208498862,0.0,0.0,0.0,0.0
1737285484.9490263,13031,1737285484,841701824,map,-0.011238801950220681,0.45986268529934426,0.0,0.0,0.0,0.0
1737285485.0417874,13032,1737285484,841701824,map,-0.011238801950220681,0.45986268529934426,0.0,0.0,0.0,0.0
1737285485.1413925,13033,1737285485,41701824,map,0.01925279914537285,0.5896857889800872,0.0,0.0,0.0,0.0
1737285485.2574759,13034,1737285485,41701824,map,0.01925279914537285,0.5896857889800872,0.0,0.0,0.0,0.0
1737285485.343114,13035,1737285485,241701824,map,0.1573466938826259,0.6820865179170507,0.0,0.0,0.0,0.0
1737285485.4529657,13036,1737285485,241706432,map,0.1573466938826259,0.6820865179170507,0.0,0.0,0.0,0.0
1737285485.547679,13037,1737285485,441711552,map,0.3571116019995976,1.1036626765988242,0.0,0.0,0.0,0.0
1737285485.641856,13038,1737285485,441711552,map,0.3571116019995976,1.1036626765988242,0.0,0.0,0.0,0.0
1737285485.7418118,13039,1737285485,641714624,map,0.5307529061816958,1.4987999708365638,0.0,0.0,0.0,0.0
1737285485.8388445,13040,1737285485,641714624,map,0.5307529061816958,1.4987999708365638,0.0,0.0,0.0,0.0
1737285485.9441915,13041,1737285485,841713600,map,0.7353490451658268,1.956364429694454,0.0,0.0,0.0,0.0
1737285486.0440567,13042,1737285485,841713856,map,0.7353490451658268,1.956364429694454,0.0,0.0,0.0,0.0
1737285486.1419704,13043,1737285486,41713088,map,0.8136175913405154,2.2366104745934767,0.0,0.0,0.0,0.0
1737285486.2419326,13044,1737285486,41713344,map,0.8136175913405154,2.2366104745934767,0.0,0.0,0.0,0.0
1737285486.3433006,13045,1737285486,241712320,map,0.9000329698368311,2.4072475263683817,0.0,0.0,0.0,0.0
1737285486.4412038,13046,1737285486,241712576,map,0.9000329698368311,2.4072475263683817,0.0,0.0,0.0,0.0
1737285486.5401144,13047,1737285486,441711552,map,0.9096890031169087,2.403615176688682,0.0,0.0,0.0,0.0
1737285486.6424367,13048,1737285486,441711552,map,0.9096890031169087,2.403615176688682,0.0,0.0,0.0,0.0
1737285486.7427049,13049,1737285486,641710784,map,0.8635206352911922,2.3034608988273053,0.0,0.0,0.0,0.0
1737285486.8457198,13050,1737285486,641711296,map,0.8635206352911922,2.3034608988273053,0.0,0.0,0.0,0.0
1737285486.9398549,13051,1737285486,841711808,map,0.9069474957136523,2.200419559997305,0.0,0.0,0.0,0.0
1737285487.041261,13052,1737285486,841712320,map,0.9069474957136523,2.200419559997305,0.0,0.0,0.0,0.0
1737285487.1425767,13053,1737285487,41712832,map,1.0031514042767649,2.0585886573323857,0.0,0.0,0.0,0.0
1737285487.2407973,13054,1737285487,41713600,map,1.0031514042767649,2.0585886573323857,0.0,0.0,0.0,0.0
1737285487.3399882,13055,1737285487,241714112,map,1.0471782641184253,1.785586089539768,0.0,0.0,0.0,0.0
1737285487.4410927,13056,1737285487,241714624,map,1.0471782641184253,1.785586089539768,0.0,0.0,0.0,0.0
1737285487.5424542,13057,1737285487,441715392,map,1.2290456129536977,1.6780485336483177,0.0,0.0,0.0,0.0
1737285487.6405158,13058,1737285487,441716160,map,1.2290456129536977,1.6780485336483177,0.0,0.0,0.0,0.0
1737285487.741054,13059,1737285487,641715904,map,1.2959565989091166,1.3757167200204825,0.0,0.0,0.0,0.0
1737285487.8420749,13060,1737285487,641716672,map,1.2959565989091166,1.3757167200204825,0.0,0.0,0.0,0.0
1737285487.942861,13061,1737285487,841716160,map,1.2632841876161565,1.1074805015525049,0.0,0.0,0.0,0.0
1737285488.0412388,13062,1737285487,841716928,map,1.2632841876161565,1.1074805015525049,0.0,0.0,0.0,0.0
1737285488.1407893,13063,1737285488,41717952,map,1.1258354784528162,0.8321625294718085,0.0,0.0,0.0,0.0
1737285488.2428217,13064,1737285488,41718720,map,1.1258354784528162,0.8321625294718085,0.0,0.0,0.0,0.0
1737285488.3421552,13065,1737285488,241718208,map,0.9785382298547667,0.6041216207955974,0.0,0.0,0.0,0.0
1737285488.4419773,13066,1737285488,241718976,map,0.9785382298547667,0.6041216207955974,0.0,0.0,0.0,0.0
1737285488.542769,13067,1737285488,441718720,map,0.8891769154680254,0.45756356170347307,0.0,0.0,0.0,0.0
1737285488.6423898,13068,1737285488,441719744,map,0.8891769154680254,0.45756356170347307,0.0,0.0,0.0,0.0
1737285488.7429125,13069,1737285488,641719488,map,0.729180068446707,0.3290842259666295,0.0,0.0,0.0,0.0
1737285488.8408647,13070,1737285488,641720512,map,0.729180068446707,0.3290842259666295,0.0,0.0,0.0,0.0
1737285488.9409022,13071,1737285488,841720256,map,0.5772940805102316,0.22612285290931192,0.0,0.0,0.0,0.0
1737285489.040662,13072,1737285488,841721280,map,0.5772940805102316,0.22612285290931192,0.0,0.0,0.0,0.0
1737285489.141282,13073,1737285489,41720768,map,0.4357167277631733,0.14748197566941107,0.0,0.0,0.0,0.0
1737285489.2404513,13074,1737285489,41721792,map,0.4357167277631733,0.14748197566941107,0.0,0.0,0.0,0.0
1737285489.3404617,13075,1737285489,241721536,map,0.2717300272824305,0.0675484438983578,0.0,0.0,0.0,0.0
1737285489.442499,13076,1737285489,241722560,map,0.2717300272824305,0.0675484438983578,0.0,0.0,0.0,0.0
1737285489.541115,13077,1737285489,441724096,map,0.23987759441311032,0.0076641828383296,0.0,0.0,0.0,0.0
1737285489.6427476,13078,1737285489,441723584,map,0.23987759441311032,0.0076641828383296,0.0,0.0,0.0,0.0
1737285489.7396066,13079,1737285489,641723328,map,0.1960387517070663,-0.07529148576788212,0.0,0.0,0.0,0.0
1737285489.8422136,13080,1737285489,641723072,map,0.1960387517070663,-0.07529148576788212,0.0,0.0,0.0,0.0
1737285489.9400244,13081,1737285489,841723072,map,0.10434742070982618,-0.14666838715690078,0.0,0.0,0.0,0.0
1737285490.042034,13082,1737285489,841722816,map,0.10434742070982618,-0.14666838715690078,0.0,0.0,0.0,0.0
1737285490.1395159,13083,1737285490,41724352,map,0.0025481117671775975,-0.199983767157292,0.0,0.0,0.0,0.0
1737285490.2395568,13084,1737285490,41724096,map,0.0025481117671775975,-0.199983767157292,0.0,0.0,0.0,0.0
1737285490.3411987,13085,1737285490,241724096,map,-0.07216216529752836,-0.18652780462861884,0.0,0.0,0.0,0.0
1737285490.4410386,13086,1737285490,241723840,map,-0.07216216529752836,-0.18652780462861884,0.0,0.0,0.0,0.0
1737285490.5396607,13087,1737285490,441723840,map,-0.12452944641303583,-0.16909292408632254,0.0,0.0,0.0,0.0
1737285490.64292,13088,1737285490,441723584,map,-0.12452944641303583,-0.16909292408632254,0.0,0.0,0.0,0.0
1737285490.7428527,13089,1737285490,641723584,map,-0.10080955185817186,-0.13688474806988016,0.0,0.0,0.0,0.0
1737285490.8401232,13090,1737285490,641723328,map,-0.10080955185817186,-0.13688474806988016,0.0,0.0,0.0,0.0
1737285490.9401224,13091,1737285490,841723328,map,-0.0770896573033079,-0.10467657205343776,0.0,0.0,0.0,0.0
1737285491.040166,13092,1737285490,841723072,map,-0.0770896573033079,-0.10467657205343776,0.0,0.0,0.0,0.0
1737285491.1417136,13093,1737285491,41723328,map,-0.09487957821945588,-0.12883270406576955,0.0,0.0,0.0,0.0
1737285491.2405214,13094,1737285491,41723072,map,-0.09487957821945588,-0.12883270406576955,0.0,0.0,0.0,0.0
1737285491.3414757,13095,1737285491,241723328,map,-0.04150981547101194,-0.05636430802877418,0.0,0.0,0.0,0.0
1737285491.4401453,13096,1737285491,241723328,map,-0.04150981547101194,-0.05636430802877418,0.0,0.0,0.0,0.0
1737285491.539833,13097,1737285491,441723328,map,-0.03557984183229595,-0.04831226402466358,0.0,0.0,0.0,0.0
1737285491.6428597,13098,1737285491,441723328,map,-0.03557984183229595,-0.04831226402466358,0.0,0.0,0.0,0.0
1737285491.7404726,13099,1737285491,641728192,map,-0.04150981547101194,-0.05636430802877418,0.0,0.0,0.0,0.0
1737285491.8418067,13100,1737285491,641728192,map,-0.04150981547101194,-0.05636430802877418,0.0,0.0,0.0,0.0
1737285491.9397886,13101,1737285491,841728192,map,-0.05929973638715992,-0.08052044004110598,0.0,0.0,0.0,0.0
1737285492.0399745,13102,1737285491,841733312,map,-0.05929973638715992,-0.08052044004110598,0.0,0.0,0.0,0.0
1737285492.1438828,13103,1737285492,41739456,map,-0.03557984183229595,-0.04831226402466358,0.0,0.0,0.0,0.0
1737285492.2417073,13104,1737285492,41739456,map,-0.03557984183229595,-0.04831226402466358,0.0,0.0,0.0,0.0
1737285492.340272,13105,1737285492,241739712,map,-0.04743978910972794,-0.06441635203288477,0.0,0.0,0.0,0.0
1737285492.4430206,13106,1737285492,241739968,map,-0.04743978910972794,-0.06441635203288477,0.0,0.0,0.0,0.0
1737285492.541626,13107,1737285492,441740224,map,-0.03557984183229595,-0.04831226402466358,0.0,0.0,0.0,0.0
1737285492.6431215,13108,1737285492,441745344,map,-0.03557984183229595,-0.04831226402466358,0.0,0.0,0.0,0.0
1737285492.7407024,13109,1737285492,641745856,map,-0.03557984183229595,-0.04831226402466358,0.0,0.0,0.0,0.0
1737285492.8402572,13110,1737285492,641745856,map,-0.03557984183229595,-0.04831226402466358,0.0,0.0,0.0,0.0
1737285492.9410267,13111,1737285492,841751232,map,-0.04743978910972794,-0.06441635203288477,0.0,0.0,0.0,0.0
1737285493.0406864,13112,1737285492,841751744,map,-0.04743978910972794,-0.06441635203288477,0.0,0.0,0.0,0.0
1737285493.1417425,13113,1737285493,41752256,map,-0.02964986819357996,-0.04026022002055299,0.0,0.0,0.0,0.0
1737285493.2422237,13114,1737285493,41752768,map,-0.02964986819357996,-0.04026022002055299,0.0,0.0,0.0,0.0
1737285493.3423245,13115,1737285493,241756608,map,-0.05929973638715992,-0.08052044004110598,0.0,0.0,0.0,0.0
1737285493.4427116,13116,1737285493,241757120,map,-0.05929973638715992,-0.08052044004110598,0.0,0.0,0.0,0.0
1737285493.5408347,13117,1737285493,441756096,map,-0.053369762748443926,-0.07246839603699537,0.0,0.0,0.0,0.0
1737285493.6428974,13118,1737285493,441756608,map,-0.053369762748443926,-0.07246839603699537,0.0,0.0,0.0,0.0
1737285493.7425594,13119,1737285493,641760192,map,-0.005929973638715992,-0.008052044004110597,0.0,0.0,0.0,0.0
1737285493.84517,13120,1737285493,641760960,map,-0.005929973638715992,-0.008052044004110597,0.0,0.0,0.0,0.0
1737285493.9448078,13121,1737285493,841760192,map,-0.02371989455486397,-0.03220817601644239,0.0,0.0,0.0,0.0
1737285494.0400398,13122,1737285493,841760704,map,-0.02371989455486397,-0.03220817601644239,0.0,0.0,0.0,0.0
1737285494.1472063,13123,1737285494,41759936,map,-0.02371989455486397,-0.03220817601644239,0.0,0.0,0.0,0.0
1737285494.2400467,13124,1737285494,41764032,map,-0.02371989455486397,-0.03220817601644239,0.0,0.0,0.0,0.0
1737285494.339244,13125,1737285494,241763520,map,-0.011859947277431985,-0.016104088008221194,0.0,0.0,0.0,0.0
1737285494.4419134,13126,1737285494,241767616,map,-0.011859947277431985,-0.016104088008221194,0.0,0.0,0.0,0.0
1737285494.5419214,13127,1737285494,441766848,map,-0.0,-0.0,0.0,0.0,0.0,0.0
1737285494.6402051,13128,1737285494,441770944,map,-0.0,-0.0,0.0,0.0,0.0,0.0
1737285494.7426062,13129,1737285494,641775040,map,-0.0,-0.0,0.0,0.0,0.0,0.0
1737285494.8400679,13130,1737285494,641779136,map,-0.0,-0.0,0.0,0.0,0.0,0.0
1737285494.942266,13131,1737285494,841784768,map,-0.02964986819357996,-0.04026022002055299,0.0,0.0,0.0,0.0
1737285495.0404189,13132,1737285494,841785536,map,-0.02964986819357996,-0.04026022002055299,0.0,0.0,0.0,0.0
1737285495.1416912,13133,1737285495,41784768,map,-0.03557984183229595,-0.04831226402466358,0.0,0.0,0.0,0.0
1737285495.2421377,13134,1737285495,41785536,map,-0.03557984183229595,-0.04831226402466358,0.0,0.0,0.0,0.0
1737285495.3418827,13135,1737285495,241791424,map,-0.02371989455486397,-0.03220817601644239,0.0,0.0,0.0,0.0
1737285495.4428158,13136,1737285495,241792448,map,-0.02371989455486397,-0.03220817601644239,0.0,0.0,0.0,0.0
1737285495.5427554,13137,1737285495,441798336,map,-0.053369762748443926,-0.07246839603699537,0.0,0.0,0.0,0.0
1737285495.6403422,13138,1737285495,441802688,map,-0.053369762748443926,-0.07246839603699537,0.0,0.0,0.0,0.0
1737285495.7403698,13139,1737285495,641803712,map,-0.011859947277431985,-0.016104088008221194,0.0,0.0,0.0,0.0
1737285495.8430812,13140,1737285495,641808064,map,-0.011859947277431985,-0.016104088008221194,0.0,0.0,0.0,0.0
1737285495.9410298,13141,1737285495,841812416,map,-0.03557984183229595,-0.04831226402466358,0.0,0.0,0.0,0.0
1737285496.0420752,13142,1737285495,841817024,map,-0.03557984183229595,-0.04831226402466358,0.0,0.0,0.0,0.0
1737285496.1427922,13143,1737285496,41818048,map,-0.03557984183229595,-0.04831226402466358,0.0,0.0,0.0,0.0
1737285496.247603,13144,1737285496,41819072,map,-0.03557984183229595,-0.04831226402466358,0.0,0.0,0.0,0.0
1737285496.3430872,13145,1737285496,241818816,map,-0.017789920916147974,-0.02415613201233179,0.0,0.0,0.0,0.0
1737285496.4405425,13146,1737285496,241819840,map,-0.017789920916147974,-0.02415613201233179,0.0,0.0,0.0,0.0
1737285496.542183,13147,1737285496,441820864,map,-0.017789920916147974,-0.02415613201233179,0.0,0.0,0.0,0.0
1737285496.6403513,13148,1737285496,441821888,map,-0.017789920916147974,-0.02415613201233179,0.0,0.0,0.0,0.0
1737285496.7402432,13149,1737285496,641826496,map,-0.03557984183229595,-0.04831226402466358,0.0,0.0,0.0,0.0
1737285496.841873,13150,1737285496,641827776,map,-0.03557984183229595,-0.04831226402466358,0.0,0.0,0.0,0.0
1737285496.944173,13151,1737285496,841832384,map,-0.02964986819357996,-0.04026022002055299,0.0,0.0,0.0,0.0
1737285497.0424118,13152,1737285496,841832128,map,-0.02964986819357996,-0.04026022002055299,0.0,0.0,0.0,0.0
1737285497.1411533,13153,1737285497,41831872,map,-0.02371989455486397,-0.03220817601644239,0.0,0.0,0.0,0.0
1737285497.2436843,13154,1737285497,41836736,map,-0.02371989455486397,-0.03220817601644239,0.0,0.0,0.0,0.0
1737285497.3429282,13155,1737285497,241841600,map,-0.02964986819357996,-0.04026022002055299,0.0,0.0,0.0,0.0
1737285497.4402444,13156,1737285497,241841344,map,-0.02964986819357996,-0.04026022002055299,0.0,0.0,0.0,0.0
1737285497.5401268,13157,1737285497,441841344,map,-0.03557984183229595,-0.04831226402466358,0.0,0.0,0.0,0.0
1737285497.6435437,13158,1737285497,441841088,map,-0.03557984183229595,-0.04831226402466358,0.0,0.0,0.0,0.0
1737285497.7401884,13159,1737285497,641841088,map,-0.02371989455486397,-0.03220817601644239,0.0,0.0,0.0,0.0
1737285497.842732,13160,1737285497,641845952,map,-0.02371989455486397,-0.03220817601644239,0.0,0.0,0.0,0.0
1737285497.9423296,13161,1737285497,841850816,map,-0.03557984183229595,-0.04831226402466358,0.0,0.0,0.0,0.0
1737285498.039502,13162,1737285497,841855680,map,-0.03557984183229595,-0.04831226402466358,0.0,0.0,0.0,0.0
1737285498.142472,13163,1737285498,41860544,map,-0.017789920916147974,-0.02415613201233179,0.0,0.0,0.0,0.0
1737285498.2399993,13164,1737285498,41865408,map,-0.017789920916147974,-0.02415613201233179,0.0,0.0,0.0,0.0
1737285498.3457363,13165,1737285498,241870272,map,-0.03557984183229595,-0.04831226402466358,0.0,0.0,0.0,0.0
1737285498.4414477,13166,1737285498,241875136,map,-0.03557984183229595,-0.04831226402466358,0.0,0.0,0.0,0.0
1737285498.5402524,13167,1737285498,441874880,map,-0.03557984183229595,-0.04831226402466358,0.0,0.0,0.0,0.0
1737285498.640459,13168,1737285498,441879744,map,-0.03557984183229595,-0.04831226402466358,0.0,0.0,0.0,0.0
1737285498.7402663,13169,1737285498,641884608,map,-0.04150981547101194,-0.05636430802877418,0.0,0.0,0.0,0.0
1737285498.8402684,13170,1737285498,641889472,map,-0.04150981547101194,-0.05636430802877418,0.0,0.0,0.0,0.0
1737285498.9430501,13171,1737285498,841894592,map,-0.017789920916147974,-0.02415613201233179,0.0,0.0,0.0,0.0
1737285499.0405688,13172,1737285498,841899712,map,-0.017789920916147974,-0.02415613201233179,0.0,0.0,0.0,0.0
1737285499.1402438,13173,1737285499,41905088,map,-0.02964986819357996,-0.04026022002055299,0.0,0.0,0.0,0.0
1737285499.242946,13174,1737285499,41910208,map,-0.02964986819357996,-0.04026022002055299,0.0,0.0,0.0,0.0
1737285499.3401468,13175,1737285499,241915328,map,-0.04150981547101194,-0.05636430802877418,0.0,0.0,0.0,0.0
1737285499.443285,13176,1737285499,241920704,map,-0.04150981547101194,-0.05636430802877418,0.0,0.0,0.0,0.0
1737285499.540203,13177,1737285499,441926080,map,-0.005929973638715992,-0.008052044004110597,0.0,0.0,0.0,0.0
1737285499.6402175,13178,1737285499,441931456,map,-0.005929973638715992,-0.008052044004110597,0.0,0.0,0.0,0.0
1737285499.746527,13179,1737285499,641936576,map,-0.011859947277431985,-0.016104088008221194,0.0,0.0,0.0,0.0
1737285499.83975,13180,1737285499,641941952,map,-0.011859947277431985,-0.016104088008221194,0.0,0.0,0.0,0.0
1737285499.9448502,13181,1737285499,841947328,map,-0.017789920916147974,-0.02415613201233179,0.0,0.0,0.0,0.0
1737285500.0415184,13182,1737285499,841952704,map,-0.017789920916147974,-0.02415613201233179,0.0,0.0,0.0,0.0
1737285500.1437798,13183,1737285500,41952704,map,-0.005929973638715992,-0.008052044004110597,0.0,0.0,0.0,0.0
1737285500.240636,13184,1737285500,41956544,map,-0.005929973638715992,-0.008052044004110597,0.0,0.0,0.0,0.0
1737285500.340592,13185,1737285500,241956800,map,-0.005929973638715992,-0.008052044004110597,0.0,0.0,0.0,0.0
1737285500.441616,13186,1737285500,241960640,map,-0.005929973638715992,-0.008052044004110597,0.0,0.0,0.0,0.0
1737285500.5480623,13187,1737285500,441965760,map,-0.0,-0.0,0.0,0.0,0.0,0.0
1737285500.6430464,13188,1737285500,441969600,map,-0.0,-0.0,0.0,0.0,0.0,0.0
1737285500.7400823,13189,1737285500,641973184,map,-0.0711596836645919,-0.09662452804932715,0.0,0.0,0.0,0.0
1737285500.8420265,13190,1737285500,641973440,map,-0.0711596836645919,-0.09662452804932715,0.0,0.0,0.0,0.0
1737285500.9423366,13191,1737285500,841973696,map,-0.017789920916147974,-0.02415613201233179,0.0,0.0,0.0,0.0
1737285501.0451884,13192,1737285500,841974208,map,-0.017789920916147974,-0.02415613201233179,0.0,0.0,0.0,0.0
1737285501.1443384,13193,1737285501,41974464,map,-0.02371989455486397,-0.03220817601644239,0.0,0.0,0.0,0.0
1737285501.2423687,13194,1737285501,41974976,map,-0.02371989455486397,-0.03220817601644239,0.0,0.0,0.0,0.0
1737285501.34242,13195,1737285501,241975488,map,-0.0770896573033079,-0.10467657205343776,0.0,0.0,0.0,0.0
1737285501.4447763,13196,1737285501,241979328,map,-0.0770896573033079,-0.10467657205343776,0.0,0.0,0.0,0.0
1737285501.5460231,13197,1737285501,441983168,map,-0.04743978910972794,-0.06441635203288477,0.0,0.0,0.0,0.0
1737285501.6461573,13198,1737285501,441987008,map,-0.04743978910972794,-0.06441635203288477,0.0,0.0,0.0,0.0
1737285501.7429433,13199,1737285501,641990848,map,-0.0770896573033079,-0.10467657205343776,0.0,0.0,0.0,0.0
1737285501.8405294,13200,1737285501,641991360,map,-0.0770896573033079,-0.10467657205343776,0.0,0.0,0.0,0.0
1737285501.941741,13201,1737285501,841995456,map,-0.005929973638715992,-0.008052044004110597,0.0,0.0,0.0,0.0
1737285502.040505,13202,1737285501,841999552,map,-0.005929973638715992,-0.008052044004110597,0.0,0.0,0.0,0.0
1737285502.1402373,13203,1737285502,42003904,map,-0.0711596836645919,-0.09662452804932715,0.0,0.0,0.0,0.0
1737285502.2405376,13204,1737285502,42008256,map,-0.0711596836645919,-0.09662452804932715,0.0,0.0,0.0,0.0
1737285502.3418992,13205,1737285502,242012608,map,-0.03557984183229595,-0.04831226402466358,0.0,0.0,0.0,0.0
1737285502.4422247,13206,1737285502,242016960,map,-0.03557984183229595,-0.04831226402466358,0.0,0.0,0.0,0.0
1737285502.5435402,13207,1737285502,442017728,map,-0.053369762748443926,-0.07246839603699537,0.0,0.0,0.0,0.0
1737285502.6422114,13208,1737285502,442022336,map,-0.053369762748443926,-0.07246839603699537,0.0,0.0,0.0,0.0
1737285502.7439468,13209,1737285502,642026688,map,-0.011859947277431985,-0.016104088008221194,0.0,0.0,0.0,0.0
1737285502.842837,13210,1737285502,642031296,map,-0.011859947277431985,-0.016104088008221194,0.0,0.0,0.0,0.0
1737285502.943878,13211,1737285502,842035648,map,-0.02371989455486397,-0.03220817601644239,0.0,0.0,0.0,0.0
1737285503.0420651,13212,1737285502,842040000,map,-0.02371989455486397,-0.03220817601644239,0.0,0.0,0.0,0.0
1737285503.1411371,13213,1737285503,42040512,map,-0.04743978910972794,-0.06441635203288477,0.0,0.0,0.0,0.0
1737285503.2410772,13214,1737285503,42044608,map,-0.04743978910972794,-0.06441635203288477,0.0,0.0,0.0,0.0
1737285503.3468015,13215,1737285503,242045632,map,-0.053369762748443926,-0.07246839603699537,0.0,0.0,0.0,0.0
1737285503.44531,13216,1737285503,242049984,map,-0.053369762748443926,-0.07246839603699537,0.0,0.0,0.0,0.0
1737285503.5425596,13217,1737285503,442055872,map,-0.011859947277431985,-0.016104088008221194,0.0,0.0,0.0,0.0
1737285503.6408126,13218,1737285503,442056896,map,-0.011859947277431985,-0.016104088008221194,0.0,0.0,0.0,0.0
1737285503.7436361,13219,1737285503,642061248,map,-0.011859947277431985,-0.016104088008221194,0.0,0.0,0.0,0.0
1737285503.8411717,13220,1737285503,642065600,map,-0.011859947277431985,-0.016104088008221194,0.0,0.0,0.0,0.0
1737285503.9416053,13221,1737285503,842070208,map,-0.04150981547101194,-0.05636430802877418,0.0,0.0,0.0,0.0
1737285504.0416648,13222,1737285503,842074816,map,-0.04150981547101194,-0.05636430802877418,0.0,0.0,0.0,0.0
1737285504.1412773,13223,1737285504,42075584,map,-0.05929973638715992,-0.08052044004110598,0.0,0.0,0.0,0.0
1737285504.2412868,13224,1737285504,42080192,map,-0.05929973638715992,-0.08052044004110598,0.0,0.0,0.0,0.0
1737285504.3398566,13225,1737285504,242084544,map,-0.11330934695358308,-0.15251554639758053,0.0,0.0,0.0,0.0
1737285504.4445724,13226,1737285504,242089152,map,-0.11330934695358308,-0.15251554639758053,0.0,0.0,0.0,0.0
1737285504.5472612,13227,1737285504,442093760,map,-0.06560014823628495,-0.0882984742301782,0.0,0.0,0.0,0.0
1737285504.642246,13228,1737285504,442098368,map,-0.06560014823628495,-0.0882984742301782,0.0,0.0,0.0,0.0
1737285504.7427375,13229,1737285504,642102976,map,-0.02385459935864907,-0.032108536083701164,0.0,0.0,0.0,0.0
1737285504.840608,13230,1737285504,642111936,map,-0.02385459935864907,-0.032108536083701164,0.0,0.0,0.0,0.0
1737285504.9404557,13231,1737285504,842117056,map,-0.011927299679324535,-0.016054268041850582,0.0,0.0,0.0,0.0
1737285505.0403843,13232,1737285504,842121920,map,-0.011927299679324535,-0.016054268041850582,0.0,0.0,0.0,0.0
1737285505.1404393,13233,1737285505,42121664,map,-0.07752744791560948,-0.10435274227202879,0.0,0.0,0.0,0.0
1737285505.2404332,13234,1737285505,42126784,map,-0.07752744791560948,-0.10435274227202879,0.0,0.0,0.0,0.0
1737285505.3399625,13235,1737285505,242131648,map,-0.053672848556960404,-0.07224420618832761,0.0,0.0,0.0,0.0
1737285505.4393737,13236,1737285505,242136512,map,-0.053672848556960404,-0.07224420618832761,0.0,0.0,0.0,0.0
1737285505.5398142,13237,1737285505,442141376,map,-0.089454747594934,-0.12040701031387935,0.0,0.0,0.0,0.0
1737285505.6413045,13238,1737285505,442146240,map,-0.089454747594934,-0.12040701031387935,0.0,0.0,0.0,0.0
1737285505.7436926,13239,1737285505,642151104,map,-0.0715637980759472,-0.09632560825110348,0.0,0.0,0.0,0.0
1737285505.8408175,13240,1737285505,642155968,map,-0.0715637980759472,-0.09632560825110348,0.0,0.0,0.0,0.0
1737285505.9426377,13241,1737285505,842160832,map,-0.0178909495189868,-0.02408140206277587,0.0,0.0,0.0,0.0
1737285506.040272,13242,1737285505,842165696,map,-0.0178909495189868,-0.02408140206277587,0.0,0.0,0.0,0.0
1737285506.1417913,13243,1737285506,42165440,map,-0.053672848556960404,-0.07224420618832761,0.0,0.0,0.0,0.0
1737285506.2431364,13244,1737285506,42170560,map,-0.053672848556960404,-0.07224420618832761,0.0,0.0,0.0,0.0
1737285506.3412538,13245,1737285506,242175424,map,-0.041745548877635874,-0.05618993814647704,0.0,0.0,0.0,0.0
1737285506.4405885,13246,1737285506,242180544,map,-0.041745548877635874,-0.05618993814647704,0.0,0.0,0.0,0.0
1737285506.5401418,13247,1737285506,442181056,map,-0.08349109775527175,-0.11237987629295408,0.0,0.0,0.0,0.0
1737285506.64264,13248,1737285506,442186176,map,-0.08349109775527175,-0.11237987629295408,0.0,0.0,0.0,0.0
1737285506.7417903,13249,1737285506,642191296,map,-0.0357818990379736,-0.04816280412555174,0.0,0.0,0.0,0.0
1737285506.8405495,13250,1737285506,642196416,map,-0.0357818990379736,-0.04816280412555174,0.0,0.0,0.0,0.0
1737285506.9409187,13251,1737285506,842201536,map,-0.0178909495189868,-0.02408140206277587,0.0,0.0,0.0,0.0
1737285507.0410442,13252,1737285506,842206656,map,-0.0178909495189868,-0.02408140206277587,0.0,0.0,0.0,0.0
1737285507.1408596,13253,1737285507,42206656,map,-0.005963649839662267,-0.008027134020925291,0.0,0.0,0.0,0.0
1737285507.2403662,13254,1737285507,42206912,map,-0.005963649839662267,-0.008027134020925291,0.0,0.0,0.0,0.0
1737285507.3411803,13255,1737285507,242212032,map,-0.041745548877635874,-0.05618993814647704,0.0,0.0,0.0,0.0
1737285507.442639,13256,1737285507,242216896,map,-0.041745548877635874,-0.05618993814647704,0.0,0.0,0.0,0.0
1737285507.540416,13257,1737285507,442222016,map,-0.0357818990379736,-0.04816280412555174,0.0,0.0,0.0,0.0
1737285507.6406476,13258,1737285507,442226880,map,-0.0357818990379736,-0.04816280412555174,0.0,0.0,0.0,0.0
1737285507.7401218,13259,1737285507,642231744,map,-0.06560014823628495,-0.0882984742301782,0.0,0.0,0.0,0.0
1737285507.840598,13260,1737285507,642235328,map,-0.06560014823628495,-0.0882984742301782,0.0,0.0,0.0,0.0
1737285507.9405081,13261,1737285507,842240448,map,-0.011927299679324535,-0.016054268041850582,0.0,0.0,0.0,0.0
1737285508.042486,13262,1737285507,842244288,map,-0.011927299679324535,-0.016054268041850582,0.0,0.0,0.0,0.0
1737285508.1419451,13263,1737285508,42249664,map,-0.005963649839662267,-0.008027134020925291,0.0,0.0,0.0,0.0
1737285508.2428384,13264,1737285508,42253504,map,-0.005963649839662267,-0.008027134020925291,0.0,0.0,0.0,0.0
1737285508.3422244,13265,1737285508,242258880,map,-0.011927299679324535,-0.016054268041850582,0.0,0.0,0.0,0.0
1737285508.4402695,13266,1737285508,242262720,map,-0.011927299679324535,-0.016054268041850582,0.0,0.0,0.0,0.0
1737285508.5439417,13267,1737285508,442268352,map,-0.0715637980759472,-0.09632560825110348,0.0,0.0,0.0,0.0
1737285508.6443439,13268,1737285508,442272448,map,-0.0715637980759472,-0.09632560825110348,0.0,0.0,0.0,0.0
1737285508.7426915,13269,1737285508,642278080,map,-0.0178909495189868,-0.02408140206277587,0.0,0.0,0.0,0.0
1737285508.8420317,13270,1737285508,642282176,map,-0.0178909495189868,-0.02408140206277587,0.0,0.0,0.0,0.0
1737285508.9425592,13271,1737285508,842286272,map,-0.029818249198311338,-0.04013567010462646,0.0,0.0,0.0,0.0
1737285509.0422087,13272,1737285508,842290368,map,-0.029818249198311338,-0.04013567010462646,0.0,0.0,0.0,0.0
1737285509.1403112,13273,1737285509,42295744,map,-0.02385459935864907,-0.032108536083701164,0.0,0.0,0.0,0.0
1737285509.2417502,13274,1737285509,42299584,map,-0.02385459935864907,-0.032108536083701164,0.0,0.0,0.0,0.0
1737285509.3424025,13275,1737285509,242303424,map,-0.029818249198311338,-0.04013567010462646,0.0,0.0,0.0,0.0
1737285509.4435813,13276,1737285509,242307520,map,-0.029818249198311338,-0.04013567010462646,0.0,0.0,0.0,0.0
1737285509.5414312,13277,1737285509,442312896,map,-0.041745548877635874,-0.05618993814647704,0.0,0.0,0.0,0.0
1737285509.6404507,13278,1737285509,442313408,map,-0.041745548877635874,-0.05618993814647704,0.0,0.0,0.0,0.0
1737285509.7395732,13279,1737285509,642318784,map,-0.041745548877635874,-0.05618993814647704,0.0,0.0,0.0,0.0
1737285509.8402166,13280,1737285509,642322880,map,-0.041745548877635874,-0.05618993814647704,0.0,0.0,0.0,0.0
1737285509.940423,13281,1737285509,842328512,map,-0.02385459935864907,-0.032108536083701164,0.0,0.0,0.0,0.0
1737285510.0433261,13282,1737285509,842332608,map,-0.02385459935864907,-0.032108536083701164,0.0,0.0,0.0,0.0
1737285510.1426613,13283,1737285510,42338240,map,-0.04770919871729814,-0.06421707216740233,0.0,0.0,0.0,0.0
1737285510.242739,13284,1737285510,42342336,map,-0.04770919871729814,-0.06421707216740233,0.0,0.0,0.0,0.0
1737285510.342623,13285,1737285510,242346432,map,-0.0178909495189868,-0.02408140206277587,0.0,0.0,0.0,0.0
1737285510.440649,13286,1737285510,242350528,map,-0.0178909495189868,-0.02408140206277587,0.0,0.0,0.0,0.0
1737285510.540344,13287,1737285510,442354880,map,-0.059636498396622675,-0.08027134020925292,0.0,0.0,0.0,0.0
1737285510.6405973,13288,1737285510,442359232,map,-0.059636498396622675,-0.08027134020925292,0.0,0.0,0.0,0.0
1737285510.7406268,13289,1737285510,642363328,map,-0.06560014823628495,-0.0882984742301782,0.0,0.0,0.0,0.0
1737285510.8406742,13290,1737285510,642367680,map,-0.06560014823628495,-0.0882984742301782,0.0,0.0,0.0,0.0
1737285510.9403224,13291,1737285510,842372288,map,-0.0178909495189868,-0.02408140206277587,0.0,0.0,0.0,0.0
1737285511.0408013,13292,1737285510,842376896,map,-0.0178909495189868,-0.02408140206277587,0.0,0.0,0.0,0.0
1737285511.140926,13293,1737285511,42376896,map,-0.02385459935864907,-0.032108536083701164,0.0,0.0,0.0,0.0
1737285511.2409332,13294,1737285511,42381760,map,-0.02385459935864907,-0.032108536083701164,0.0,0.0,0.0,0.0
1737285511.3421195,13295,1737285511,242386112,map,-0.053672848556960404,-0.07224420618832761,0.0,0.0,0.0,0.0
1737285511.4411592,13296,1737285511,242390464,map,-0.053672848556960404,-0.07224420618832761,0.0,0.0,0.0,0.0
1737285511.5416358,13297,1737285511,442394816,map,-0.0357818990379736,-0.04816280412555174,0.0,0.0,0.0,0.0
1737285511.6409457,13298,1737285511,442399168,map,-0.0357818990379736,-0.04816280412555174,0.0,0.0,0.0,0.0
1737285511.7412183,13299,1737285511,642403520,map,-0.053672848556960404,-0.07224420618832761,0.0,0.0,0.0,0.0
1737285511.8433876,13300,1737285511,642407872,map,-0.053672848556960404,-0.07224420618832761,0.0,0.0,0.0,0.0
1737285511.940818,13301,1737285511,842412224,map,-0.059636498396622675,-0.08027134020925292,0.0,0.0,0.0,0.0
1737285512.0417912,13302,1737285511,842416832,map,-0.059636498396622675,-0.08027134020925292,0.0,0.0,0.0,0.0
1737285512.1404963,13303,1737285512,42421184,map,-0.005963649839662267,-0.008027134020925291,0.0,0.0,0.0,0.0
1737285512.2401893,13304,1737285512,42425536,map,-0.005963649839662267,-0.008027134020925291,0.0,0.0,0.0,0.0
1737285512.3416636,13305,1737285512,242429888,map,-0.029818249198311338,-0.04013567010462646,0.0,0.0,0.0,0.0
1737285512.4416277,13306,1737285512,242434496,map,-0.029818249198311338,-0.04013567010462646,0.0,0.0,0.0,0.0
1737285512.5422585,13307,1737285512,442439104,map,-0.011927299679324535,-0.016054268041850582,0.0,0.0,0.0,0.0
1737285512.643111,13308,1737285512,442443712,map,-0.011927299679324535,-0.016054268041850582,0.0,0.0,0.0,0.0
1737285512.742861,13309,1737285512,642448320,map,-0.0357818990379736,-0.04816280412555174,0.0,0.0,0.0,0.0
1737285512.8422716,13310,1737285512,642452928,map,-0.0357818990379736,-0.04816280412555174,0.0,0.0,0.0,0.0
1737285512.9417815,13311,1737285512,842457536,map,-0.005963649839662267,-0.008027134020925291,0.0,0.0,0.0,0.0
1737285513.041377,13312,1737285512,842462144,map,-0.005963649839662267,-0.008027134020925291,0.0,0.0,0.0,0.0
1737285513.1419015,13313,1737285513,42461888,map,-0.052900536173592354,-0.3661987619757151,0.0,0.0,0.0,0.0
1737285513.2415564,13314,1737285513,42466496,map,-0.052900536173592354,-0.3661987619757151,0.0,0.0,0.0,0.0
1737285513.343236,13315,1737285513,242470848,map,-0.024305651755434327,-0.16825348523208533,0.0,0.0,0.0,0.0
1737285513.441637,13316,1737285513,242477504,map,-0.024305651755434327,-0.16825348523208533,0.0,0.0,0.0,0.0
1737285513.5426214,13317,1737285513,442481856,map,-0.012867697988171112,-0.0890753745346334,0.0,0.0,0.0,0.0
1737285513.6435938,13318,1737285513,442481600,map,-0.012867697988171112,-0.0890753745346334,0.0,0.0,0.0,0.0
1737285513.7434547,13319,1737285513,642486208,map,-0.011437953767263212,-0.07917811069745191,0.0,0.0,0.0,0.0
1737285513.8421056,13320,1737285513,642490816,map,-0.011437953767263212,-0.07917811069745191,0.0,0.0,0.0,0.0
1737285513.942366,13321,1737285513,842495424,map,-0.002859488441815803,-0.019794527674362978,0.0,0.0,0.0,0.0
1737285514.042491,13322,1737285513,842499776,map,-0.002859488441815803,-0.019794527674362978,0.0,0.0,0.0,0.0
1737285514.142376,13323,1737285514,42504384,map,-0.002859488441815803,-0.019794527674362978,0.0,0.0,0.0,0.0
1737285514.242397,13324,1737285514,42508992,map,-0.002859488441815803,-0.019794527674362978,0.0,0.0,0.0,0.0
1737285514.3471653,13325,1737285514,242513856,map,-0.002859488441815803,-0.019794527674362978,0.0,0.0,0.0,0.0
1737285514.4398086,13326,1737285514,242518464,map,-0.002859488441815803,-0.019794527674362978,0.0,0.0,0.0,0.0
1737285514.541581,13327,1737285514,442523584,map,-0.0014297442209079015,-0.009897263837181489,0.0,0.0,0.0,0.0
1737285514.644084,13328,1737285514,442528704,map,-0.0014297442209079015,-0.009897263837181489,0.0,0.0,0.0,0.0
1737285514.7426329,13329,1737285514,642533824,map,-0.0042892326627237045,-0.029691791511544465,0.0,0.0,0.0,0.0
1737285514.8420339,13330,1737285514,642538944,map,-0.0042892326627237045,-0.029691791511544465,0.0,0.0,0.0,0.0
1737285514.9399831,13331,1737285514,842544064,map,-0.0014297442209079015,-0.009897263837181489,0.0,0.0,0.0,0.0
1737285515.0406492,13332,1737285514,842547904,map,-0.0014297442209079015,-0.009897263837181489,0.0,0.0,0.0,0.0
1737285515.142304,13333,1737285515,42548160,map,-0.0042892326627237045,-0.029691791511544465,0.0,0.0,0.0,0.0
1737285515.242107,13334,1737285515,42552000,map,-0.0042892326627237045,-0.029691791511544465,0.0,0.0,0.0,0.0
1737285515.3441067,13335,1737285515,242557120,map,-0.005718976883631606,-0.039589055348725956,0.0,0.0,0.0,0.0
1737285515.4412954,13336,1737285515,242561216,map,-0.005718976883631606,-0.039589055348725956,0.0,0.0,0.0,0.0
1737285515.5424144,13337,1737285515,442566336,map,-0.005718976883631606,-0.039589055348725956,0.0,0.0,0.0,0.0
1737285515.6411965,13338,1737285515,442569920,map,-0.005718976883631606,-0.039589055348725956,0.0,0.0,0.0,0.0
1737285515.7429376,13339,1737285515,642575296,map,-0.0014297442209079015,-0.009897263837181489,0.0,0.0,0.0,0.0
1737285515.8410063,13340,1737285515,642578880,map,-0.0014297442209079015,-0.009897263837181489,0.0,0.0,0.0,0.0
1737285515.9425843,13341,1737285515,842584256,map,-0.0014297442209079015,-0.009897263837181489,0.0,0.0,0.0,0.0
1737285516.0421464,13342,1737285515,842588096,map,-0.0014297442209079015,-0.009897263837181489,0.0,0.0,0.0,0.0
1737285516.14255,13343,1737285516,42591680,map,-0.0042892326627237045,-0.029691791511544465,0.0,0.0,0.0,0.0
1737285516.241717,13344,1737285516,42593984,map,-0.0042892326627237045,-0.029691791511544465,0.0,0.0,0.0,0.0
1737285516.342539,13345,1737285516,242597824,map,-0.005718976883631606,-0.039589055348725956,0.0,0.0,0.0,0.0
1737285516.441194,13346,1737285516,242601408,map,-0.005718976883631606,-0.039589055348725956,0.0,0.0,0.0,0.0
1737285516.5424647,13347,1737285516,442605248,map,-0.0014297442209079015,-0.009897263837181489,0.0,0.0,0.0,0.0
1737285516.6436088,13348,1737285516,442609088,map,-0.0014297442209079015,-0.009897263837181489,0.0,0.0,0.0,0.0
1737285516.7424498,13349,1737285516,642612928,map,-0.0014297442209079015,-0.009897263837181489,0.0,0.0,0.0,0.0
1737285516.8430436,13350,1737285516,642616768,map,-0.0014297442209079015,-0.009897263837181489,0.0,0.0,0.0,0.0
1737285516.9443254,13351,1737285516,842620864,map,-0.0042892326627237045,-0.029691791511544465,0.0,0.0,0.0,0.0
1737285517.043184,13352,1737285516,842624704,map,-0.0042892326627237045,-0.029691791511544465,0.0,0.0,0.0,0.0
1737285517.1436787,13353,1737285517,42624960,map,-0.0071487211045395075,-0.04948631918590745,0.0,0.0,0.0,0.0
1737285517.2417612,13354,1737285517,42628800,map,-0.0071487211045395075,-0.04948631918590745,0.0,0.0,0.0,0.0
1737285517.3406396,13355,1737285517,242631360,map,-0.0014297442209079015,-0.009897263837181489,0.0,0.0,0.0,0.0
1737285517.4407308,13356,1737285517,242635456,map,-0.0014297442209079015,-0.009897263837181489,0.0,0.0,0.0,0.0
1737285517.5438485,13357,1737285517,442639040,map,-0.0,-0.0,0.0,0.0,0.0,0.0
1737285517.64299,13358,1737285517,442642880,map,-0.0,-0.0,0.0,0.0,0.0,0.0
1737285517.7426453,13359,1737285517,642646720,map,-0.0014297442209079015,-0.009897263837181489,0.0,0.0,0.0,0.0
1737285517.8407044,13360,1737285517,642650560,map,-0.0014297442209079015,-0.009897263837181489,0.0,0.0,0.0,0.0
1737285517.9430423,13361,1737285517,842654400,map,-0.0042892326627237045,-0.029691791511544465,0.0,0.0,0.0,0.0
1737285518.0502996,13362,1737285517,842656960,map,-0.0042892326627237045,-0.029691791511544465,0.0,0.0,0.0,0.0
1737285518.1401863,13363,1737285518,42660800,map,-0.0014297442209079015,-0.009897263837181489,0.0,0.0,0.0,0.0
1737285518.2404637,13364,1737285518,42664640,map,-0.0014297442209079015,-0.009897263837181489,0.0,0.0,0.0,0.0
1737285518.3404377,13365,1737285518,242668480,map,-0.002859488441815803,-0.019794527674362978,0.0,0.0,0.0,0.0
1737285518.4406254,13366,1737285518,242672576,map,-0.002859488441815803,-0.019794527674362978,0.0,0.0,0.0,0.0
1737285518.540761,13367,1737285518,442676416,map,-0.002859488441815803,-0.019794527674362978,0.0,0.0,0.0,0.0
1737285518.640711,13368,1737285518,442680256,map,-0.002859488441815803,-0.019794527674362978,0.0,0.0,0.0,0.0
