Time,header.seq,header.stamp.secs,header.stamp.nsecs,header.frame_id,twist.linear.x,twist.linear.y,twist.linear.z,twist.angular.x,twist.angular.y,twist.angular.z
1737285472.7407467,12809,1737285462,736673152,base_link,-0.019034150215576643,0.055794430493733935,-0.02374657610091639,0.18595053255558014,0.030249187722802166,0.03993830829858779
1737285472.7408142,12810,1737285462,836673408,base_link,-0.022235711631639083,0.05641947140347367,-0.016194359175100297,0.0762384682893753,-0.03746923804283141,0.09831829369068146
1737285472.7409034,12811,1737285462,936672384,base_link,-0.029157322463952095,0.06037440322701512,-0.017938802451456418,-0.06767663359642029,-0.013055674731731396,0.15061983466148376
1737285472.741019,12812,1737285463,36672640,base_link,-0.026488915742566226,0.05186294674065432,-0.014692832449793808,0.026240073144435883,-0.05066900700330732,0.1772022545337677
1737285472.7413538,12813,1737285463,136673152,base_link,-0.03126621553843877,0.05141055475405159,-0.01219727332446753,-0.1774032562971115,0.038160540163517054,0.4290376901626587
1737285472.7414377,12814,1737285463,236673408,base_link,-0.03380714462649302,0.05678289313409233,-0.01775947695334326,0.19062107801437378,-0.11629185080528257,0.22028037905693057
1737285472.7415178,12815,1737285463,336672384,base_link,-0.04249527857480265,0.03262161134305138,-0.016940587503658597,0.1770971119403839,-0.30175259709358215,0.07921364158391957
1737285472.741579,12816,1737285463,436672384,base_link,-0.05036050365765688,0.028748500200305813,-0.011673514455015391,0.13523508608341217,-0.03508017957210543,-0.1444532722234726
1737285472.7416565,12817,1737285463,536672384,base_link,-0.048559190552347,0.0644806174648246,-0.010837304047704062,0.0967288687825203,-0.011247164569795081,0.4049699008464813
1737285472.7416797,12818,1737285463,636672640,base_link,-0.07746387952147327,0.032670298061114426,-0.015170269465430711,0.3642299175262451,-0.11244391649961473,-0.07305778563022612
1737285472.7417557,12819,1737285463,736672128,base_link,-0.06752787796209024,0.06866549908187405,0.0023416445832565354,-0.11397931724786758,0.28427982330322266,0.19282506406307218
1737285472.7418873,12820,1737285463,836672128,base_link,-0.0793653257550478,0.05274832987238376,-0.009769898116082967,0.1973802149295807,-0.04623158276081087,-0.19793850183486938
1737285472.7419593,12821,1737285463,936671360,base_link,-0.09390702036123652,0.04428795570152899,-0.009327001062471594,0.5717697143554688,-0.15097589790821075,-0.005413834005594235
1737285472.7419963,12822,1737285464,36671616,base_link,-0.07262351095530038,0.07315499736444167,0.001498074766594987,0.10710375010967255,0.08524876832962039,0.24895820021629333
1737285472.7420318,12823,1737285464,136671104,base_link,-0.05953355790624679,0.07953223774684454,0.014056167618795272,-0.21073542535305023,0.42483749985694885,0.05085603892803187
1737285472.7420866,12824,1737285464,236671360,base_link,-0.06419434615378025,0.04773200579533686,-0.005487269654733089,-0.03572565317153931,-0.14219197630882266,-0.1871157735586166
1737285472.7421224,12825,1737285464,336670592,base_link,-0.05674478062551006,0.028417394947240805,-0.008816373687429808,0.5207405090332031,-0.13800111413002014,0.060890022665262236
1737285472.7421875,12826,1737285464,436670848,base_link,-0.04539756545019379,0.03383187984905534,-0.005493405295591055,0.2473815232515335,-0.011332030408084377,0.1297995001077652
1737285472.7422254,12827,1737285464,536670080,base_link,-0.023436670216125867,0.04663745165568057,0.00664957068609539,-0.10051240772008896,0.18779225647449496,0.13963492214679715
1737285472.7422652,12828,1737285464,636670592,base_link,-0.018482020214931793,0.034712583514920306,0.01468776144156305,-0.46379953622817993,0.1479358673095703,0.06094004213809965
1737285472.7423058,12829,1737285464,736671104,base_link,-0.019309721523567427,0.004036551814639043,0.00025100854396578143,0.2960289418697357,-0.08645567297935487,-0.15412670373916626
1737285472.742401,12830,1737285464,836671616,base_link,-0.005616747306259371,-0.012958301837309208,-0.0037091376143648675,0.4876815676689148,-0.3067101538181305,-0.06805727630853649
1737285472.742474,12831,1737285464,936670848,base_link,0.0148222332149718,0.010741078593205028,0.003746193934640084,0.060309723019599915,0.1980405300855637,0.18729175627231595
1737285472.742805,12832,1737285465,36671360,base_link,0.0307738420172188,0.010477572663605342,0.0041927376510202865,-0.3015887141227722,0.03225286677479743,-0.07089994102716446
1737285472.7429483,12833,1737285465,136670848,base_link,0.02015902882791179,-0.02626917543420744,-0.033549889976918344,0.3646705448627472,-0.23982152342796328,-0.1856775730848312
1737285472.7430441,12834,1737285465,236671360,base_link,0.01575553195873405,-0.03791604272641912,-0.03552962836640281,0.41718584299087524,-0.14458519220352173,-0.03838976100087164
1737285472.7431135,12835,1737285465,336670848,base_link,0.036483432144474776,-0.004976051593956255,-0.014157570728620667,-0.32048770785331726,0.3166726231575012,0.06847935169935222
1737285472.7431889,12836,1737285465,436671616,base_link,0.02806836782697433,-0.024083947967491318,-0.023085285658772353,0.05118824541568756,-0.10603807866573337,-0.24559231102466583
1737285472.7432566,12837,1737285465,536671360,base_link,0.016793300229022787,-0.041664215533117,-0.04463414750563281,0.35690760612487793,-0.0919811874628067,0.02450840547680856
1737285472.743332,12838,1737285465,636671872,base_link,0.028235996427159737,-0.027267407615919902,-0.04241053292699017,0.02158403769135475,0.20033061504364016,0.22522462904453275
1737285472.7433949,12839,1737285465,736671360,base_link,0.02828364344261439,-0.04261794523250364,-0.03292441504665975,-0.285655677318573,-0.018315557390451452,-0.1674804985523224
1737285472.743526,12840,1737285465,836672128,base_link,0.012199065316833775,-0.06736596121448667,-0.036399638149477324,0.4210096299648285,-0.1902102530002594,-0.08382478356361386
1737285472.74355,12841,1737285465,936671872,base_link,0.02942651874018875,-0.05073647338735134,-0.032017757317761436,0.10120368003845215,0.11065254360437396,0.23043541610240936
1737285472.7436466,12842,1737285466,36672640,base_link,0.028321628992702894,-0.052243640302702885,-0.020080283842397836,-0.2571691870689392,0.1505960673093796,0.1781743913888931
1737285472.74378,12843,1737285466,136673408,base_link,0.016075986662038338,-0.08687614192152815,-0.03390385650221393,0.3144761919975281,-0.3111404776573181,-0.2080922573804855
1737285472.744647,12844,1737285466,236674176,base_link,0.006514753870784542,-0.09493838372662047,-0.03405511037609792,0.24153953790664673,0.00849304348230363,0.07804565131664276
1737285472.7464387,12845,1737285466,336673664,base_link,0.022035337902673542,-0.0655398866473718,-0.015922437102689393,-0.1950385421514511,0.40072011947631836,0.16641530394554133
1737285472.746507,12846,1737285466,436674688,base_link,0.020986132590908386,-0.07999252130312993,-0.025077506692108002,0.0241277813911438,-0.048741016536951086,-0.1700134575366974
1737285472.7465715,12847,1737285466,536674432,base_link,0.008204585453744249,-0.09404884685146947,-0.044742699877116036,0.5504694581031799,-0.21642948687076569,-0.09185049682855603
1737285472.7500863,12848,1737285466,636675456,base_link,0.01616592211201201,-0.07970323870589335,-0.04256036922297024,0.03166148439049721,0.08919236809015275,0.1467445343732834
1737285472.7570941,12849,1737285466,736675200,base_link,0.03945221350247781,-0.04127117826848422,-0.020442860412364865,-0.03433067724108696,0.3025865852832794,0.11391679197549816
1737285472.757146,12850,1737285466,836675968,base_link,0.03905850592979687,-0.03688911112692148,-0.02566823260360412,-0.0796523317694664,0.02089393883943557,-0.061499837785959244
1737285472.757238,12851,1737285466,936675968,base_link,0.041376140971859154,-0.03879187031955036,-0.03482177200633229,0.07013213634490967,-0.1532070189714432,-0.18925963342189786
1737285472.7572765,12852,1737285467,36676992,base_link,0.026343757757948616,-0.049853201879306606,-0.03544915746526062,0.3595581352710724,-0.07025189697742462,-0.0476112738251686
1737285472.757358,12853,1737285467,136677760,base_link,0.041296225257778194,-0.026706968496870338,-0.040233873818548815,0.2440854161977768,0.059808187186718,0.11183824390172957
1737285472.757398,12854,1737285467,236678784,base_link,0.0467283330771832,-0.0023711042240771576,-0.029747432573448366,-0.024778826162219048,0.11654741317033769,0.14469543099403379
1737285472.7575538,12855,1737285467,336679808,base_link,0.06029771929007298,0.0028303103292228703,-0.013200608078606006,-0.2945869565010071,0.07844206690788268,-0.11336078494787218
1737285472.7575927,12856,1737285467,436680832,base_link,0.042550419090109565,-0.013070902978500708,-0.034519144257577836,0.4346143305301666,-0.10532310605049136,-0.21416155993938446
1737285472.7576199,12857,1737285467,536680832,base_link,0.05196423248576251,0.0013832687655716146,-0.04440843490153067,0.2831669747829437,0.00982714444398882,0.163643941283226
1737285472.7576559,12858,1737285467,636681856,base_link,0.06090539304444832,0.029473129288236703,-0.032056110947883416,-0.08481308817863464,0.1416898220777512,0.18559227883815763
1737285472.7576783,12859,1737285467,736681600,base_link,0.06531158131309199,0.0259188150835711,-0.020358707183266142,-0.24419981241226196,0.16120673716068268,-0.08177134394645692
1737285472.7577004,12860,1737285467,836682880,base_link,0.04377520306840092,0.0041871127908645455,-0.036748068284739865,0.3613748550415039,-0.06491334736347201,-0.19246111810207367
1737285472.7577417,12861,1737285467,936682624,base_link,0.04112577687645648,0.00328601320706447,-0.043182440581922395,0.38938993215560913,-0.0919855609536171,0.020879095420241366
1737285472.758309,12862,1737285468,36682112,base_link,0.05353290438051193,0.031855205213678676,-0.02328554514364077,0.16617226600646973,0.12433267384767534,0.14054998755455014
1737285472.758836,12863,1737285468,136682368,base_link,0.0659881144650426,0.042781849242296555,-0.004997007171857304,-0.14390142261981964,0.13369710743427277,0.0912492275238037
1737285472.7588823,12864,1737285468,236682112,base_link,0.041760210042952765,0.009704349437009123,-0.02548825674410185,0.1207442581653595,-0.2023233771324158,-0.22079445421695706
1737285472.758939,12865,1737285468,336681856,base_link,0.030661523770136298,0.0036687867709508165,-0.03438907347585936,0.24592335522174835,-0.02363410219550132,0.061392344534397125
1737285472.7590494,12866,1737285468,436681344,base_link,0.036568827104974326,0.025868497822022506,-0.020339968743078175,-0.13460029661655426,0.2285014092922211,0.18345233798027036
1737285472.7591252,12867,1737285468,536681088,base_link,0.03876360287069452,0.027457405128778936,-0.013747732487766234,-0.14765048027038574,0.010863449424505235,0.01593032479286194
1737285472.7592,12868,1737285468,636680832,base_link,0.019984444679862885,-2.099005175746466e-05,-0.025743405874404404,0.20881463587284088,-0.24994908273220065,-0.19520451128482816
1737285472.7596176,12869,1737285468,736680576,base_link,0.0001948075231848371,-0.0044453500454655894,-0.02401188990976054,0.2779528796672821,-0.0554867759346962,0.009132901206612594
1737285472.760989,12870,1737285468,836680576,base_link,0.0007272182517927056,0.0039400538730375275,-0.021155197531945263,-0.20173415541648865,0.0655605047941208,0.13257931172847748
1737285472.7610435,12871,1737285468,936680320,base_link,0.0169425040962851,0.03093673529097184,0.003191598032920152,-0.7097794413566589,0.2694948613643646,0.1371856331825256
1737285472.7610784,12872,1737285469,36680064,base_link,0.01040036253599907,0.025309587729764573,-5.031735898055256e-05,-0.3584880828857422,0.0006756582297384678,-0.04940490052103996
1737285472.7664263,12873,1737285469,136680064,base_link,-0.00446456909149452,-0.0003186746031915443,-0.008112619493473269,0.14722782373428345,-0.27339065074920654,-0.12135642766952512
1737285472.7665749,12874,1737285469,236679808,base_link,-0.017869506022482426,-0.004155029757230108,-0.012913305392728407,0.2993590831756592,-0.051518157124519334,0.09633849561214447
1737285472.7666724,12875,1737285469,336680064,base_link,-0.0013804188086996017,0.02317231500566448,-0.012999886247475964,-0.010923037305474281,0.04919272661209108,0.09404939413070679
1737285472.7666998,12876,1737285469,436679808,base_link,0.0007171102731683593,0.028872206812183363,-0.0019422271894610757,-0.2171296924352646,0.20540837943553925,0.02958159893751142
1737285472.7667603,12877,1737285469,536680064,base_link,-0.009132043280180963,0.0034047052285852038,-0.014638601040558153,0.47887879610061646,-0.17120672762393954,-0.25785213708877563
1737285472.7667975,12878,1737285469,636680064,base_link,-0.028348026433945545,-0.006013566862553345,-0.026501054621124995,0.2712187170982361,-0.12131908535957336,-0.04013191908597945
1737285472.7668204,12879,1737285469,736680064,base_link,-0.00020123698633868524,0.024846808017677392,-0.00758604346664184,-0.356722354888916,0.22211585938930511,0.07841080427169797
1737285472.766943,12880,1737285469,836680064,base_link,-0.006812508856650213,0.013002487093726138,0.0016362458569475244,-0.1014031320810318,0.11106611788272858,-0.034867540001869216
1737285472.7670789,12881,1737285469,936680320,base_link,-0.01920607456373435,-0.014350201808490065,-0.019107369477257493,0.20770886540412903,-0.06673253327608111,-0.21149873733520508
1737285472.767132,12882,1737285470,36680320,base_link,-0.02093279127456919,-0.00880221000575034,-0.023358832922482822,0.31915003061294556,-0.035813942551612854,0.012896809726953512
1737285472.7671595,12883,1737285470,137680320,base_link,0.007538188754301335,0.022631047303056335,-0.00515546336246965,-0.7398875951766968,0.4056645631790161,0.19034789502620691
1737285472.7672734,12884,1737285470,237673664,base_link,0.012898771012440384,0.01922853489522066,0.026868069241516985,-0.4429627060890198,0.18752890825271606,-0.08423717319965365
1737285472.767634,12885,1737285470,336673664,base_link,0.03050259403832543,0.04810575295944904,0.094025930446027,-0.5011199116706848,0.22782622277736664,-0.11275228112936023
1737285472.7678792,12886,1737285470,436667008,base_link,0.06714341105149758,0.10541975673703949,0.19474251800564482,-0.35144683718681335,0.17711427807807922,-0.027060262858867666
1737285472.767964,12887,1737285470,536665728,base_link,0.10379112297913018,0.14697142065066318,0.3240458349425731,0.3925586938858032,-0.033655449748039246,-0.011923052370548245
1737285472.7680628,12888,1737285470,636665728,base_link,0.17007758563529957,0.22782845859342252,0.44217574518560887,0.5606879591941833,-0.22074384987354273,0.34348753094673157
1737285472.7681375,12889,1737285470,736664960,base_link,0.26199750140422573,0.29249138107735967,0.5613412785715166,0.3219422399997711,-0.04370081797242157,0.6407341957092285
1737285472.768254,12890,1737285470,836665216,base_link,0.3184278034170499,0.2905350000930908,0.6261646687552989,0.6128740310668945,-0.07920117676258076,0.8900771141052246
1737285472.7684524,12891,1737285470,936665728,base_link,0.3566975388289807,0.2122502534097946,0.7093392436118636,0.7503786683082581,-0.46744146943092335,1.0131021738052368
1737285472.7719636,12892,1737285471,36665984,base_link,0.3512207616286951,0.0752772712374786,0.8385179207271273,0.09187072515487671,-0.3030085563659667,0.767705500125885
1737285472.7719977,12893,1737285471,136665984,base_link,0.27468291879465423,-0.09554968276694845,0.981625363500675,0.4284507930278778,-0.3231298923492431,0.5447871088981628
1737285472.7720296,12894,1737285471,236666240,base_link,0.1890239490822886,-0.26027229193185425,1.1773733979321976,0.025946449488401413,-0.26893094182014465,0.09934686124324801
1737285472.772053,12895,1737285471,336667264,base_link,0.061914612742152625,-0.4284206762944299,1.3468174247695228,0.18917417526245117,0.09712669253349299,-0.4530447721481323
1737285472.772084,12896,1737285471,436667776,base_link,-0.05161678369966355,-0.6128469212161787,1.4667418433984218,0.33532190322875977,0.29968655109405506,-0.806326687335968
1737285472.7722263,12897,1737285471,536667008,base_link,-0.11352140980715679,-0.8266444102442981,1.5263041549819332,0.15145321190357208,0.2074746042490004,-1.0816210508346558
1737285472.7722507,12898,1737285471,636667520,base_link,-0.10480596596481923,-1.0377243835798033,1.5462694253152822,0.1376369744539261,0.1683951169252394,-1.2981278896331787
1737285472.7723029,12899,1737285471,736670848,base_link,-0.003096733268573345,-1.2656517249711143,1.5219067833162578,-0.43581557273864746,0.226540759205818,-1.3605247735977173
1737285472.775173,12900,1737285471,836671360,base_link,0.1892819076864879,-1.4562121981162353,1.4124077996963915,-0.6031469702720642,0.22076025605201705,-1.4506953954696655
1737285472.775357,12901,1737285471,936671872,base_link,0.4176175739841387,-1.563128581629332,1.2596121191630294,-0.03137907385826111,-0.4395082890987398,-1.5384191274642944
1737285472.7762663,12902,1737285472,36672384,base_link,0.707025061275417,-1.5684944161405883,1.1040537782957376,-0.27532827854156494,-0.30185282230377214,-1.4907314777374268
1737285472.7782602,12903,1737285472,136671616,base_link,0.9916572965255042,-1.4142312183618457,0.9109996842493998,-0.07217404991388321,-0.42591571807861345,-1.324642300605774
1737285472.7784684,12904,1737285472,236672384,base_link,1.2090903764270449,-1.1490854679327607,0.744133255500018,-0.5497462153434753,-0.3132690489292146,-1.0521636009216309
1737285472.7807288,12905,1737285472,336672896,base_link,1.2665903410386965,-0.9154065002824856,0.6058961410837258,-0.8133646845817566,-0.21303088963031783,-1.1320106983184814
1737285472.7810876,12906,1737285472,436672384,base_link,1.1814905091666308,-0.7279315558476487,0.4377850265185475,-0.16379693150520325,-0.49907201528549205,-0.9380932450294494
1737285472.7811234,12907,1737285472,536672896,base_link,1.0355344966882598,-0.5470511142428842,0.34840270063595313,-0.1135038435459137,-0.31024792790412914,-0.9988675713539124
1737285472.7811475,12908,1737285472,636673408,base_link,0.8558340808334541,-0.35026544769036455,0.3169828126346211,-0.747336208820343,0.10373494774103156,-0.7055677175521851
1737285472.7819712,12909,1737285472,736672896,base_link,0.6361376700628135,-0.19207305127699664,0.3349294425869579,-0.4670948386192322,0.21314179897308339,-0.8320754766464233
1737285472.8411813,12910,1737285472,836673664,base_link,0.38402958201750304,-0.07542902175841429,0.37449393773665685,-0.167883038520813,0.43263670802116383,-0.7813252210617065
1737285472.9408822,12911,1737285472,936672640,base_link,0.15841305869280042,0.008413763583550546,0.39602719014157695,-0.4399082064628601,0.427304983139038,-0.7386681437492371
1737285473.0416422,12912,1737285473,36673152,base_link,-0.0613366125613698,0.017999734104431068,0.3919389124668364,0.27120378613471985,0.18379104137420643,-0.8152130246162415
1737285473.1406882,12913,1737285473,136672640,base_link,-0.21987355652019627,0.04800603129148105,0.36385928674318024,0.4264816641807556,0.33358061313629145,-0.5438621044158936
1737285473.2430017,12914,1737285473,236673408,base_link,-0.3320795115343724,0.05602197651735281,0.3135074704425067,0.12878285348415375,0.3205205798149109,0.10743806511163707
1737285473.339765,12915,1737285473,336672896,base_link,-0.4219420175663291,0.06590482031174869,0.28254493708692763,0.3613296449184418,0.07018258422613144,0.05388101935386657
1737285473.4396214,12916,1737285473,436673664,base_link,-0.4734964344955007,0.11528941555037694,0.22881788731477046,-0.07560744881629944,-0.080592356622219,0.7080054879188538
1737285473.5423124,12917,1737285473,536673152,base_link,-0.5129586969305564,0.18159671085165208,0.20982563666588355,-0.344561904668808,-0.052318800240754915,1.3632547855377197
1737285473.6444912,12918,1737285473,636674176,base_link,-0.5367089512188258,0.2465056879460389,0.20135749381599,-0.42987772822380066,0.2651332616806032,1.4944804906845093
1737285473.7441504,12919,1737285473,736673920,base_link,-0.5270352698647726,0.3707250568736437,0.1697831327928617,0.0420033298432827,0.32196137309074424,1.8331553936004639
1737285473.8436503,12920,1737285473,836674944,base_link,-0.4803212731905226,0.4821165486758812,0.10870001811366314,0.0780361220240593,0.1832898259162905,1.8865758180618286
1737285473.94387,12921,1737285473,936675712,base_link,-0.3948108197878017,0.5589566214184886,0.08834649489081697,-0.11364739388227463,0.02896781638264673,1.3914319276809692
1737285474.0448985,12922,1737285474,36676736,base_link,-0.2821755196285249,0.6251139646917336,0.03563471869039757,0.21350790560245514,-0.1816561073064802,1.583274483680725
1737285474.1437342,12923,1737285474,136676480,base_link,-0.1521868393177895,0.648798121153231,0.0090601023783185,0.1604231595993042,-0.10839658230543116,1.7268905639648438
1737285474.2444663,12924,1737285474,236677504,base_link,-0.04384686438288482,0.6428160116187706,-7.716517603418085e-05,0.3064897358417511,-0.20795769989490492,1.370383381843567
1737285474.351307,12925,1737285474,336679040,base_link,0.04623507193527111,0.6444536935893793,-0.018275944476930133,-0.283853143453598,-0.03750970959663371,1.6669803857803345
1737285474.4443448,12926,1737285474,436679808,base_link,0.13739131336741303,0.6079012244971159,-0.0023395745687103,-0.02719716727733612,0.28157308697700517,1.3566083908081055
1737285474.545736,12927,1737285474,536671104,base_link,0.19366612238958497,0.5502882438789318,0.0014635985437248147,-0.3616158664226532,0.14349946379661574,1.081099271774292
1737285474.651806,12928,1737285474,636670848,base_link,0.22256422234437304,0.49393318019681237,-0.020414304082055378,-0.48659732937812805,-0.07468906044960011,0.9371540546417236
1737285474.742125,12929,1737285474,736670592,base_link,0.2417108655337396,0.4388415968218833,-0.01454708355446804,-0.05908488482236862,0.13910877704620372,0.9479044079780579
1737285474.8449414,12930,1737285474,836670080,base_link,0.2565139032283158,0.3955986697206686,-0.007945187470048663,-0.40914586186408997,0.18411435186862957,0.8698017001152039
1737285474.945176,12931,1737285474,936669824,base_link,0.256722279393804,0.32962096766815047,-0.01329913505144216,-0.30044347047805786,0.024986909702420325,0.7344542741775513
1737285475.0445256,12932,1737285475,36669312,base_link,0.2510546546507396,0.2655337721718006,-0.012947307527971682,0.249368816614151,-0.356315404176712,0.6313984394073486
1737285475.1475122,12933,1737285475,137669056,base_link,0.2540419747596163,0.23089058973607895,-0.011413524627809181,-0.010702457278966904,-0.016384016722440588,1.07289457321167
1737285475.2439983,12934,1737285475,236668800,base_link,0.2610408561199369,0.19091124923137587,0.012640676918708566,-0.007315111346542835,0.002832301426678988,0.7504664659500122
1737285475.3430424,12935,1737285475,336661888,base_link,0.24449726481090917,0.1443580711236261,-0.004587142065758048,0.3209590017795563,-0.11085318028926837,1.012398600578308
1737285475.4430103,12936,1737285475,436661632,base_link,0.24623103272211966,0.11350741142524146,0.008893171108072265,0.0753600001335144,-0.09899500757455816,0.8104372024536133
1737285475.5422108,12937,1737285475,536661632,base_link,0.2428012873287796,0.08466962381522902,0.011553805331293996,-0.2831302881240845,0.01645625382661834,1.178234338760376
1737285475.6423633,12938,1737285475,636661376,base_link,0.26129493701322004,0.07947467056840332,0.04872798187902473,-0.580976665019989,0.25975924730300914,0.8379476070404053
1737285475.7432897,12939,1737285475,736665728,base_link,0.27690232987657354,0.06688812230815883,0.09865007318597607,-0.11605927348136902,0.6531640887260438,0.6001710295677184
1737285475.8444571,12940,1737285475,836665472,base_link,0.345428081422352,0.07270377099277972,0.18342309690230493,0.10835937410593033,0.6572520136833191,0.37717714905738825
1737285475.9432023,12941,1737285475,936665472,base_link,0.47397328815685535,0.11682095654858198,0.29141158450823457,-0.4843713343143463,0.7813959121704103,0.5583028197288512
1737285476.0431638,12942,1737285476,36665216,base_link,0.6463396942774702,0.14667569688308113,0.36588667103935624,-0.47374460101127625,0.6503015160560609,0.6021185517311095
1737285476.142959,12943,1737285476,136665216,base_link,0.8532256017232407,0.12775206834431752,0.4597477502231079,0.06428452581167221,0.2787341475486756,0.409690648317337
1737285476.2419674,12944,1737285476,236664960,base_link,1.1026822862435224,0.10130189391681223,0.5536763039431463,-0.17968463897705078,0.006797743961215107,0.7129723429679871
1737285476.3448412,12945,1737285476,337665472,base_link,1.3395788579054642,0.0030473203986900836,0.5474067227152375,0.16745631396770477,-0.7718644142150878,0.9085968136787416
1737285476.4433935,12946,1737285476,436665216,base_link,1.55844719370229,-0.08208112792286444,0.5035398920776473,-0.6172575950622559,-0.4902233183383941,0.6057791113853456
1737285476.542228,12947,1737285476,536665472,base_link,1.6884203998332403,-0.16753923489892122,0.41620344306256013,0.368086040019989,-0.6695324778556824,0.31946888566017156
1737285476.642616,12948,1737285476,636665472,base_link,1.803353028562453,-0.1969712178873365,0.3760535597503126,-0.3173079490661621,-0.28017723560333246,0.3317036926746369
1737285476.754658,12949,1737285476,736665984,base_link,1.8471237689599724,-0.21868356581343495,0.3088161408019473,0.43308761715888977,-0.12002745270729066,-0.10594387352466582
1737285476.8426504,12950,1737285476,836666240,base_link,1.901644334786922,-0.18282032761675676,0.3035289607702444,-0.328677237033844,0.026731563732028014,0.06457957625389099
1737285476.9417331,12951,1737285476,936666240,base_link,1.9069455821075294,-0.17236879445630948,0.23945969018483526,0.20779044926166534,-0.2947947978973389,-0.30749219655990595
1737285477.0431623,12952,1737285477,36666496,base_link,1.9391490136064435,-0.1006601419211269,0.18178605631849137,0.20063023269176483,-0.4602391123771668,-0.2673587799072265
1737285477.1431603,12953,1737285477,136666752,base_link,1.9349498174961586,-0.04357401794027312,0.10519524083498825,-0.041177697479724884,-0.41041859984397894,-0.23604479432106013
1737285477.2430682,12954,1737285477,236667008,base_link,1.8837489258595688,0.0002712800840345207,0.0028215982660303868,-0.0605458989739418,-0.3459385037422181,-0.277755320072174
1737285477.3423293,12955,1737285477,336667264,base_link,1.8087378367108473,0.01907176841279629,-0.07469468662866542,0.1385957896709442,-0.24375680088996893,-0.4121025204658508
1737285477.4427161,12956,1737285477,436667776,base_link,1.7039646013389564,0.017170213319542667,-0.12419183683366247,0.24967503547668457,-0.43400821089744573,-0.37584868073463434
1737285477.5431595,12957,1737285477,536668032,base_link,1.5827758731972963,0.017605984220742454,-0.18286539977019733,0.30631953477859497,-0.26881885528564453,-0.06409492343664167
1737285477.6427608,12958,1737285477,636668288,base_link,1.4680442720524787,0.030220606867533382,-0.202793498151041,-0.3122231960296631,0.06625775247812273,0.07217483222484587
1737285477.7426915,12959,1737285477,736668800,base_link,1.3485189869593894,0.031690716339993596,-0.20850678773254935,-0.1252482682466507,0.13473550975322723,-0.016508173197507876
1737285477.8431172,12960,1737285477,836669056,base_link,1.2432789250258662,0.01840026690143652,-0.18942947855640063,-0.590469241142273,0.3762260377407074,0.04760151728987689
1737285477.9444828,12961,1737285477,936669568,base_link,1.1628074127881622,0.018955622896465327,-0.1419444393120085,-0.2788875102996826,0.6679746508598328,0.23116080462932578
1737285478.0447776,12962,1737285478,37670080,base_link,1.1154310654017956,0.006357703057434718,-0.06556330920385413,-0.27765193581581116,0.6627910733222961,0.19854505360126487
1737285478.143863,12963,1737285478,136670592,base_link,1.1068944699089964,0.0038050618184353206,-0.019518388491629332,-0.21597006916999817,0.2430812567472458,-0.0177290923893452
1737285478.2465637,12964,1737285478,236670848,base_link,1.1319395010568576,0.0014183442433493031,0.020958652078209794,-0.4823324680328369,0.4991442859172821,-0.02628101967275149
1737285478.347728,12965,1737285478,336670080,base_link,1.164571823303269,0.0122103458976875,0.08888972705300657,-0.6108695268630981,0.26086321473121643,0.13913086056709287
1737285478.4434378,12966,1737285478,436671104,base_link,1.1906427663196453,0.02042783096749323,0.12112775950978807,-0.5976892709732056,0.028869949281215685,0.13942301273345947
1737285478.5458627,12967,1737285478,536670080,base_link,1.2404618272554697,0.04157465970622145,0.12503920339668767,-0.18942159414291382,0.013992914929986014,0.11930873245000839
1737285478.6418889,12968,1737285478,636670592,base_link,1.2935121051183196,0.04628006045706721,0.15539465113789191,0.11896827071905136,0.20420360565185547,0.09097293019294736
1737285478.747635,12969,1737285478,736669824,base_link,1.3599902378082853,0.057346023160377006,0.22784994304177342,0.22136102616786957,0.20945380628108978,0.03648792952299115
1737285478.8479443,12970,1737285478,836670336,base_link,1.4478077783525065,0.07160153214708183,0.3100274525051929,-0.264470636844635,0.40719681978225714,0.2695550918579101
1737285478.941809,12971,1737285478,936669312,base_link,1.5466492749853304,0.057999594219493626,0.3533940339038492,-0.5509939789772034,0.1119653880596161,0.1178009510040283
1737285479.0440383,12972,1737285479,36669824,base_link,1.6330759679748028,0.018290255901688018,0.2910281043523387,0.31541886925697327,-0.8141716122627258,-0.15350545942783345
1737285479.1430895,12973,1737285479,136670336,base_link,1.6934370744707299,0.010627435605596335,0.19353390944790383,0.04093040153384209,-0.6743497848510742,0.24113707244396218
1737285479.2431855,12974,1737285479,236671104,base_link,1.707491666182652,0.006778399105966315,0.10553782694443868,-0.10348010063171387,-0.5277882814407349,0.267900437116623
1737285479.3442695,12975,1737285479,336675968,base_link,1.6737693456022216,-0.017777932675389005,0.04338630091790149,0.1282026171684265,-0.2904037833213806,0.1992382258176804
1737285479.4465284,12976,1737285479,437676736,base_link,1.6047323439447223,-0.04780629119136596,0.02061036607179975,0.3091115951538086,-0.10000213235616683,0.11146526783704759
1737285479.5423677,12977,1737285479,536676224,base_link,1.5343733572998584,-0.056464980299402036,0.019800909762220667,0.4135037660598755,-0.22273071110248566,0.00022651161998513087
1737285479.650379,12978,1737285479,636676992,base_link,1.4541040192380932,-0.05079262132664258,0.012421150355538216,0.5857042074203491,-0.21718931198120117,-0.07606629282236096
1737285479.7431543,12979,1737285479,736676224,base_link,1.37224657968382,-0.049841643551597405,-0.02038653153807353,0.18774347007274628,-0.3311672508716583,-0.1457128822803497
1737285479.8453877,12980,1737285479,836676736,base_link,1.2689280701372208,-0.0275134234562699,-0.06870647182567866,0.4852374792098999,-0.3034055233001709,-0.08031993359327312
1737285479.9446876,12981,1737285479,936678016,base_link,1.1674187509545693,-0.01603564505690741,-0.08613497967181015,0.25337570905685425,-0.1088063642382622,-0.20954358577728271
1737285480.0454893,12982,1737285480,36678016,base_link,1.0628276935156005,0.0074200464477670236,-0.09771995879597498,0.1964438557624817,-0.10337319970130922,-0.09937664121389388
1737285480.146612,12983,1737285480,137677504,base_link,0.9635311940018709,0.03564163879812388,-0.08915379024214934,0.011383031494915485,0.12015294283628462,-0.15486255288124087
1737285480.2434723,12984,1737285480,236679552,base_link,0.8586417758944179,0.030076208075562563,-0.08190891187529305,0.006250876002013683,0.056562189012765864,-0.18215566873550415
1737285480.3557308,12985,1737285480,336680576,base_link,0.7431326838692872,0.02659696073934162,-0.08521717939630279,0.012661494314670563,-0.21185465157032016,-0.3371826410293579
1737285480.4457383,12986,1737285480,437680576,base_link,0.6174628344120572,0.017884583152636434,-0.08782871668245584,0.589885413646698,-0.6352059841156006,-0.06238726153969757
1737285480.5433955,12987,1737285480,536680064,base_link,0.49325354186103787,0.02330076043647969,-0.04333976780712922,-0.24549733102321625,-0.18076904118061063,0.11468169838190082
1737285480.642525,12988,1737285480,636681344,base_link,0.35286151692227935,0.004469738251508911,0.04298100562125429,0.34028297662734985,-0.06666240096092226,-0.11904896050691603
1737285480.743797,12989,1737285480,736681088,base_link,0.19327101124050267,-0.0028616434354159616,0.13359941963581473,0.25520724058151245,-0.3430301249027252,-0.03138998895883556
1737285480.8433673,12990,1737285480,836682112,base_link,0.04861483457680828,-0.014951166314246596,0.19061071304085894,0.529289722442627,-0.20233036577701566,0.18577785789966586
1737285480.945064,12991,1737285480,936682112,base_link,-0.10759671454535571,0.014546530445744627,0.24650175930858303,0.1203874945640564,0.06225216761231429,0.5061314702033997
1737285481.0426586,12992,1737285481,36682880,base_link,-0.269528761645666,-0.010267438770904774,0.2924380499571439,0.0018759844824671745,-0.2476016730070114,0.0772003307938576
1737285481.1434503,12993,1737285481,136682624,base_link,-0.41899339146581527,-0.008630821364142898,0.30201484279188434,0.3097705841064453,-0.033599667251110014,0.49647969007492065
1737285481.2444327,12994,1737285481,236683392,base_link,-0.5548237049128447,0.02790577278591702,0.3032825652582703,0.22008192539215088,0.34790110588073736,0.5928252935409546
1737285481.3451824,12995,1737285481,336683136,base_link,-0.6846766158243627,0.09029432768816506,0.2681065870879189,0.017428748309612274,0.09180089086294188,1.077178955078125
1737285481.4498518,12996,1737285481,436684160,base_link,-0.7872946886634585,0.1773116169805155,0.2564412186684538,-0.1133783757686615,-0.1974111050367354,1.1780787706375122
1737285481.5453844,12997,1737285481,536683904,base_link,-0.8639067923628867,0.30543581426433125,0.2694783933596911,0.08880943804979324,-0.19160804152488695,1.0385735034942627
1737285481.643765,12998,1737285481,636684928,base_link,-0.8860388768582649,0.48713519944305383,0.267544113984885,-0.22841957211494446,0.44733002781868003,1.825095772743225
1737285481.7464266,12999,1737285481,736686208,base_link,-0.9034446767804549,0.6700103859426683,0.25080665170345445,0.026178643107414246,0.14380985498428364,1.6166647672653198
1737285481.8431737,13000,1737285481,836687232,base_link,-0.8456907161019168,0.8879559909832864,0.2678790299145539,-0.28424322605133057,0.022185450419783814,1.820143699645996
1737285481.9475415,13001,1737285481,936687232,base_link,-0.7550903479547565,1.0589595248342347,0.26242685040570213,-0.17629040777683258,0.1078183576464655,1.593268871307373
1737285482.0433962,13002,1737285482,36688512,base_link,-0.6089697010110098,1.224050441758612,0.2617445332433777,0.13323237001895905,0.06713439524173749,1.0170286893844604
1737285482.1455607,13003,1737285482,136688512,base_link,-0.4504601672017171,1.3507135401104744,0.23177436066799195,0.6567598581314087,-0.04704089462757094,1.3615632057189941
1737285482.2443342,13004,1737285482,236688512,base_link,-0.24719372147820126,1.4603251393113725,0.22806320045233963,-0.0017670220695436,0.10925521701574341,1.2766560316085815
1737285482.3489063,13005,1737285482,337688512,base_link,-0.11076547252758526,1.4830565892080325,0.23595325898932928,-0.04983527958393097,-0.3387714624404906,0.832594096660614
1737285482.4469824,13006,1737285482,436688256,base_link,0.06603263274167728,1.5528054543674734,0.28616316354840116,-0.4719333350658417,-0.05513115599751458,1.1670713424682617
1737285482.5421445,13007,1737285482,536688256,base_link,0.21848022072303847,1.574663853868425,0.35432379599080377,-0.3077865242958069,0.13154727220535287,0.7857053279876709
1737285482.6425986,13008,1737285482,636688000,base_link,0.3770345263379083,1.6006962974842367,0.38298388263338556,0.27210795879364014,0.06356627494096766,0.8368520140647888
1737285482.7440693,13009,1737285482,736687744,base_link,0.5249455410659122,1.6068564148595015,0.33476230955858366,0.8279982209205627,-0.27082467079162587,0.7272171974182129
1737285482.8525004,13010,1737285482,836687488,base_link,0.7106954220178024,1.6148479906286441,0.2657832169583377,0.5926422476768494,-0.1547414809465407,1.1794203519821167
1737285482.9416094,13011,1737285482,936688768,base_link,0.8415100930308747,1.5080536181664774,0.16875086955376256,0.5440633296966553,-0.3264871537685393,0.7688053250312805
1737285483.0423796,13012,1737285483,36688768,base_link,0.9784158396661264,1.3991949329523279,0.13238923121816457,0.1031036227941513,-0.15780842304229725,0.9405529499053955
1737285483.1428874,13013,1737285483,136688768,base_link,1.0615582211363648,1.2478661908104849,0.07464600243681968,-0.2995280921459198,0.13222384452819838,1.1766608953475952
1737285483.2425075,13014,1737285483,236688768,base_link,1.106068429291169,1.069199085280443,0.023665701881636553,0.3687898814678192,-0.3118508458137511,0.9456003904342651
1737285483.3421323,13015,1737285483,336689024,base_link,1.1281929368711006,0.8912470448922343,0.003057300967422155,0.31746459007263184,-0.1571992337703704,0.7695757150650024
1737285483.4432526,13016,1737285483,436689024,base_link,1.1416058852549857,0.7350934679939208,-0.011269071637319064,-0.11485117673873901,0.07743826508522046,1.054938554763794
1737285483.542491,13017,1737285483,536689280,base_link,1.1192890534568267,0.5753858905202336,-0.05575513556809298,0.2474597543478012,-0.11564055085182175,1.238132119178772
1737285483.6433554,13018,1737285483,636689280,base_link,1.0596902306454599,0.3948320594458677,-0.08227925073191816,0.32397404313087463,-0.10642001032829272,1.0405607223510742
1737285483.74397,13019,1737285483,736690304,base_link,1.0103826491136294,0.28585329374169266,-0.07146606779483643,-0.01225697435438633,0.009621816687286015,0.9386160969734192
1737285483.8493285,13020,1737285483,836690304,base_link,0.9275931153748521,0.16664391155570463,-0.0926639709969995,-0.17742738127708435,0.08927646279335039,1.3445826768875122
1737285483.9440563,13021,1737285483,936690816,base_link,0.8465320454995078,0.07879481767084473,-0.08960024936392627,-0.03224700689315796,-0.09226238727569569,0.8649343252182007
1737285484.0429432,13022,1737285484,36691072,base_link,0.7453924896310413,0.002497940353985282,-0.09716474600886639,0.306061714887619,-0.2773500084877013,0.8116444945335388
1737285484.155696,13023,1737285484,136691584,base_link,0.6616713659033279,-0.008351717823702483,-0.07998908324639249,0.1335229128599167,-0.07771730422973626,0.6132641434669495
1737285484.2418327,13024,1737285484,236691840,base_link,0.5815337299954555,-0.012726947583628011,-0.06572819445377236,0.37362346053123474,-0.059360627084970446,0.2194429337978363
1737285484.3427768,13025,1737285484,336692096,base_link,0.5307061573101411,0.012090330350575804,-0.04334860442057693,0.24552422761917114,0.12565399706363678,0.041046097874641405
1737285484.4545903,13026,1737285484,436692352,base_link,0.4550849638958373,0.03753862831258149,-0.040749388802020246,-0.007115004118531942,0.1784294992685318,-0.0015711006708443384
1737285484.544831,13027,1737285484,536692864,base_link,0.3840349490316441,0.046705391551157126,-0.060181473315292666,0.7895855903625488,0.11943098902702329,-0.2338642776012421
1737285484.6470602,13028,1737285484,637693120,base_link,0.36397826456990456,0.06158185871991259,-0.021843375302142285,-0.10092412680387497,0.3285873830318451,-0.1445591449737549
1737285484.7468793,13029,1737285484,737698752,base_link,0.31910754481993314,0.04654611090611309,0.0057395431996116126,0.3350142240524292,0.1765743196010589,-0.4031732678413391
1737285484.849858,13030,1737285484,837701824,base_link,0.34244915335381265,0.044772993716259424,0.053364097509665406,-0.4533303678035736,0.19896072149276728,-0.45391565561294556
1737285484.951363,13031,1737285484,937701824,base_link,0.39077803509396697,0.03618626134492338,0.0791084762705496,0.053809959441423416,0.48167940974235535,-0.21243020892143255
1737285485.0533829,13032,1737285485,37701824,base_link,0.4595852274903472,0.024931649466509016,0.13207333294243237,0.2957799434661865,0.6469399929046631,-0.4020012021064759
1737285485.1425116,13033,1737285485,137701824,base_link,0.5972488601441478,0.02060383941427632,0.21459784798259685,0.03824573755264282,0.7544633150100708,0.007572387345135119
1737285485.2604182,13034,1737285485,237701824,base_link,0.7800157221397074,0.016404653034092054,0.3182898338916612,-0.4997369945049286,0.5146130323410034,-0.35994109511375433
1737285485.3475187,13035,1737285485,336701824,base_link,0.983201762132084,-0.0011799030028824247,0.4053412901161487,0.21852707862854004,0.29359811544418335,-0.10086151957511906
1737285485.4546788,13036,1737285485,436706432,base_link,1.2256853275595385,0.0041787786271891255,0.510281369540505,-0.2943286597728729,0.051075611263513565,0.00025191297754644724
1737285485.5505457,13037,1737285485,537711552,base_link,1.4828556284139036,-0.007628565140331548,0.537033336014931,0.10253272205591202,-0.3469112515449524,0.2249350100755692
1737285485.655206,13038,1737285485,637711552,base_link,1.7498339905293372,-0.004822799654023899,0.5937779856568939,-0.3246293067932129,-0.1292065232992172,0.17080709338188174
1737285485.7438068,13039,1737285485,736714624,base_link,1.9694316076849188,-0.014626794078797193,0.6157469697551965,-0.04058054834604263,-0.21541182696819305,-0.10076942294836042
1737285485.8415253,13040,1737285485,836714624,base_link,2.1499998024435087,-0.05164190721966596,0.5671412907789042,0.1577935516834259,-0.48470640182495117,-0.07153800874948496
1737285485.9450195,13041,1737285485,936713600,base_link,2.316699448515235,-0.06784116480554278,0.4998188056117139,0.2580517828464508,-0.7003850936889648,-0.04832385107874862
1737285486.048087,13042,1737285486,37713856,base_link,2.433819499920458,-0.08378006646411609,0.4174372167935885,0.5131562948226929,-0.557684600353241,-0.08835072815418236
1737285486.14387,13043,1737285486,136713088,base_link,2.5011255226700038,-0.10363801741142607,0.33318119765411525,0.48729291558265686,-0.4104755222797394,-0.07337579876184458
1737285486.2433112,13044,1737285486,236713344,base_link,2.5370933200857695,-0.12664301913509501,0.2481576865023169,0.32835301756858826,-0.37606081366539,-0.07600589841604229
1737285486.3439581,13045,1737285486,336712320,base_link,2.525943206515457,-0.13714865768295828,0.16126424909997972,0.4251185357570648,-0.5134915709495544,-0.0247439164668321
1737285486.443486,13046,1737285486,436712576,base_link,2.5005292058118895,-0.15599964940052508,0.08914392150006084,0.43760207295417786,-0.2841428518295288,-0.12484477460384365
1737285486.543755,13047,1737285486,536711552,base_link,2.450154502618519,-0.1678684404901358,0.021383441869394032,0.06642983108758926,-0.38732659816741943,-0.12886381149291987
1737285486.6431444,13048,1737285486,636711552,base_link,2.388783301889676,-0.16858234543366568,-0.007357475492335494,0.177507683634758,-0.2303910106420517,-0.10619319975376126
1737285486.7439563,13049,1737285486,736710784,base_link,2.328461937335519,-0.20252065757332052,-0.028947792074678597,0.0163097120821476,-0.028841033577919003,0.022897189483046535
1737285486.8471441,13050,1737285486,837711296,base_link,2.268540332571083,-0.24299415080652378,-0.034447356984219815,0.43588340282440186,0.24273645877838135,-0.037138618528842954
1737285486.9428456,13051,1737285486,936711808,base_link,2.1882366952108367,-0.3229225559874799,-0.06676816207757769,1.121053695678711,0.014102287590503651,-0.3420373797416687
1737285487.0443418,13052,1737285487,36712320,base_link,2.1268270593647154,-0.3832151992704688,-0.0732843605890251,0.45307600498199463,-0.20233541727066046,-0.539477527141571
1737285487.1433198,13053,1737285487,136712832,base_link,2.0851753201045238,-0.40972613088541243,-0.09825530321728902,-0.34393706917762756,-0.21237775683403023,-0.7267561554908752
1737285487.2440596,13054,1737285487,236713600,base_link,2.062599398205635,-0.4179540766763072,-0.122941355284683,-0.4574173390865326,0.029603438451886073,-0.8439825773239136
1737285487.3431597,13055,1737285487,336714112,base_link,2.006592504660109,-0.3738763385780534,-0.16606006646479685,-0.47383227944374084,-0.12645873427391063,-0.914333164691925
1737285487.443421,13056,1737285487,436714624,base_link,1.9296061974294252,-0.32444293840428085,-0.22867262880803768,-0.17014196515083313,-0.07755050808191312,-0.9789458513259888
1737285487.5437233,13057,1737285487,536715392,base_link,1.8883954579955577,-0.22565381207179747,-0.22941970665297376,-0.28434324264526367,-0.16324569284915935,-0.9561136960983276
1737285487.6435895,13058,1737285487,636716160,base_link,1.8155079839010904,-0.1295826680649839,-0.250778845578905,-0.4671492278575897,-0.01731364056468018,-0.6439957618713379
1737285487.7437208,13059,1737285487,736715904,base_link,1.7215051723103878,-0.0732936605369678,-0.2608917756605823,-0.424601674079895,0.17077995836734763,-0.6057959198951721
1737285487.8431485,13060,1737285487,836716672,base_link,1.6146821864207133,-0.04696332460603576,-0.2701605708010182,-0.38572433590888977,-0.07429145276546488,-0.7374449372291565
1737285487.9435143,13061,1737285487,936716160,base_link,1.4901014983261363,-0.05254865385041629,-0.28610628487684525,0.452869176864624,-0.3766066431999207,-0.6300746202468872
1737285488.0434358,13062,1737285488,36716928,base_link,1.3871574937273279,-0.039588843028929906,-0.2518024680112614,-0.026375137269496918,-0.16092185676097873,-0.1446345746517181
1737285488.144251,13063,1737285488,136717952,base_link,1.2741454593230226,-0.05762763733125972,-0.22321469045987874,-0.16811096668243408,-0.10306563228368763,-0.38953351974487305
1737285488.2444677,13064,1737285488,236718720,base_link,1.145849408204205,-0.10596297727800574,-0.21736084505219938,0.4466201663017273,-0.3103691041469574,-0.11953400075435634
1737285488.3440678,13065,1737285488,336718208,base_link,1.0400634873163916,-0.08810008122755572,-0.18550934763421986,-0.1239369586110115,0.09699632227420808,0.14348812401294708
1737285488.4440243,13066,1737285488,436718976,base_link,0.9423495198960385,-0.0945230504563355,-0.1447994689917635,-0.48929449915885925,0.36178675293922424,-0.12476186454296116
1737285488.5434449,13067,1737285488,536718720,base_link,0.8393621299304324,-0.10312911403183592,-0.128528337944546,-0.14006410539150238,0.129399761557579,-0.22813630104064944
1737285488.643281,13068,1737285488,636719744,base_link,0.736370855683408,-0.1017365317515538,-0.12047978890454886,-0.39826884865760803,-0.012129202485084568,-0.2816541790962219
1737285488.7441213,13069,1737285488,736719488,base_link,0.6595791198247816,-0.08712910616233696,-0.08979642586244935,-0.3194389343261719,0.23315902054309842,-0.24214345216751101
1737285488.8435645,13070,1737285488,836720512,base_link,0.5799496448172733,-0.08894838131691482,-0.08269084504848095,-0.4412437677383423,0.21651737391948697,-0.2962193489074707
1737285488.9435043,13071,1737285488,936720256,base_link,0.4883731504195308,-0.09252524954563071,-0.0857950370797541,-0.10436554253101349,0.00464192312210794,-0.3485899269580841
1737285489.0432684,13072,1737285489,36721280,base_link,0.4239033846297758,-0.09480910943234633,-0.0769347011351152,0.280292272567749,0.04627705737948411,-0.5398692488670349
1737285489.143173,13073,1737285489,136720768,base_link,0.37689572205348965,-0.07802750168345134,-0.04844881250612091,0.06565102189779282,-0.08212681859731684,-0.7446348071098328
1737285489.2433636,13074,1737285489,236721792,base_link,0.32252566038125347,-0.06740871652823889,-0.031799206979036286,-0.17075097560882568,0.09639234095811834,-0.7891286015510559
1737285489.3428345,13075,1737285489,336721536,base_link,0.2773799373212346,-0.058526270772256896,-0.017420398748666046,0.21053537726402283,0.004462722688913221,-1.0119177103042603
1737285489.4439623,13076,1737285489,436722560,base_link,0.25037271934870453,-0.06413719959041393,0.01675557028932361,-0.533674955368042,0.10095781832933413,-0.9690516591072083
1737285489.543084,13077,1737285489,536724096,base_link,0.1857867555504934,-0.08693983872107587,0.024771757854960788,0.5472925305366516,0.07553237676620467,-1.3558748960494995
1737285489.6433103,13078,1737285489,636723584,base_link,0.16528212073599488,-0.08915901663712476,0.04978421068084246,0.004323967732489109,-0.19812227785587325,-1.1231099367141724
1737285489.7426088,13079,1737285489,736723328,base_link,0.1268424454266186,-0.15074326173595667,0.03661720436144754,0.4930793344974518,-0.3512091338634492,-0.9059554934501648
1737285489.843896,13080,1737285489,836723072,base_link,0.10536491302146542,-0.1672934268574128,0.04042115275260069,-0.12524625658988953,0.10717619210481637,-0.510652482509613
1737285489.94262,13081,1737285489,936723072,base_link,0.07951599827731373,-0.1887868617522339,0.028967216913843775,0.12329611927270889,-0.15674081444740295,0.04409300163388254
1737285490.0439746,13082,1737285490,36722816,base_link,0.04162247710959822,-0.2565097781899162,0.015076182847692155,0.0031241169199347496,-0.10367017239332205,-0.4309786558151245
1737285490.1429667,13083,1737285490,136724352,base_link,0.01830822645139764,-0.2551943851765021,0.032864080457725854,-0.3786575496196747,0.10441090911626823,0.5718089938163757
1737285490.2427218,13084,1737285490,236724096,base_link,-0.02655514416457274,-0.27711271058869,0.013956854001026107,0.07450523227453232,-0.04445995762944215,0.4896013140678406
1737285490.342693,13085,1737285490,336724096,base_link,-0.06192503401173406,-0.26796402379836176,0.040398785562727565,0.015918292105197906,-0.1096195802092552,0.1349315196275711
1737285490.4446614,13086,1737285490,436723840,base_link,-0.07924802333233301,-0.2157802211325392,0.06499177374202608,-0.27880653738975525,0.05665162950754175,0.7449703812599182
1737285490.5418122,13087,1737285490,536723840,base_link,-0.09046274820189244,-0.1710195888133959,0.09433622607429638,-0.6558890342712402,0.2984327375888825,0.4033487737178802
1737285490.643861,13088,1737285490,636723584,base_link,-0.08775497835938754,-0.12874229910426385,0.11327133849170146,-0.5178873538970947,0.11479099839925769,0.24478517472743985
1737285490.743882,13089,1737285490,736723584,base_link,-0.09874343655938858,-0.08950389507078374,0.11536615284888936,-0.4572257995605469,0.029658272862434422,0.28755784034729004
1737285490.843104,13090,1737285490,836723328,base_link,-0.10858549718360205,-0.08815680004612383,0.11629362854416246,0.47037380933761597,-0.04741160199046133,0.18199580907821655
1737285490.9433846,13091,1737285490,936723328,base_link,-0.10222794416850266,-0.07387093152300078,0.12416790915155038,0.4572892189025879,-0.18320271372795105,0.09325442463159564
1737285491.0435548,13092,1737285491,36723072,base_link,-0.102417620498977,-0.058598159588980424,0.11579789536881421,0.6470434069633484,-0.09914794564247133,-0.13209261000156403
1737285491.1437645,13093,1737285491,136723328,base_link,-0.09818882246832668,-0.06565594488094426,0.10611892972344504,-0.05780215561389923,-0.0742713734507561,-0.19550840556621552
1737285491.243671,13094,1737285491,236723072,base_link,-0.09838646924621973,-0.06997068357706501,0.08358075867481284,0.06539887189865112,-0.06967449188232425,-0.23172490298748016
1737285491.34506,13095,1737285491,336723328,base_link,-0.06958047993553945,-0.0668510386976384,0.09153972138533303,0.15471041202545166,0.06982764601707456,-0.21430978178977966
1737285491.4434714,13096,1737285491,436723328,base_link,-0.05130906399097548,-0.05434810222414441,0.08965373940277814,-0.4164944291114807,-0.046716056764125845,-0.1583692878484726
1737285491.5431516,13097,1737285491,536723328,base_link,-0.050109562419357,-0.07107905128895159,0.05657611596403308,0.22105562686920166,-0.1892119646072388,-0.32769450545310974
1737285491.6439047,13098,1737285491,636723328,base_link,-0.028084708722226067,-0.06852556511251892,0.05475191341073847,0.6987988352775574,-0.1184111461043358,-0.10144240409135817
1737285491.7435503,13099,1737285491,736728192,base_link,-0.019441882778569734,-0.05784606999419451,0.03769127654081584,-0.09007780253887177,-0.03638496249914169,0.023773338645696643
1737285491.843771,13100,1737285491,836728192,base_link,0.02033478374056385,-0.01851907928641574,0.05897018131526665,-0.7498506903648376,0.20776055753231049,0.05321782454848287
1737285491.9432788,13101,1737285491,936728192,base_link,0.016581242772433603,-0.03245819332619576,0.04461561285841533,0.007486192509531975,-0.23628255724906924,-0.17347197234630582
1737285492.0480056,13102,1737285492,36733312,base_link,0.0047450983314453795,-0.04193020655385659,0.03307652457505908,0.3524750769138336,-0.12372396886348726,-0.10338931530714034
1737285492.1445372,13103,1737285492,136739456,base_link,0.016800047539659833,-0.030805612800132085,0.021007773684952376,0.26732364296913147,0.027985120192170174,0.255454421043396
1737285492.2434714,13104,1737285492,236739456,base_link,0.03740171633584982,-0.0003291020363085295,0.04325914880127592,-0.2078164666891098,0.24374987185001373,0.04034155979752538
1737285492.3437665,13105,1737285492,336739712,base_link,0.03376335112065357,-0.015103357951005236,0.0414277458256911,-0.003928024787455797,-0.017790105193853403,-0.1901685744524002
1737285492.4443161,13106,1737285492,436739968,base_link,0.02662078619828126,-0.028748664120184075,0.03823022032744022,0.3022623062133789,-0.18633222579956055,-0.10461421310901639
1737285492.5442739,13107,1737285492,536740224,base_link,0.010075162167338142,-0.024995165507361767,0.020659312462468486,0.34939882159233093,-0.37586814165115356,-0.060904115438461255
1737285492.6439705,13108,1737285492,636745344,base_link,0.03519193719707506,0.016521146964133062,0.03263404555781236,0.022130776196718216,0.09109185636043551,0.2114272266626358
1737285492.7444096,13109,1737285492,736745856,base_link,0.019699611487327767,0.004640796816745077,0.030733178260799132,-0.13636192679405212,0.031817041337490054,-0.21661609411239624
1737285492.8437932,13110,1737285492,836745856,base_link,0.006457714439652297,-0.017561992571631376,0.03301400234804043,0.3647571802139282,-0.09077346324920657,-0.24456076323986053
1737285492.9443452,13111,1737285492,936751232,base_link,0.006218316724011151,-0.017683842061898845,0.02297913157545588,0.3709375560283661,-0.29080823063850403,-0.06341341137886043
1737285493.0440848,13112,1737285493,36751744,base_link,-0.0031972013316267337,0.00745541539400846,0.02074670772660436,0.29424387216567993,-0.0763140097260475,0.1535438448190689
1737285493.1438057,13113,1737285493,136752256,base_link,0.009033248278226233,0.028029488137111452,0.04471536547319751,-0.31284573674201965,0.29110199213027954,0.03262485191226002
1737285493.2443593,13114,1737285493,236752768,base_link,-0.00876229745276564,-0.002468536252239347,0.028471791628508592,-0.19187727570533752,-0.12038790434598926,-0.22109337151050565
1737285493.3442552,13115,1737285493,336756608,base_link,-0.01624771109789654,-0.01073579146296223,0.04120009034789659,0.4833953380584717,-0.023649584501981753,-0.13109229505062103
1737285493.444557,13116,1737285493,436757120,base_link,-0.022451449008527156,-0.008261078519799044,0.025906117715393934,0.1963169425725937,-0.16431555151939392,0.05896950513124468
1737285493.5438695,13117,1737285493,536756096,base_link,-0.010657675660356383,0.017506836684083774,0.04330183976525654,-0.6088742613792419,0.29269272089004517,0.05834964662790295
1737285493.6446013,13118,1737285493,636756608,base_link,-0.03152709338076093,-0.011534165383917402,0.022968256224519007,-0.13603252172470093,-0.16791056096553805,-0.2326855510473251
1737285493.7438896,13119,1737285493,736760192,base_link,-0.042505456956225506,-0.01350382600453327,0.018592302018322678,0.516078770160675,-0.04145698249340055,0.18411009013652802
1737285493.8476157,13120,1737285493,836760960,base_link,-0.037982261363068995,0.01627934944733872,0.03093330386743269,-0.05538255721330643,0.13395498692989352,0.14979963004589078
1737285493.9458742,13121,1737285493,936760192,base_link,-0.03289216582899808,0.02410350425535865,0.04839798607466658,-0.3382437229156494,0.11858426779508591,0.05477812886238097
1737285494.0433826,13122,1737285494,36760704,base_link,-0.046973135645676026,0.005198455131158264,0.05429710553739389,-0.026153013110160828,-0.04423484578728678,-0.19366371631622314
1737285494.147951,13123,1737285494,136759936,base_link,-0.07269679078508183,-0.01678071421785445,0.03144892138643545,0.3577865660190582,-0.33771851658821106,0.1267897337675095
1737285494.2428596,13124,1737285494,236764032,base_link,-0.05966195782781438,0.026341109289401306,0.044998952212119595,-0.056414950639009476,0.28065964579582214,0.14414031803607938
1737285494.3418803,13125,1737285494,336763520,base_link,-0.07585908775934966,-0.0009173787529614,0.032830250454512155,-0.02133215218782425,-0.09821186214685443,-0.2679435610771179
1737285494.4426339,13126,1737285494,436767616,base_link,-0.08255530919840832,-0.01564996499282477,0.03155612708224212,0.482698917388916,-0.11798079311847687,0.017244881018996253
1737285494.5430088,13127,1737285494,536766848,base_link,-0.08418950358801813,0.0007360909996785203,0.03222517651127338,-0.12368464469909668,-0.0280487574636936,0.12793679535388947
1737285494.6433969,13128,1737285494,636770944,base_link,-0.08219557888198066,0.03066542164835048,0.047414218149189405,-0.5232542157173157,0.07187616825103763,0.18520918488502502
1737285494.743185,13129,1737285494,736775040,base_link,-0.08968916034735329,0.007574996117790202,0.030734242865028752,0.2355595976114273,-0.20991007983684543,-0.2655216157436371
1737285494.843042,13130,1737285494,836779136,base_link,-0.10706750540699563,0.011438808557421003,0.020211780758446915,0.14691855013370514,-0.02150169946253297,0.22075578570365906
1737285494.9429433,13131,1737285494,936784768,base_link,-0.09099567055375948,0.0285754491246442,0.04369448802585425,-0.38777169585227966,0.23377811908721924,-0.06939671188592914
1737285495.0433578,13132,1737285495,36785536,base_link,-0.11104404094664048,-0.01184884720389873,0.03153897090424071,0.1445765197277069,-0.22703577578067782,-0.23160715401172635
1737285495.1428807,13133,1737285495,136784768,base_link,-0.11624570799610476,-0.0036366718106420103,0.02990427567242858,0.23248431086540222,-0.030409667640924433,0.16885116696357727
1737285495.2435446,13134,1737285495,236785536,base_link,-0.10949662288540393,0.018247051975323645,0.029956143174640484,-0.29924097657203674,0.10790945589542392,0.18589670956134796
1737285495.3428795,13135,1737285495,336791424,base_link,-0.11743281690177391,-0.00841530870917175,0.030821309525798625,0.3767773509025574,-0.08791057020425799,-0.2454233318567276
1737285495.4448757,13136,1737285495,436792448,base_link,-0.1165608423626747,-0.0009446397385867839,0.006915464661518308,-0.3453857898712158,0.07159931957721713,0.25775831937789917
1737285495.5440917,13137,1737285495,536798336,base_link,-0.10578521747652417,0.0013306868564673723,0.020740054867355202,-0.0969318151473999,0.06501609086990355,-0.15901103615760803
1737285495.6433628,13138,1737285495,636802688,base_link,-0.11610190864270678,-0.00793487550015878,-0.005737132366888798,0.36868152022361755,-0.2066696733236313,0.10488490760326388
1737285495.743156,13139,1737285495,736803712,base_link,-0.09455605516476302,0.031605013340870895,0.01778738040823534,-0.6026777029037476,0.09327124059200288,0.10892779380083083
1737285495.8438416,13140,1737285495,836808064,base_link,-0.10605871792066171,-0.005461855352456412,0.0021107179661719344,0.5071197152137756,-0.3564562499523163,-0.054220616817474324
1737285495.9442098,13141,1737285495,936812416,base_link,-0.09671336330676482,0.03306703879467362,0.015300218135842474,0.07720698416233063,0.049756631255149876,0.272449254989624
1737285496.044512,13142,1737285496,36817024,base_link,-0.09490462161472904,0.028346590274918232,0.029817248235260593,-0.23261049389839172,0.17020696401596067,-0.12334854155778888
1737285496.1445189,13143,1737285496,136818048,base_link,-0.09923694712537225,0.0022778893593313537,0.027819610106769994,0.5451045036315918,-0.05964194238185886,-0.30482217669487
1737285496.2480755,13144,1737285496,236819072,base_link,-0.10466115042336742,0.01706895890031033,0.012059304499062761,-0.0026127733290195465,-0.04327050969004629,0.19036534428596497
1737285496.343724,13145,1737285496,336818816,base_link,-0.09256444415363176,0.018513627547135193,0.029258697295968583,-0.025866258889436722,-0.04331145808100704,-0.2781217694282532
