Time,header.seq,header.stamp.secs,header.stamp.nsecs,header.frame_id,pose.position.x,pose.position.y,pose.position.z,pose.orientation.x,pose.orientation.y,pose.orientation.z,pose.orientation.w
1737285472.740677,65,1737285462,736673152,map,1.15755295753479,-6.201341152191162,5.010753631591797,-0.009021195688192884,0.01227750276610378,-0.986228386981294,-0.16468591216755218
1737285472.7407005,66,1737285462,836673408,map,1.1568368673324585,-6.207775115966797,5.008640766143799,-0.0062184484525263746,0.01157737038187155,-0.9865418217136737,-0.16298015033662988
1737285472.7407708,67,1737285462,936672384,map,1.1559535264968872,-6.214761257171631,5.007603645324707,-0.005686453108616514,0.011074481337083872,-0.9871058789560478,-0.15958384581331092
1737285472.740838,68,1737285463,36672640,map,1.1550887823104858,-6.221870422363281,5.007814407348633,-0.0038075970435537828,0.01253807718478669,-0.9878483421543862,-0.15486752961190076
1737285472.7409735,69,1737285463,136673152,map,1.1562703847885132,-6.228150367736816,5.006909370422363,-0.0013795517653282083,0.014497337249867964,-0.9888469938069984,-0.14822127677379027
1737285472.741314,70,1737285463,236673408,map,1.1588479280471802,-6.233692646026611,5.006289005279541,-0.0040454678129178,0.01414368533339486,-0.9895894664931566,-0.14316521281775801
1737285472.7413876,71,1737285463,336672384,map,1.16092050075531,-6.239014625549316,5.0050153732299805,-0.00646533948103105,0.014601979324944168,-0.9902244241959228,-0.13856612613132469
1737285472.7414947,72,1737285463,436672384,map,1.163336992263794,-6.24413537979126,5.0034027099609375,-0.007059650311222066,0.015285429880347081,-0.9910220195823656,-0.1326343608336314
1737285472.7415545,73,1737285463,536672384,map,1.1674660444259644,-6.2509660720825195,5.002854347229004,-0.008172125297484229,0.01485476759263603,-0.9919495649300889,-0.12549347745161293
1737285472.7416143,74,1737285463,636672640,map,1.1720179319381714,-6.258458137512207,5.003253936767578,-0.0059462128557673626,0.016440888208308357,-0.9924915409347754,-0.1210573455867543
1737285472.7416518,75,1737285463,736672128,map,1.1781179904937744,-6.266337871551514,5.003643035888672,-0.005176518905781004,0.016164030026096215,-0.9933840260811625,-0.11357862700400051
1737285472.7417126,76,1737285463,836672128,map,1.1850180625915527,-6.27470064163208,5.003162860870361,-0.005366973084313019,0.017877271585432966,-0.9938006598733636,-0.10959857296443143
1737285472.7418365,77,1737285463,936671360,map,1.1917003393173218,-6.285060882568359,5.004472255706787,-0.0027034601708999005,0.017089824558140496,-0.994217972963397,-0.10597759874723695
1737285472.7428865,78,1737285464,36671616,map,1.1980116367340088,-6.296130180358887,5.007004737854004,0.0029812975431580415,0.015291135675722692,-0.9946120232334631,-0.10249007890592632
1737285472.7430196,79,1737285464,136671104,map,1.2025039196014404,-6.307112216949463,5.0084147453308105,0.005500984776509541,0.011422569891246983,-0.9947125386127658,-0.10191285291912627
1737285472.7430973,80,1737285464,236671360,map,1.2058179378509521,-6.317101001739502,5.008524417877197,0.0018339553944420144,0.008004390013598395,-0.9946572654368981,-0.10290525089475805
1737285472.7431612,81,1737285464,336670592,map,1.2091915607452393,-6.326554775238037,5.01104211807251,-0.0020458640730310956,0.004762064592162608,-0.9945402116913815,-0.10422525850232567
1737285472.7432437,82,1737285464,436670848,map,1.2119245529174805,-6.334877014160156,5.015002250671387,0.00015778886409108654,0.00863370340202847,-0.9944947787025757,-0.10442973427886837
1737285472.7433376,83,1737285464,536670080,map,1.215559959411621,-6.341019630432129,5.019132137298584,0.003827301033112227,0.011224552123552754,-0.9945918531042616,-0.10318142727767593
1737285472.7434235,84,1737285464,636670592,map,1.21916925907135,-6.345669746398926,5.022260665893555,0.005838170738429519,0.01393028434494529,-0.994698531565002,-0.10171870153972018
1737285472.7434728,85,1737285464,736671104,map,1.2206604480743408,-6.349926948547363,5.026231288909912,0.005652250408024072,0.012251650936825413,-0.9947294317805699,-0.10164303549260784
1737285472.7435577,86,1737285464,836671616,map,1.2208409309387207,-6.352989673614502,5.030663013458252,0.0037807713828623877,0.010285079442653205,-0.9947517639319243,-0.10172930287254245
1737285472.7436237,87,1737285464,936670848,map,1.2199492454528809,-6.354840278625488,5.032844543457031,0.003901709708423101,0.009164991335697708,-0.9948151379104788,-0.10121077501591902
1737285472.7437165,88,1737285465,36671360,map,1.2184638977050781,-6.355356693267822,5.0323896408081055,0.002946671439768282,0.011985728772933068,-0.99468072164169,-0.102263979130359
1737285472.7438068,89,1737285465,136670848,map,1.217520833015442,-6.354903221130371,5.0305938720703125,-0.0009058669470099923,0.012130101877395704,-0.9944154438557586,-0.10483303417660517
1737285472.7446198,90,1737285465,236671360,map,1.2166236639022827,-6.353325366973877,5.0292558670043945,-0.0014493134982849463,0.010740383661344876,-0.9942913540594066,-0.10614728866957673
1737285472.7450356,91,1737285465,336670848,map,1.2169690132141113,-6.351125240325928,5.028306007385254,0.0021930709254272627,0.014657137000212008,-0.994181645513434,-0.10669214825409323
1737285472.7451084,92,1737285465,436671616,map,1.217848777770996,-6.347856521606445,5.027243137359619,0.0010877987575234442,0.014728816838931612,-0.9938885768900958,-0.10939549979669455
1737285472.7451825,93,1737285465,536671360,map,1.2158721685409546,-6.346883296966553,5.025827407836914,-0.001659709180160675,0.010590696099947412,-0.993819595491072,-0.11048843441518075
1737285472.7452617,94,1737285465,636671872,map,1.2125886678695679,-6.346235752105713,5.023510456085205,-0.001483728222422963,0.011887827791022107,-0.9938219681157447,-0.11033754479559738
1737285472.7453713,95,1737285465,736671360,map,1.2112410068511963,-6.344841957092285,5.023475646972656,-0.001680004749842965,0.013518157382698138,-0.9936636555155692,-0.11156601952410883
1737285472.7454276,96,1737285465,836672128,map,1.2108043432235718,-6.342189311981201,5.022655010223389,-0.002901372810872552,0.009738362454981738,-0.9935433875703523,-0.11299682892779062
1737285472.745505,97,1737285465,936671872,map,1.2102519273757935,-6.3383870124816895,5.021758556365967,-0.001987104903669154,0.009724076887891214,-0.993660611481952,-0.11198251172434714
1737285472.7455354,98,1737285466,36672640,map,1.2097493410110474,-6.332992076873779,5.021332263946533,-9.6688131268053e-05,0.012737450535939299,-0.9936696731119419,-0.11161688377148044
1737285472.74564,99,1737285466,136673408,map,1.2134051322937012,-6.326772689819336,5.021310329437256,-0.0032176225270246677,0.011754092316333517,-0.9934783067084211,-0.11336817154237361
1737285472.7457304,100,1737285466,236674176,map,1.2167366743087769,-6.3196611404418945,5.023129940032959,-0.00132146975571099,0.01167246448524653,-0.9935883655922046,-0.11244628517802235
1737285472.7457983,101,1737285466,336673664,map,1.2211881875991821,-6.309989929199219,5.025372505187988,0.001971039407307056,0.015860739592063657,-0.9937189921454723,-0.11075701599733628
1737285472.7459135,102,1737285466,436674688,map,1.2257940769195557,-6.299229621887207,5.026021957397461,0.0015058276611870603,0.019674972119851537,-0.9936683488963923,-0.11060669218747748
1737285472.7460008,103,1737285466,536674432,map,1.2299236059188843,-6.2901611328125,5.0260090827941895,0.0008004037839118476,0.018568465739961213,-0.9936833910702129,-0.11067018453517108
1737285472.7460823,104,1737285466,636675456,map,1.2327971458435059,-6.28220796585083,5.025851726531982,0.004073261574090361,0.019497503716716904,-0.9938055490611446,-0.10933337342386484
1737285472.7461414,105,1737285466,736675200,map,1.2354058027267456,-6.275026798248291,5.025328159332275,0.004245605853945678,0.01917463302522264,-0.9938772779001152,-0.10873023844882473
1737285472.7502325,106,1737285466,836675968,map,1.2369869947433472,-6.268649101257324,5.0242018699646,0.0026207437435260797,0.021287781001302682,-0.9937850602200258,-0.10923010649885323
1737285472.7567003,107,1737285466,936675968,map,1.236586093902588,-6.263705730438232,5.024226665496826,0.0008984340869357442,0.020743901281589313,-0.9935794393931126,-0.11121502142732104
1737285472.7569885,108,1737285467,36676992,map,1.2348297834396362,-6.259851932525635,5.024823188781738,0.0008332700018212946,0.01841432008308687,-0.9934509788547079,-0.11276245425496961
1737285472.7570133,109,1737285467,136677760,map,1.2338182926177979,-6.255924224853516,5.025925636291504,0.0016484559347498566,0.01796652759760025,-0.9933639659678366,-0.1135892494726779
1737285472.7570448,110,1737285467,236678784,map,1.2318508625030518,-6.252512454986572,5.0270304679870605,0.002723599686846586,0.019933834529918593,-0.9932170220124384,-0.11452148894606201
1737285472.7571194,111,1737285467,336679808,map,1.22759211063385,-6.250571250915527,5.028875350952148,0.002302689502435771,0.02085718770465437,-0.9931052927515236,-0.11533235821320281
1737285472.7571642,112,1737285467,436680832,map,1.2222943305969238,-6.249070167541504,5.029597759246826,-0.00025824318686318195,0.018387463892283795,-0.9930935178686808,-0.11587536083773137
1737285472.7572012,113,1737285467,536680832,map,1.2178531885147095,-6.247936248779297,5.030228137969971,-0.0019109993734888232,0.016196191915597274,-0.993336173520899,-0.11409328562052196
1737285472.7572389,114,1737285467,636681856,map,1.2136290073394775,-6.247122764587402,5.02938985824585,-0.0007042093949536668,0.019560809459073257,-0.9934560249174215,-0.112525576549109
1737285472.7590222,115,1737285467,736681600,map,1.2081549167633057,-6.24789571762085,5.028774261474609,0.0009081548270578272,0.020492806385504492,-0.9934620607647079,-0.11230473704344018
1737285472.7591655,116,1737285467,836682880,map,1.202265739440918,-6.248938083648682,5.028195858001709,-0.00047547853695014455,0.01774508993287687,-0.9934155111233081,-0.11318351453746317
1737285472.7591937,117,1737285467,936682624,map,1.1944528818130493,-6.251859188079834,5.0278401374816895,-0.002572043481093216,0.015462921199602924,-0.9934468654641314,-0.11321487605345065
1737285472.7592292,118,1737285468,36682112,map,1.1866179704666138,-6.254674911499023,5.0261454582214355,-0.0023069358786192064,0.01602355425585534,-0.9934631892586445,-0.11299918293467615
1737285472.7593017,119,1737285468,136682368,map,1.17991304397583,-6.256369113922119,5.025548458099365,-0.002032307311080217,0.016769680707163153,-0.9934637839895938,-0.11289090945267072
1737285472.7597551,120,1737285468,236682112,map,1.1741803884506226,-6.2574052810668945,5.026137351989746,-0.004337336740291471,0.013729341526392816,-0.9934045289490014,-0.11375471223147249
1737285472.7597904,121,1737285468,336681856,map,1.169922113418579,-6.25744104385376,5.02386999130249,-0.004898669304100034,0.013182695433908253,-0.9935350793638886,-0.11265107923822737
1737285472.7598295,122,1737285468,436681344,map,1.1663808822631836,-6.257185935974121,5.02121639251709,-0.0045196480727534,0.01627993589325939,-0.9936974882587648,-0.11081443180755679
1737285472.7598777,123,1737285468,536681088,map,1.1624021530151367,-6.25766658782959,5.017600059509277,-0.0041180026542705864,0.019406084922515734,-0.9937900026578923,-0.10948916174373469
1737285472.759933,124,1737285468,636680832,map,1.1591421365737915,-6.258199691772461,5.012624263763428,-0.004520937302595432,0.017807103188337853,-0.9937666374883871,-0.10995607494345289
1737285472.7599828,125,1737285468,736680576,map,1.1571298837661743,-6.258523464202881,5.009156703948975,-0.0050006243307412004,0.01594788429517392,-0.9938293773102218,-0.10965321490037239
1737285472.7600136,126,1737285468,836680576,map,1.1558245420455933,-6.259064197540283,5.0073652267456055,-0.0050774256900581495,0.016055167424292072,-0.9939002612362764,-0.10898955024130247
1737285472.7600448,127,1737285468,936680320,map,1.1549943685531616,-6.258300304412842,5.006443500518799,-0.0021563759437524337,0.018696638214258703,-0.9938957499968435,-0.10870613552365005
1737285472.7601078,128,1737285469,36680064,map,1.1545326709747314,-6.257843017578125,5.005342960357666,-0.00027497391090638203,0.020063076915650895,-0.9938152786520482,-0.1092180811577309
1737285472.7602115,129,1737285469,136680064,map,1.1533310413360596,-6.256490707397461,5.0054473876953125,-0.0019056631627017212,0.01796639408935906,-0.9937517618778169,-0.1101408774981884
1737285472.7602355,130,1737285469,236679808,map,1.1523290872573853,-6.255595684051514,5.006883144378662,-0.0027954924668733344,0.015130613153714752,-0.9938002192890989,-0.11011073475551492
1737285472.7604127,131,1737285469,336680064,map,1.1511383056640625,-6.255898952484131,5.008694171905518,-0.004099526193399925,0.015163186777642824,-0.9937879613767229,-0.1101760385675265
1737285472.7604434,132,1737285469,436679808,map,1.1500219106674194,-6.25700044631958,5.010134696960449,-0.0017047844225040855,0.017691026009231628,-0.9937323750954656,-0.11036343595565712
1737285472.760525,133,1737285469,536680064,map,1.150213360786438,-6.2562994956970215,5.010201930999756,-0.002350739908874193,0.01614975988821309,-0.993546499927622,-0.11224531954164463
1737285472.765154,134,1737285469,636680064,map,1.1510334014892578,-6.2555108070373535,5.0099382400512695,-0.004141873597625865,0.014203643910870435,-0.9934780620067587,-0.1130594608781128
1737285472.7656438,135,1737285469,736680064,map,1.1531835794448853,-6.252356052398682,5.008744239807129,-0.0024395061445573766,0.016714155335438765,-0.9935033876280541,-0.11254201256763519
1737285472.765849,136,1737285469,836680064,map,1.1554187536239624,-6.249668121337891,5.008191108703613,-0.0005286896636382309,0.018254992807183103,-0.9933179876153394,-0.11395547904625597
1737285472.7659214,137,1737285469,936680320,map,1.157350778579712,-6.248073577880859,5.006881237030029,-0.001580798126566131,0.017478208663883107,-0.9931210146335792,-0.11576987342290312
1737285472.7660422,138,1737285470,36680320,map,1.1590193510055542,-6.247046947479248,5.005398750305176,-0.0008875894691133645,0.013814608856767713,-0.9931334468049228,-0.11616507910918111
1737285472.7662385,139,1737285470,137680320,map,1.162183403968811,-6.245121002197266,5.000779151916504,0.0020649524050255262,0.017867394083858484,-0.9932082687137407,-0.11495141216562282
1737285472.7678688,140,1737285470,237673664,map,1.1638329029083252,-6.243995189666748,4.998721122741699,0.008184587318184737,0.02192477280008814,-0.9929544717024191,-0.11616253266120208
1737285472.767941,141,1737285470,336673664,map,1.1634694337844849,-6.24310827255249,5.001960754394531,0.015515110318089597,0.03489859836787705,-0.9922103822265029,-0.1185745612925137
1737285472.7713954,142,1737285470,436667008,map,1.1570730209350586,-6.247485637664795,5.013970851898193,0.03081321036344393,0.05665865547328545,-0.9903541396615138,-0.12263368575705674
1737285472.7715447,143,1737285470,536665728,map,1.1444652080535889,-6.257334232330322,5.035717010498047,0.039053489658421627,0.06512118165956252,-0.9892312801610146,-0.1251220643841941
1737285472.7717125,144,1737285470,636665728,map,1.1238820552825928,-6.2745842933654785,5.069516181945801,0.03278784863499525,0.05580567028101763,-0.9909104484558318,-0.11792865337752861
1737285472.7717688,145,1737285470,736664960,map,1.0984420776367188,-6.293398380279541,5.116580486297607,0.02214705075097504,0.03114586005103895,-0.994638176634254,-0.0960954792193755
1737285472.774559,146,1737285470,836665216,map,1.0689736604690552,-6.311594486236572,5.174881935119629,0.005863284237700067,-0.006290736641164588,-0.9980530466022386,-0.06177511390883289
1737285472.774779,147,1737285470,936665728,map,1.0413479804992676,-6.311620712280273,5.242108345031738,-0.01479887066840624,-0.038590151715894916,-0.998940010328458,-0.020264485743883454
1737285472.7748308,148,1737285471,36665984,map,1.0157098770141602,-6.3025803565979,5.321008682250977,-0.034452855100299856,-0.053597773061870316,-0.9977349217551545,0.021570938980064788
1737285472.7749166,149,1737285471,136665984,map,0.9991400241851807,-6.278895378112793,5.4123969078063965,-0.051550157285735004,-0.06701764347271837,-0.9949555727590247,0.053987266859332084
1737285472.7749453,150,1737285471,236666240,map,0.9911291599273682,-6.237907886505127,5.519223690032959,-0.06365631936854448,-0.07862679330339092,-0.9925461378385042,0.0679548720927684
1737285472.774972,151,1737285471,336667264,map,1.0018502473831177,-6.171403884887695,5.640141487121582,-0.06599633782550406,-0.08901136529991632,-0.9920557815210675,0.05955490401042212
1737285472.7750244,152,1737285471,436667776,map,1.0224883556365967,-6.085789680480957,5.768106460571289,-0.05604932719443879,-0.09072806230818554,-0.9938534267805343,0.029702823223415494
1737285472.775071,153,1737285471,536667008,map,1.0547728538513184,-5.988239765167236,5.900952339172363,-0.0419263010357606,-0.0936231593098251,-0.9945826773925042,-0.01679842710088975
1737285472.7751038,154,1737285471,636667520,map,1.0946921110153198,-5.875332832336426,6.0320963859558105,-0.025015943328616095,-0.09205549033862004,-0.9926223123837624,-0.07483938960071673
1737285472.775293,155,1737285471,736670848,map,1.1480543613433838,-5.746352672576904,6.164312362670898,-0.009004773586506684,-0.0793593365006881,-0.98672842929964,-0.1413789820825268
1737285472.775455,156,1737285471,836671360,map,1.2030749320983887,-5.602425575256348,6.2932448387146,0.004862756562452044,-0.057827063501069094,-0.9757112663044814,-0.2112342517963483
1737285472.7781112,157,1737285471,936671872,map,1.2681676149368286,-5.454483509063721,6.414124965667725,0.011837163089430745,-0.030218850198298713,-0.9590181017130754,-0.2814799872980955
1737285472.7805207,158,1737285472,36672384,map,1.3307024240493774,-5.301390647888184,6.525266170501709,0.014852311491200596,-0.0013267966684332097,-0.9343355354612302,-0.3560825123877121
1737285472.7808414,159,1737285472,136671616,map,1.3996858596801758,-5.156442165374756,6.633685111999512,0.011135203444110347,0.028737397133960493,-0.8947391936578007,-0.4455243479124478
1737285472.7810173,160,1737285472,236672384,map,1.4658432006835938,-5.021852016448975,6.73288631439209,0.006334549077287203,0.05764017400443585,-0.8482500761750563,-0.5264117134883464
1737285472.7810576,161,1737285472,336672896,map,1.5389692783355713,-4.896673202514648,6.823505878448486,-0.002539653786823844,0.08560613524853322,-0.8101901424309597,-0.5798767738702375
1737285472.78308,162,1737285472,436672384,map,1.6068804264068604,-4.7838239669799805,6.904601097106934,-0.021645775986748952,0.10920051884030131,-0.7805498648654207,-0.6151004922169336
1737285472.7831433,163,1737285472,536672896,map,1.6638990640640259,-4.687215805053711,6.977898120880127,-0.030945650277690362,0.1324753048420123,-0.7525392512274073,-0.6443425608308053
1737285472.7831655,164,1737285472,636673408,map,1.7096086740493774,-4.609997749328613,7.041995048522949,-0.03543640943578641,0.1476002128024909,-0.7238882890182479,-0.673011280060886
1737285472.7832005,165,1737285472,736672896,map,1.746538519859314,-4.553432941436768,7.099327564239502,-0.03940496574924313,0.14901596805824813,-0.6946221849109587,-0.7026674250080829
1737285472.8410845,166,1737285472,836673664,map,1.7722184658050537,-4.519548416137695,7.149851322174072,-0.040902321393800734,0.13646488934968015,-0.6650443937031818,-0.7330895501119526
1737285472.940785,167,1737285472,936672640,map,1.7856701612472534,-4.500405311584473,7.194997787475586,-0.03797778373142811,0.12061535982708532,-0.6344451169775569,-0.7625542711571197
1737285473.0414493,168,1737285473,36673152,map,1.787476897239685,-4.496405124664307,7.2347798347473145,-0.03667533469424854,0.09828599841796751,-0.6076384676351518,-0.7872548983588813
1737285473.1405969,169,1737285473,136672640,map,1.780847191810608,-4.4999213218688965,7.269668102264404,-0.03334926849645139,0.0751770800904548,-0.5913751367561478,-0.8021917978553958
1737285473.2429674,170,1737285473,236673408,map,1.767260193824768,-4.511022567749023,7.299675941467285,-0.02447420897132364,0.05603735349866721,-0.5891334272487192,-0.8057187058808252
1737285473.3395665,171,1737285473,336672896,map,1.7475029230117798,-4.531833171844482,7.322764873504639,-0.02223644235966634,0.04429432472854985,-0.5980885188496641,-0.7998960414005324
1737285473.4394925,172,1737285473,436673664,map,1.7231247425079346,-4.560999870300293,7.3411407470703125,-0.018763756029212028,0.04347779267993348,-0.6207850084675572,-0.7825494081943274
1737285473.54205,173,1737285473,536673152,map,1.6929106712341309,-4.595473289489746,7.359282970428467,-0.014981208681783957,0.04808645292518693,-0.65532951406242,-0.7536620492171667
1737285473.644032,174,1737285473,636674176,map,1.6581207513809204,-4.635725498199463,7.374475479125977,-0.00749948159822825,0.048837676949189675,-0.6986212727230192,-0.7137835500940278
1737285473.743838,175,1737285473,736673920,map,1.6164352893829346,-4.68156099319458,7.384521484375,0.00012450581466984747,0.04227620625573072,-0.7467932453224632,-0.6637111989590565
1737285473.8432546,176,1737285473,836674944,map,1.5703275203704834,-4.731724262237549,7.391409397125244,0.004933542319622191,0.030655439590823473,-0.7952232235732251,-0.6055212043136743
1737285473.9434912,177,1737285473,936675712,map,1.521627426147461,-4.783536434173584,7.397378444671631,0.010408411624446536,0.022570514949066013,-0.8422981712022174,-0.5384385086635151
1737285474.0445082,178,1737285474,36676736,map,1.4724149703979492,-4.836527347564697,7.399176597595215,0.008497182324518732,0.015212678239321263,-0.8848459043974954,-0.4655578350584481
1737285474.1434643,179,1737285474,136676480,map,1.427141547203064,-4.8912177085876465,7.399651050567627,0.0029834320819987423,0.010668278632275433,-0.9206146523387154,-0.3903151916891044
1737285474.2441685,180,1737285474,236677504,map,1.385860562324524,-4.945957183837891,7.398880958557129,-0.0006812160542107249,0.011348234930190495,-0.94835547960055,-0.31700573783492836
1737285474.3509333,181,1737285474,336679040,map,1.3476704359054565,-4.997560501098633,7.39674186706543,-0.004050314945407719,0.009703939830967116,-0.9693162720087583,-0.24559192437790556
1737285474.443812,182,1737285474,436679808,map,1.3117741346359253,-5.047058582305908,7.394639492034912,-0.004642691126750873,0.007355763063305385,-0.9837299678638567,-0.17944271647362398
1737285474.545485,183,1737285474,536671104,map,1.2780715227127075,-5.093120574951172,7.391584873199463,-0.007350677358639022,0.00499434270461846,-0.9926344717728617,-0.12082147793968423
1737285474.6512823,184,1737285474,636670848,map,1.2466496229171753,-5.136197090148926,7.388027667999268,-0.011330270519933183,0.006580204818546625,-0.9976138581831353,-0.06778580851070853
1737285474.7418208,185,1737285474,736670592,map,1.2214027643203735,-5.175956726074219,7.383780479431152,-0.012244142976655673,0.005170823048178786,-0.9996949976319705,-0.0208147846826805
1737285474.8446474,186,1737285474,836670080,map,1.2003283500671387,-5.213200569152832,7.379982948303223,-0.01191521032309934,0.005930522399982061,-0.9996582265407405,0.022500817239401005
1737285474.9448695,187,1737285474,936669824,map,1.1798875331878662,-5.2484002113342285,7.37681770324707,-0.010680200619490548,0.008490059171900424,-0.9978183829745171,0.0645935508244081
1737285475.0441074,188,1737285475,36669312,map,1.1602342128753662,-5.281840801239014,7.374739646911621,-0.012458815620396904,0.004999505466418341,-0.994345614663509,0.10534031259625387
1737285475.1471457,189,1737285475,137669056,map,1.1422754526138306,-5.3102288246154785,7.372256755828857,-0.01206176208859625,0.004048208523805387,-0.9886175087313862,0.14991179851103542
1737285475.2437332,190,1737285475,236668800,map,1.1251953840255737,-5.336467742919922,7.370711803436279,-0.011585347257718611,0.008336718720740023,-0.9808191035318539,0.19439692640795508
1737285475.3428097,191,1737285475,336661888,map,1.1090962886810303,-5.36082124710083,7.368611812591553,-0.014079270806216128,0.006949802735109295,-0.9705382580242794,0.24043494772329932
1737285475.442647,192,1737285475,436661632,map,1.0937879085540771,-5.384047985076904,7.367186546325684,-0.013528828879734727,0.00889469985506092,-0.9574223669621009,0.28823647642919764
1737285475.5418644,193,1737285475,536661632,map,1.0783878564834595,-5.403250217437744,7.365886211395264,-0.013872174297209711,0.008406341443347199,-0.9412377658307127,0.337354953095125
1737285475.6421924,194,1737285475,636661376,map,1.0630079507827759,-5.42177677154541,7.365362644195557,-0.010369086109451784,0.020211006988642966,-0.9237955000141171,0.3822118148401844
1737285475.7429435,195,1737285475,736665728,map,1.0497087240219116,-5.442070007324219,7.368222713470459,0.003762559359796359,0.03722615047714677,-0.9090792049357153,0.41493982216842584
1737285475.8441567,196,1737285475,836665472,map,1.0367116928100586,-5.468583583831787,7.378937721252441,0.02596121447711853,0.058406801259205665,-0.8979293003859752,0.43547403185252465
1737285475.9428084,197,1737285475,936665472,map,1.0205968618392944,-5.507757186889648,7.3950886726379395,0.05288037656664789,0.07652966313685793,-0.886883388826629,0.4525314696877146
1737285476.0428648,198,1737285476,36665216,map,0.9988717436790466,-5.5647454261779785,7.413323402404785,0.07879959536212182,0.08978900312497753,-0.8735527888302894,0.4718411637568437
1737285476.1426797,199,1737285476,136665216,map,0.9707837700843811,-5.640802383422852,7.431478500366211,0.1007077396445381,0.09778491782808829,-0.8568115019977491,0.4961553295747241
1737285476.2416809,200,1737285476,236664960,map,0.9341062903404236,-5.740414619445801,7.448818206787109,0.10681129826661942,0.09869415850485909,-0.8373460197923204,0.526974812280033
1737285476.344495,201,1737285476,337665472,map,0.8870830535888672,-5.858480453491211,7.467145919799805,0.0885185836168621,0.08342186659550396,-0.8203643260965849,0.5587554250262653
1737285476.44305,202,1737285476,436665216,map,0.831692099571228,-5.997066974639893,7.487309455871582,0.061186248554296295,0.06995154151624454,-0.8044072531497302,0.586764003588716
1737285476.5418928,203,1737285476,536665472,map,0.7732605934143066,-6.140509605407715,7.511314868927002,0.03641488804221057,0.05226386674641206,-0.7930037426593336,0.6058774696998361
1737285476.6423867,204,1737285476,636665472,map,0.7125137448310852,-6.296071529388428,7.537038803100586,0.02124859895938819,0.044998423128175875,-0.7849871610822551,0.6175101585352767
1737285476.7542665,205,1737285476,736665984,map,0.648139238357544,-6.461370468139648,7.562820911407471,0.015038630386435232,0.0398018850322361,-0.7829143736016035,0.6206728068410837
1737285476.8423984,206,1737285476,836666240,map,0.582419753074646,-6.634517669677734,7.586991786956787,0.014819776662424494,0.03855499108600837,-0.7839339136216036,0.6194687287958531
1737285476.9414494,207,1737285476,936666240,map,0.5194507241249084,-6.813131332397461,7.608396530151367,0.009705598437395623,0.03228540087647384,-0.7891041929840312,0.613333536392914
1737285477.0428817,208,1737285477,36666496,map,0.4577476978302002,-6.996053695678711,7.629444122314453,-0.002818920863612701,0.026913224317739546,-0.7946489579665398,0.6064657992374181
1737285477.1428711,209,1737285477,136666752,map,0.3978712558746338,-7.176313877105713,7.648224353790283,-0.013516802240165566,0.016012099141231747,-0.8010195290064672,0.5982713622500654
1737285477.2427585,210,1737285477,236667008,map,0.3402857780456543,-7.35236120223999,7.6634440422058105,-0.02586369933894435,0.0032141641979597903,-0.8070629752366999,0.5898898983768911
1737285477.3420532,211,1737285477,336667264,map,0.2840723693370819,-7.524223327636719,7.677382946014404,-0.03421145108564346,-0.008541817354180343,-0.8121475269477914,0.5823856183350419
1737285477.442426,212,1737285477,436667776,map,0.22922492027282715,-7.690893173217773,7.690539836883545,-0.040467210150984395,-0.015350140912085228,-0.8158173378834775,0.5766878265450822
1737285477.5428526,213,1737285477,536668032,map,0.17632418870925903,-7.843923091888428,7.7020792961120605,-0.04749518281113058,-0.02156423457075963,-0.8174422645999583,0.5736439099675044
1737285477.6424534,214,1737285477,636668288,map,0.12560062110424042,-7.98793363571167,7.712094783782959,-0.05393459209354011,-0.022018248002249014,-0.8177706325337077,0.5725883766686454
1737285477.742521,215,1737285477,736668800,map,0.08034029603004456,-8.117648124694824,7.718137741088867,-0.05724124792723823,-0.02239688330883912,-0.8175600921348497,0.5725533293084921
1737285477.842724,216,1737285477,836669056,map,0.03836800903081894,-8.237605094909668,7.721858501434326,-0.05384465974370283,-0.01741929149219122,-0.8171613545414379,0.5736241291516573
1737285477.9440954,217,1737285477,936669568,map,-0.0001237834949279204,-8.351725578308105,7.722326278686523,-0.03282494628788338,-0.007399919194506659,-0.8170472187407996,0.5755880527295857
1737285478.044489,218,1737285478,37670080,map,-0.036910925060510635,-8.461734771728516,7.720585823059082,-0.009130874426111607,0.007851625853255056,-0.8167375458354186,0.5768836627314149
1737285478.1436043,219,1737285478,136670592,map,-0.0723450556397438,-8.569886207580566,7.716935157775879,-0.0038197704943799897,0.017646566514042214,-0.8165694395466968,0.5769647809373022
1737285478.2461534,220,1737285478,236670848,map,-0.108004130423069,-8.679697036743164,7.714098930358887,0.0036521325659905506,0.028784013549817876,-0.816481911751481,0.5766415093230207
1737285478.347214,221,1737285478,336670080,map,-0.14281755685806274,-8.791705131530762,7.714348793029785,0.013891287307238289,0.03853070685397465,-0.8164986078311067,0.5758927332204716
1737285478.4432814,222,1737285478,436671104,map,-0.17757445573806763,-8.907103538513184,7.719207286834717,0.012447495283949112,0.038798745554234175,-0.8179909957624124,0.5737860647106994
1737285478.5455322,223,1737285478,536670080,map,-0.20964276790618896,-9.027876853942871,7.726146697998047,0.0070676690487812615,0.033661166962998125,-0.8200608211745224,0.5712418257336153
1737285478.641724,224,1737285478,636670592,map,-0.2428661286830902,-9.155830383300781,7.734273433685303,0.016746160387042294,0.030764535655314628,-0.8221299890933175,0.5682212513551619
1737285478.7471344,225,1737285478,736669824,map,-0.2775318920612335,-9.286028861999512,7.743435382843018,0.03299046569872751,0.037729263585246836,-0.82266735202589,0.5663095970871466
1737285478.8465054,226,1737285478,836670336,map,-0.3158683478832245,-9.422285079956055,7.75420618057251,0.04637834871573981,0.04744162501074647,-0.8214863468481228,0.5663554739992069
1737285478.941486,227,1737285478,936669312,map,-0.36036041378974915,-9.568371772766113,7.763577461242676,0.04969690259271079,0.05103029103410932,-0.8203348345146697,0.567430071948477
1737285479.0437512,228,1737285479,36669824,map,-0.4101754426956177,-9.723690032958984,7.773956775665283,0.033990722672642255,0.03900173926045847,-0.8210943734521241,0.5684430710212892
1737285479.1428142,229,1737285479,136670336,map,-0.4634711742401123,-9.883779525756836,7.78409481048584,0.0105364403367455,0.024892172530351732,-0.8188947836220519,0.5733068083743139
1737285479.2428029,230,1737285479,236671104,map,-0.5187155604362488,-10.04603099822998,7.794694423675537,-0.012380334013351488,0.01556597930407222,-0.8155512195377994,0.5783430088869675
1737285479.343925,231,1737285479,336675968,map,-0.5714538097381592,-10.201683044433594,7.805002689361572,-0.026587282426701796,0.0060923287145562945,-0.8121785213058862,0.5827710094654508
1737285479.4459786,232,1737285479,437676736,map,-0.622578501701355,-10.351832389831543,7.8159003257751465,-0.028638782541842732,-0.0014503001056419506,-0.8096576570812364,0.5862014970075117
1737285479.542087,233,1737285479,536676224,map,-0.6713024377822876,-10.496426582336426,7.826561450958252,-0.02938209828174577,-0.0034117672004075677,-0.8078127385175085,0.5886965531018298
1737285479.650117,234,1737285479,636676992,map,-0.717784583568573,-10.634926795959473,7.839024066925049,-0.03330430453227553,-0.0039091266283060875,-0.8070059989083739,0.5895904169459701
1737285479.7428265,235,1737285479,736676224,map,-0.7620336413383484,-10.76688289642334,7.8524017333984375,-0.040477601482174656,-0.004772440151042087,-0.8069683710972131,0.5891865881382278
1737285479.8449788,236,1737285479,836676736,map,-0.8038768768310547,-10.89192008972168,7.861606597900391,-0.046895181338985445,-0.010615145825151214,-0.8067702289344679,0.5889057295962745
1737285479.9445431,237,1737285479,936678016,map,-0.840197741985321,-11.00928020477295,7.8690876960754395,-0.050247947147666706,-0.015842831864345094,-0.808049245475461,0.5867542631907345
1737285480.045232,238,1737285480,36678016,map,-0.8721256256103516,-11.11774730682373,7.874983310699463,-0.052445518943186394,-0.016925745292381944,-0.8097685402199211,0.584155713794854
1737285480.1463041,239,1737285480,137677504,map,-0.8984145522117615,-11.218161582946777,7.879068851470947,-0.04846947201262541,-0.018233088778378287,-0.8128788298240861,0.5801260835199891
1737285480.243255,240,1737285480,236679552,map,-0.9206653833389282,-11.309280395507812,7.881692886352539,-0.0427779300627415,-0.01735534834922838,-0.8163782676135377,0.5756694926357859
1737285480.355565,241,1737285480,336680576,map,-0.9362090229988098,-11.39006519317627,7.884048938751221,-0.0405206095450134,-0.018504002363286975,-0.8202792849015399,0.570225899850277
1737285480.4455767,242,1737285480,437680576,map,-0.9489640593528748,-11.45866584777832,7.8864054679870605,-0.047404730487479875,-0.029719440728793765,-0.8220321556800929,0.566685698953235
1737285480.5430863,243,1737285480,536680064,map,-0.9569798111915588,-11.517967224121094,7.890814781188965,-0.0601273296794152,-0.03849736217418651,-0.8226622994992469,0.5640296076571369
1737285480.642409,244,1737285480,636681344,map,-0.9615114331245422,-11.564885139465332,7.900136470794678,-0.06472888386325008,-0.04074142144925586,-0.8239173545887546,0.5615251561413617
1737285480.7435956,245,1737285480,736681088,map,-0.9597291350364685,-11.594680786132812,7.915010452270508,-0.07031039292037022,-0.03996546459202252,-0.8230372601432474,0.562200034421222
1737285480.843177,246,1737285480,836682112,map,-0.9529041051864624,-11.60786247253418,7.934451103210449,-0.07183565079845292,-0.040403129985482865,-0.819607843538238,0.5669657918890154
1737285480.9446807,247,1737285480,936682112,map,-0.9414761066436768,-11.603910446166992,7.954881191253662,-0.06853899498913373,-0.03995907764867894,-0.8124965397027155,0.5775422506193465
1737285481.0423746,248,1737285481,36682880,map,-0.9263896942138672,-11.582259178161621,7.975196361541748,-0.07708840971271695,-0.04867770036840226,-0.8054553890377902,0.5856018057048581
1737285481.1431494,249,1737285481,136682624,map,-0.9039582014083862,-11.549081802368164,7.995370864868164,-0.07697667014278523,-0.04991211607539601,-0.7952842803665912,0.5992547758044139
1737285481.2440279,250,1737285481,236683392,map,-0.878372848033905,-11.503361701965332,8.013385772705078,-0.0624863527135996,-0.04145878253033622,-0.779645468133833,0.6217150224130266
1737285481.3449626,251,1737285481,336683136,map,-0.8474305272102356,-11.446303367614746,8.02912425994873,-0.05370078422588424,-0.035034748705980466,-0.7544759388331082,0.6531882193353872
1737285481.449657,252,1737285481,436684160,map,-0.8139640688896179,-11.377301216125488,8.042288780212402,-0.05899414202408104,-0.03151455948746359,-0.7190869233227769,0.6916939499904105
1737285481.5450048,253,1737285481,536683904,map,-0.7788862586021423,-11.295029640197754,8.05298900604248,0.06807803251956011,0.03207586160112445,0.6761236403825162,-0.7329347471001119
1737285481.643573,254,1737285481,636684928,map,-0.7426385283470154,-11.202561378479004,8.059613227844238,0.07289115715645358,0.02221337028974437,0.6247327251764426,-0.7771116184193743
1737285481.7461333,255,1737285481,736686208,map,-0.7038202285766602,-11.096717834472656,8.062962532043457,0.06886245188375445,0.01122377504485408,0.5691733745168359,-0.8192518900407969
1737285481.842989,256,1737285481,836687232,map,-0.6632353663444519,-10.981985092163086,8.065814018249512,0.06665942912556358,0.0020126577063659355,0.5074168078332113,-0.8591162045066807
1737285481.9472055,257,1737285481,936687232,map,-0.6193370819091797,-10.85809326171875,8.068473815917969,0.06742857728996411,-0.0012125866584640692,0.4450330401042789,-0.8929711696431135
1737285482.0430148,258,1737285482,36688512,map,-0.572416365146637,-10.728201866149902,8.070459365844727,0.06352329984196388,-0.008009421072590124,0.38289474280090263,-0.9215705374450187
1737285482.1451695,259,1737285482,136688512,map,-0.5246894955635071,-10.59368896484375,8.072967529296875,0.048634627205868544,-0.008065031210631854,0.3226836168385715,-0.9452221494083259
1737285482.2439423,260,1737285482,236688512,map,-0.4747697114944458,-10.45494556427002,8.076749801635742,0.03590526103617775,-0.00795839991676521,0.26450858244989395,-0.9636818385292092
1737285482.348438,261,1737285482,337688512,map,-0.4246178865432739,-10.313729286193848,8.082387924194336,0.037654183205686254,-0.0018214860660616455,0.2129719462923917,-0.976330781430174
1737285482.4459023,262,1737285482,436688256,map,-0.3744637072086334,-10.171151161193848,8.088558197021484,0.05550418409322393,0.0034582342057530723,0.16007933135449864,-0.9855363686021029
1737285482.5419333,263,1737285482,536688256,map,-0.32305771112442017,-10.02043628692627,8.096355438232422,0.07570946179541277,-0.0026539175312594795,0.10981523418322459,-0.9910608702081167
1737285482.642209,264,1737285482,636688000,map,-0.2705351710319519,-9.863492012023926,8.10619831085205,0.07324630013906283,-0.006843588434692401,0.06063729649584576,-0.9954452587093625
1737285482.7437785,265,1737285482,736687744,map,-0.21147520840168,-9.696378707885742,8.11888599395752,0.05331777981546187,-0.0042509942629266545,0.013782580913473674,-0.9984734267203561
1737285482.8521483,266,1737285482,836687488,map,-0.15089961886405945,-9.52625846862793,8.133088111877441,0.030970457199197478,0.0031584381644847955,-0.03563394382904839,-0.9988799112488058
1737285482.941357,267,1737285482,936688768,map,-0.09121035784482956,-9.3579683303833,8.148239135742188,0.011572363529782206,0.012614332498685132,-0.0807243832280286,-0.9965894505614645
1737285483.042172,268,1737285483,36688768,map,-0.03326372057199478,-9.193863868713379,8.162772178649902,0.002025304640202287,0.018854757178103608,-0.1307764530427704,-0.9912305057868331
1737285483.1425805,269,1737285483,136688768,map,0.022413888946175575,-9.037866592407227,8.178611755371094,-0.006493206761670595,0.02503371781211827,-0.17898104682367966,-0.9835125500553377
1737285483.242219,270,1737285483,236688768,map,0.0742710754275322,-8.892827987670898,8.194260597229004,-0.01233715916528939,0.030667189437106376,-0.22627073889964983,-0.973503400463278
1737285483.3418665,271,1737285483,336689024,map,0.12311733514070511,-8.752726554870605,8.207110404968262,-0.011333337682578052,0.034374302719740985,-0.2749929407971876,-0.9607647190031587
1737285483.4429646,272,1737285483,436689024,map,0.16811005771160126,-8.622693061828613,8.218727111816406,-0.011057713788119697,0.03844482121511166,-0.3263380379055518,-0.9444062725879538
1737285483.5423975,273,1737285483,536689280,map,0.20938976109027863,-8.497867584228516,8.226943016052246,-0.015492140285243558,0.043804846432219643,-0.3756828586553397,-0.9255827995003927
1737285483.6430604,274,1737285483,636689280,map,0.2463633120059967,-8.381731986999512,8.231220245361328,-0.016323373887348176,0.046721351904883884,-0.42357912835017264,-0.9045061551848178
1737285483.7437096,275,1737285483,736690304,map,0.2780580222606659,-8.27534294128418,8.233449935913086,-0.011016176059928148,0.049634978940412564,-0.4725807545899657,-0.8798195514546037
1737285483.848755,276,1737285483,836690304,map,0.3051736056804657,-8.178709030151367,8.234750747680664,-0.0103448782866894,0.05124087634064563,-0.5200384370059226,-0.8525417175256078
1737285483.9436688,277,1737285483,936690816,map,0.32574865221977234,-8.088764190673828,8.235162734985352,-0.0038749364981469454,0.05413738699945405,-0.5648463223408714,-0.8234092301729432
1737285484.0426035,278,1737285484,36691072,map,0.34147512912750244,-8.007275581359863,8.233684539794922,-0.002110923226841063,0.05504879555883758,-0.6035702723155926,-0.7954043628793679
1737285484.1551979,279,1737285484,136691584,map,0.35052594542503357,-7.933405876159668,8.232168197631836,0.0005013475111882278,0.054161557495556664,-0.6329548500041947,-0.7722916755970477
1737285484.2415884,280,1737285484,236691840,map,0.35505402088165283,-7.8670196533203125,8.230694770812988,-0.0007716165932979224,0.05070159013293943,-0.6510952312262904,-0.7573003058498047
1737285484.3424902,281,1737285484,336692096,map,0.357144832611084,-7.807255268096924,8.231443405151367,-0.0026087849927815005,0.047328448779282044,-0.6591108862989782,-0.750550499126597
1737285484.4542413,282,1737285484,436692352,map,0.35718661546707153,-7.755322456359863,8.23153018951416,-0.0019224571450789081,0.04343767996108879,-0.6591717982151497,-0.7507343155577274
1737285484.544575,283,1737285484,536692864,map,0.3540368676185608,-7.708899974822998,8.229329109191895,-0.004425555779325762,0.03520023299413984,-0.6540717460696917,-0.7556000986279364
1737285484.6467683,284,1737285484,637693120,map,0.35003504157066345,-7.667702674865723,8.226080894470215,-0.0008029482592663477,0.022728198075150356,-0.6444318020823712,-0.7643235157648998
1737285484.7467344,285,1737285484,737698752,map,0.34812334179878235,-7.6280317306518555,8.226229667663574,0.003449939950807269,0.007970693806010693,-0.6295069323113647,-0.7769463225516429
1737285484.849705,286,1737285484,837701824,map,0.34908249974250793,-7.589980125427246,8.228494644165039,0.008587435218719358,-0.0002690487320273466,-0.6120185210032999,-0.7907967586669011
1737285484.9508526,287,1737285484,937701824,map,0.35145634412765503,-7.546955585479736,8.230535507202148,0.014297368858021223,-0.01621448647292635,-0.5936062460806025,-0.8044652262753513
1737285485.0529387,288,1737285485,37701824,map,0.3580644726753235,-7.497727870941162,8.231820106506348,0.031590072852147634,-0.037225460842172015,-0.5755282355248633,-0.8163232095658688
1737285485.1422887,289,1737285485,137701824,map,0.37066030502319336,-7.432439804077148,8.23602294921875,0.04858132045111293,-0.06146201816351106,-0.5619742785511957,-0.8234362063167722
1737285485.2598424,290,1737285485,237701824,map,0.3918195962905884,-7.353183746337891,8.242743492126465,0.07099689603577787,-0.08321997225392258,-0.5513537386553813,-0.8270688797446527
1737285485.3470597,291,1737285485,336701824,map,0.42500555515289307,-7.256051063537598,8.250608444213867,0.08132173580964812,-0.10319510512717026,-0.54407370688213,-0.8286865191628475
1737285485.454303,292,1737285485,436706432,map,0.4694940447807312,-7.138859272003174,8.260018348693848,0.09230629772590875,-0.10642689075585704,-0.5440775148551169,-0.8271230393074882
1737285485.5503912,293,1737285485,537711552,map,0.5231602191925049,-6.99882698059082,8.26834487915039,0.08944300859815402,-0.10076613041814596,-0.5449933588431478,-0.8275435783028757
1737285485.654667,294,1737285485,637711552,map,0.5863915681838989,-6.8351874351501465,8.277432441711426,0.09040401846877955,-0.09213447273259702,-0.5503636168095607,-0.8248868053686407
1737285485.7436914,295,1737285485,736714624,map,0.6562368273735046,-6.652372360229492,8.28665542602539,0.08348679045603435,-0.08310312528241932,-0.5542703933477923,-0.8239588323731522
1737285485.8413198,296,1737285485,836714624,map,0.7318933010101318,-6.454399585723877,8.297090530395508,0.07195856969341484,-0.06792275446485821,-0.5586453368273786,-0.823482757144683
1737285485.9446318,297,1737285485,936713600,map,0.8132922053337097,-6.240095138549805,8.30985164642334,0.05877587830732734,-0.05025245717622228,-0.5632690687147683,-0.8226469734376659
1737285486.0476766,298,1737285486,37713856,map,0.8998017907142639,-6.013617038726807,8.324304580688477,0.045991924984818015,-0.03462745604509933,-0.5674575117548021,-0.8213876395935626
1737285486.143562,299,1737285486,136713088,map,0.9867551326751709,-5.7804975509643555,8.341105461120605,0.035070600593543014,-0.019891244230891378,-0.5713340136550789,-0.8197266838512293
1737285486.2431145,300,1737285486,236713344,map,1.0748661756515503,-5.54364013671875,8.358085632324219,0.026579446265052903,-0.005567805230648937,-0.5752902565717191,-0.8174984117873271
1737285486.3437495,301,1737285486,336712320,map,1.164482831954956,-5.304738521575928,8.376958847045898,0.01732893796770861,0.006732578903193998,-0.5786228064891774,-0.8153833626588242
1737285486.4430568,302,1737285486,436712576,map,1.2551058530807495,-5.06651496887207,8.396618843078613,0.007428130006984785,0.014832160019138165,-0.5808200030310295,-0.8138629823212266
1737285486.543541,303,1737285486,536711552,map,1.344489574432373,-4.8320794105529785,8.418420791625977,0.004245776361930354,0.024658284406072185,-0.5835537488323785,-0.8116889580479157
1737285486.642874,304,1737285486,636711552,map,1.4331940412521362,-4.602087020874023,8.44202709197998,0.001146834926968714,0.029587706150637348,-0.585660130479959,-0.8100157183540275
1737285486.743562,305,1737285486,736710784,map,1.5191359519958496,-4.379897117614746,8.465592384338379,-0.004631972287103926,0.025091458727575615,-0.588276809487262,-0.808256988185776
1737285486.8468595,306,1737285486,837711296,map,1.6076953411102295,-4.163186073303223,8.485076904296875,-0.023281336393256455,0.005741576270971153,-0.5869539783292439,-0.8092651240484432
1737285486.9424944,307,1737285486,936711808,map,1.7049108743667603,-3.9540205001831055,8.501123428344727,-0.052276482903910654,-0.016728207086479915,-0.5778540928418249,-0.8142923208583148
1737285487.0440445,308,1737285487,36712320,map,1.8126580715179443,-3.7564361095428467,8.513352394104004,-0.07934869396926046,-0.03176906295475776,-0.5589042641688072,-0.8248154550554163
1737285487.1430447,309,1737285487,136712832,map,1.9399293661117554,-3.5718955993652344,8.519851684570312,-0.0903389409071002,-0.027782959224062254,-0.5302801039773548,-0.8425378295710546
1737285487.2437694,310,1737285487,236713600,map,2.0797007083892822,-3.4038496017456055,8.523326873779297,-0.08056108926115678,-0.014995195819832432,-0.49526297138472325,-0.8648697267071819
1737285487.3428636,311,1737285487,336714112,map,2.224571943283081,-3.248605251312256,8.521575927734375,-0.058395472754137326,0.00045535588388645487,-0.4569571919829458,-0.8875696514121588
1737285487.4431682,312,1737285487,436714624,map,2.3726589679718018,-3.11008620262146,8.518349647521973,-0.04370785703501949,0.012825195093809357,-0.4157572812282627,-0.9083342010019744
1737285487.5433342,313,1737285487,536715392,map,2.519843339920044,-2.975273609161377,8.512823104858398,-0.034918227130791776,0.021441598073836825,-0.37498477303315336,-0.9261249350273195
1737285487.6433153,314,1737285487,636716160,map,2.6675403118133545,-2.851735830307007,8.50712776184082,-0.03211904584534976,0.028710908295067335,-0.3372704344263206,-0.9404215569098455
1737285487.743532,315,1737285487,736715904,map,2.809793710708618,-2.7387425899505615,8.50098991394043,-0.03467128955041228,0.03363389976320945,-0.3026476910568621,-0.9518776379165443
1737285487.8429463,316,1737285487,836716672,map,2.947072744369507,-2.638671875,8.494125366210938,-0.033817831700465394,0.04074558971126077,-0.2720323763072493,-0.9608301293250496
1737285487.9432344,317,1737285487,936716160,map,3.079535722732544,-2.549893856048584,8.489019393920898,-0.03301169950785453,0.047675274068872446,-0.24754145087922375,-0.9671403858978644
1737285488.0431576,318,1737285488,36716928,map,3.2064547538757324,-2.473576784133911,8.48660659790039,-0.026898517384108728,0.05051755870419111,-0.23203373998412485,-0.9710225484169175
1737285488.143962,319,1737285488,136717952,map,3.32348895072937,-2.409409284591675,8.482735633850098,-0.019957844032465134,0.05218679522113111,-0.21947092833323756,-0.9740178306800502
1737285488.2441666,320,1737285488,236718720,map,3.4320483207702637,-2.3573098182678223,8.477660179138184,-0.018371189091774584,0.0540526665562084,-0.21092200250344345,-0.9758343699160504
1737285488.3436828,321,1737285488,336718208,map,3.529285192489624,-2.3139126300811768,8.473341941833496,-0.012958121338222165,0.05363216760789985,-0.2049862659301937,-0.9772084263191031
1737285488.4437382,322,1737285488,436718976,map,3.618330240249634,-2.2788660526275635,8.468963623046875,-0.006897651850502644,0.052690692895240664,-0.19705809031440863,-0.9789505719508045
1737285488.5431557,323,1737285488,536718720,map,3.698591709136963,-2.2482082843780518,8.463808059692383,-0.003521820215594474,0.051072320144087704,-0.18827057143841447,-0.980782038389632
1737285488.6429892,324,1737285488,636719744,map,3.7709484100341797,-2.22308611869812,8.458468437194824,0.0016495058595030901,0.04990655064183723,-0.17760378417832662,-0.9828344271437541
1737285488.7438328,325,1737285488,736719488,map,3.8358328342437744,-2.200122594833374,8.453977584838867,-0.0002011634315919048,0.04610951397924868,-0.16435912046429002,-0.9853222578294252
1737285488.8432717,326,1737285488,836720512,map,3.8942904472351074,-2.181339979171753,8.447159767150879,0.0011714934904761103,0.04162081467875733,-0.14717456830465048,-0.9882337688182985
1737285488.9432242,327,1737285488,936720256,map,3.94571590423584,-2.1651012897491455,8.43810749053955,0.0009032302668414075,0.039396718615454566,-0.1252539567420381,-0.9913417821608668
1737285489.0429838,328,1737285489,36721280,map,3.9915616512298584,-2.1528332233428955,8.428659439086914,0.0019880575954846235,0.03647844283641736,-0.09869147456866018,-0.9944472654106354
1737285489.1429875,329,1737285489,136720768,map,4.030449390411377,-2.1431477069854736,8.416754722595215,0.005233201689094303,0.03238014710387934,-0.06747341622751157,-0.9971817676713717
1737285489.243077,330,1737285489,236721792,map,4.064105033874512,-2.137387752532959,8.403066635131836,0.00274357811510567,0.03080818774956207,-0.029419604998604684,-0.9990884921709589
1737285489.342551,331,1737285489,336721536,map,4.090193748474121,-2.1344902515411377,8.388781547546387,0.003510857155185829,0.02903609392059498,0.01645726831029271,-0.9994367100780488
1737285489.4437544,332,1737285489,436722560,map,4.110903263092041,-2.135549545288086,8.37635612487793,0.0026452837100901143,0.02434703612213979,0.06807234318425581,-0.997379757364047
1737285489.5428324,333,1737285489,536724096,map,4.126117706298828,-2.1399917602539062,8.368497848510742,-0.00245011086229723,0.02290245557908898,0.12577391622381,-0.991791508575737
1737285489.643117,334,1737285489,636723584,map,4.136882305145264,-2.148165464401245,8.362672805786133,0.0016293105579728681,0.02360041665073707,0.18101250849772416,-0.9831962354730509
1737285489.7423162,335,1737285489,736723328,map,4.142967700958252,-2.1600050926208496,8.356666564941406,-0.0011074165685378795,0.027919667152347342,0.22685712757154408,-0.9735271488174504
1737285489.8437061,336,1737285489,836723072,map,4.144590854644775,-2.175642490386963,8.34975814819336,-0.0018952103340420861,0.02456257313207082,0.25549056414530735,-0.9664976253522997
1737285489.942379,337,1737285489,936723072,map,4.140499114990234,-2.1933112144470215,8.341093063354492,-0.0009496720061368479,0.02231364607498487,0.268437685069901,-0.9630381137609423
1737285490.0436862,338,1737285490,36722816,map,4.131689548492432,-2.213202714920044,8.332690238952637,0.0038256431973652427,0.017927028049444398,0.2716264572655978,-0.9622281713984376
1737285490.1426795,339,1737285490,136724352,map,4.118082523345947,-2.2328362464904785,8.32391357421875,0.012593079392998405,0.015126957091184737,0.2610870692664194,-0.9651145692519799
1737285490.2425148,340,1737285490,236724096,map,4.101834774017334,-2.252753257751465,8.31589126586914,0.019127278446629,0.012947308857376272,0.2466269365403455,-0.9688352122963437
1737285490.3424106,341,1737285490,336724096,map,4.084260940551758,-2.2685306072235107,8.311320304870605,0.02908102662874694,0.0055470663419946754,0.22691925373709643,-0.9734634950672854
1737285490.4443765,342,1737285490,436723840,map,4.066160202026367,-2.2813684940338135,8.310093879699707,0.03247605571121373,0.001143885259251192,0.20429379873426456,-0.9783700941518396
1737285490.541589,343,1737285490,536723840,map,4.048847198486328,-2.2902915477752686,8.31214714050293,0.03631414267557097,-0.0036655886350674344,0.18553226195551997,-0.9819600940340525
1737285490.6436682,344,1737285490,636723584,map,4.032701015472412,-2.296532392501831,8.316215515136719,0.03381230338416351,-0.004208925724644054,0.1692167419125135,-0.9849896991038107
1737285490.743579,345,1737285490,736723584,map,4.0190606117248535,-2.2973990440368652,8.324195861816406,0.03182270443855523,-0.005015170142241132,0.15598310897277706,-0.9872342342452716
1737285490.8429043,346,1737285490,836723328,map,4.007087707519531,-2.2965524196624756,8.333108901977539,0.0244915044379659,-0.003429520358433393,0.14833693298293182,-0.9886276138737444
1737285490.9431071,347,1737285490,936723328,map,3.9965853691101074,-2.2947163581848145,8.341095924377441,0.01945067637813797,-0.003227143133120237,0.14451574854913501,-0.9893060472659176
1737285491.0434587,348,1737285491,36723072,map,3.9865384101867676,-2.293252468109131,8.347423553466797,0.016798003291829254,-0.0018399159411482265,0.1434978972585283,-0.9895063391798549
1737285491.1434817,349,1737285491,136723328,map,3.9755992889404297,-2.2939906120300293,8.354352951049805,0.015034250651321891,-0.0011205673458997208,0.14487617790447543,-0.9893349325238482
1737285491.2432835,350,1737285491,236723072,map,3.9645614624023438,-2.296642303466797,8.361418724060059,0.016775107379489545,-0.0023471319151029883,0.14726246521663483,-0.9889524018285708
1737285491.344771,351,1737285491,336723328,map,3.9563353061676025,-2.300154685974121,8.369098663330078,0.016664028355974515,-0.005393833430483674,0.15112573409739039,-0.988359362384654
1737285491.443283,352,1737285491,436723328,map,3.9502973556518555,-2.3042147159576416,8.37609577178955,0.019515840021921093,-0.00784597400117003,0.15571826122199828,-0.9875775391341224
1737285491.5428627,353,1737285491,536723328,map,3.9476075172424316,-2.307981491088867,8.380583763122559,0.02076674537668524,-0.007028439761069087,0.16170782274437828,-0.9865951162377897
1737285491.643489,354,1737285491,636723328,map,3.9471302032470703,-2.3119120597839355,8.382576942443848,0.018427881130889497,-0.005714111416758933,0.16537268511469722,-0.9860424114335538
1737285491.7431486,355,1737285491,736728192,map,3.9491045475006104,-2.317209243774414,8.383331298828125,0.017201437091100617,-0.0026440253504649196,0.16813275134358285,-0.985610723164873
1737285491.8434923,356,1737285491,836728192,map,3.952566385269165,-2.3227078914642334,8.383333206176758,0.021610477780447317,-0.003777032419188621,0.16899991299575334,-0.9853718844596862
1737285491.9428992,357,1737285491,936728192,map,3.9566807746887207,-2.329026460647583,8.383584022521973,0.023275309081863538,-0.0013955553742912696,0.17157480583924944,-0.984895120514649
1737285492.0477035,358,1737285492,36733312,map,3.9608676433563232,-2.3353824615478516,8.383641242980957,0.021274104050612915,0.00034090177073640624,0.1721196733418629,-0.9848462389284516
1737285492.1443498,359,1737285492,136739456,map,3.9667296409606934,-2.3416531085968018,8.38575267791748,0.018757619851235575,0.001750976977872045,0.1709575146888388,-0.9850982762895055
1737285492.2431824,360,1737285492,236739456,map,3.972503662109375,-2.3471879959106445,8.387969017028809,0.020391882445532587,0.0005696348075781253,0.17001318319835573,-0.9852306147218913
1737285492.3435326,361,1737285492,336739712,map,3.9792988300323486,-2.352231025695801,8.38946533203125,0.020188446475942107,0.002704558529140694,0.17019414434874724,-0.9852000128001666
1737285492.4436395,362,1737285492,436739968,map,3.9862000942230225,-2.356280565261841,8.389993667602539,0.018886607539157867,0.004708943794877118,0.17013769709020976,-0.9852280375287941
1737285492.5438871,363,1737285492,536740224,map,3.994044780731201,-2.3596558570861816,8.389842987060547,0.018894926376337134,0.006625024745772252,0.17054184253803195,-0.9851469792615131
1737285492.643645,364,1737285492,636745344,map,4.000807762145996,-2.3621926307678223,8.38957405090332,0.0186386808278892,0.0051799150279270845,0.16821086255850215,-0.9855611973767151
1737285492.7442126,365,1737285492,736745856,map,4.007452011108398,-2.3648369312286377,8.388718605041504,0.019975422792969728,0.0040476620445665905,0.16894246404799318,-0.9854151626383711
1737285492.8434079,366,1737285492,836745856,map,4.012988090515137,-2.3671586513519287,8.387489318847656,0.01714173002188405,0.0059054554670781535,0.1693950176740247,-0.9853814564293363
1737285492.9439545,367,1737285492,936751232,map,4.020397663116455,-2.367919921875,8.387981414794922,0.017114872065415444,0.008028899383703544,0.16925390551317637,-0.9853911575599851
1737285493.0437968,368,1737285493,36751744,map,4.0267815589904785,-2.3681156635284424,8.3884916305542,0.017370514661169296,0.007639691148696608,0.16821955887075063,-0.9855668827395168
1737285493.1429002,369,1737285493,136752256,map,4.033898830413818,-2.3687000274658203,8.387092590332031,0.01878300167048513,0.0037967718903333947,0.16744969876127913,-0.9856943652858203
1737285493.244155,370,1737285493,236752768,map,4.039167881011963,-2.369142532348633,8.38516616821289,0.01885688847103781,0.006426626134154055,0.1688056909784434,-0.9854479970688523
1737285493.343868,371,1737285493,336756608,map,4.048093318939209,-2.3709375858306885,8.386190414428711,0.014588215367474984,0.008347102262253351,0.16981264072196728,-0.9853330284260482
1737285493.4443603,372,1737285493,436757120,map,4.055837631225586,-2.372556447982788,8.387743949890137,0.013447820568669026,0.008540864175857647,0.17018682608476443,-0.9852830324268638
1737285493.543488,373,1737285493,536756096,map,4.064446449279785,-2.3757033348083496,8.38722038269043,0.017913816310116123,0.007505366945578153,0.16922403951123088,-0.985386213169091
1737285493.6443262,374,1737285493,636756608,map,4.071804046630859,-2.3790230751037598,8.385577201843262,0.02098696310257894,0.00903619606464315,0.16967125108579434,-0.985235789593229
1737285493.743694,375,1737285493,736760192,map,4.078865051269531,-2.381136894226074,8.383810997009277,0.018188356487988496,0.010758390703972378,0.16889503312557036,-0.9854074834824621
1737285493.8471155,376,1737285493,836760960,map,4.08333683013916,-2.381908893585205,8.382387161254883,0.018670205352660653,0.010163147773197604,0.16781215227739466,-0.9855897804905742
1737285493.9455483,377,1737285493,936760192,map,4.087540149688721,-2.3829145431518555,8.382678031921387,0.019697932404996264,0.009546156192117562,0.1678863092693647,-0.9855633158355859
1737285494.0430825,378,1737285494,36760704,map,4.090236186981201,-2.383265733718872,8.383797645568848,0.018590747155510772,0.008106724622757138,0.16910661749874573,-0.9853890688729113
1737285494.1477647,379,1737285494,136759936,map,4.093620300292969,-2.384719133377075,8.385454177856445,0.01656993784017313,0.009170596316665485,0.1686616136312597,-0.985492058522274
1737285494.2425368,380,1737285494,236764032,map,4.095938682556152,-2.386082887649536,8.387457847595215,0.016753351437844555,0.007139588353613418,0.16640252483587947,-0.9858897256904473
1737285494.3417082,381,1737285494,336763520,map,4.098246097564697,-2.3886778354644775,8.388057708740234,0.0193800249591402,0.007986909186621876,0.16743142212493983,-0.9856608660180478
1737285494.442348,382,1737285494,436767616,map,4.0991902351379395,-2.3909473419189453,8.387519836425781,0.01683642662749987,0.01032551979575384,0.16752305252213034,-0.9856703025114595
1737285494.5428147,383,1737285494,536766848,map,4.100821495056152,-2.3926053047180176,8.388605117797852,0.0187866336888783,0.010596159061503435,0.16733306182108076,-0.9856644612794789
1737285494.6430085,384,1737285494,636770944,map,4.101093292236328,-2.3932883739471436,8.389866828918457,0.020400958676026797,0.009074807466711781,0.1673832213440351,-0.9856390343158268
1737285494.7428946,385,1737285494,736775040,map,4.102596759796143,-2.3932344913482666,8.392127990722656,0.019225992730349716,0.009676408179062044,0.17033289619764075,-0.9851514770842139
