Time,header.seq,header.stamp.secs,header.stamp.nsecs,header.frame_id,coordinate_frame,type_mask,latitude,longitude,altitude,velocity.x,velocity.y,velocity.z,acceleration_or_force.x,acceleration_or_force.y,acceleration_or_force.z,yaw,yaw_rate
1737285472.7412536,621,1737285462,736673152,,0,65016,33.6371013,72.9912437,568.3999633789062,0.0,0.0,-0.0,0.0,0.0,-0.0,1.5707963705062866,-0.0
1737285472.742857,622,1737285462,836673408,,0,65016,33.6371013,72.9912437,568.3999633789062,0.0,0.0,-0.0,0.0,0.0,-0.0,1.5707963705062866,-0.0
1737285472.7430003,623,1737285462,936672384,,0,65016,33.6371013,72.9912437,568.3999633789062,0.0,0.0,-0.0,0.0,0.0,-0.0,1.5707963705062866,-0.0
1737285472.7430837,624,1737285463,36672640,,0,65016,33.6371013,72.9912437,568.3999633789062,0.0,0.0,-0.0,0.0,0.0,-0.0,1.5707963705062866,-0.0
1737285472.7431598,625,1737285463,136673152,,0,65016,33.6371013,72.9912437,568.3999633789062,0.0,0.0,-0.0,0.0,0.0,-0.0,1.5707963705062866,-0.0
1737285472.7432256,626,1737285463,236673408,,0,65016,33.6371013,72.9912437,568.3999633789062,0.0,0.0,-0.0,0.0,0.0,-0.0,1.5707963705062866,-0.0
1737285472.7433,627,1737285463,336672384,,0,65016,33.6371013,72.9912437,568.3999633789062,0.0,0.0,-0.0,0.0,0.0,-0.0,1.5707963705062866,-0.0
1737285472.7433605,628,1737285463,436672384,,0,65016,33.6371013,72.9912437,568.3999633789062,0.0,0.0,-0.0,0.0,0.0,-0.0,1.5707963705062866,-0.0
1737285472.7434862,629,1737285463,536672384,,0,65016,33.6371013,72.9912437,568.3999633789062,0.0,0.0,-0.0,0.0,0.0,-0.0,1.5707963705062866,-0.0
1737285472.7435975,630,1737285463,639672640,,0,65016,33.6371013,72.9912437,568.3999633789062,0.0,0.0,-0.0,0.0,0.0,-0.0,1.5707963705062866,-0.0
1737285472.7437103,631,1737285463,736672128,,0,65016,33.6371013,72.9912437,568.3999633789062,0.0,0.0,-0.0,0.0,0.0,-0.0,1.5707963705062866,-0.0
1737285472.7438452,632,1737285463,836672128,,0,65016,33.6371013,72.9912437,568.3999633789062,0.0,0.0,-0.0,0.0,0.0,-0.0,1.5707963705062866,-0.0
1737285472.7440178,633,1737285463,936671360,,0,65016,33.6371013,72.9912437,568.3999633789062,0.0,0.0,-0.0,0.0,0.0,-0.0,1.5707963705062866,-0.0
1737285472.744127,634,1737285464,36671616,,0,65016,33.6371013,72.9912437,568.3999633789062,0.0,0.0,-0.0,0.0,0.0,-0.0,1.5707963705062866,-0.0
1737285472.744168,635,1737285464,136671104,,0,65016,33.6371013,72.9912437,568.3999633789062,0.0,0.0,-0.0,0.0,0.0,-0.0,1.5707963705062866,-0.0
1737285472.744543,636,1737285464,236671360,,0,65016,33.6371013,72.9912437,568.3999633789062,0.0,0.0,-0.0,0.0,0.0,-0.0,1.5707963705062866,-0.0
1737285472.7449007,637,1737285464,336670592,,0,65016,33.6371013,72.9912437,568.3999633789062,0.0,0.0,-0.0,0.0,0.0,-0.0,1.5707963705062866,-0.0
1737285472.7450721,638,1737285464,436670848,,0,65016,33.6371013,72.9912437,568.3999633789062,0.0,0.0,-0.0,0.0,0.0,-0.0,1.5707963705062866,-0.0
1737285472.7451215,639,1737285464,536670080,,0,65016,33.6371013,72.9912437,568.3999633789062,0.0,0.0,-0.0,0.0,0.0,-0.0,1.5707963705062866,-0.0
1737285472.7452087,640,1737285464,636670592,,0,65016,33.6371013,72.9912437,568.3999633789062,0.0,0.0,-0.0,0.0,0.0,-0.0,1.5707963705062866,-0.0
1737285472.7453074,641,1737285464,736671104,,0,65016,33.6371013,72.9912437,568.3999633789062,0.0,0.0,-0.0,0.0,0.0,-0.0,1.5707963705062866,-0.0
1737285472.7454214,642,1737285464,836671616,,0,65016,33.6371013,72.9912437,568.3999633789062,0.0,0.0,-0.0,0.0,0.0,-0.0,1.5707963705062866,-0.0
1737285472.7455854,643,1737285464,936670848,,0,65016,33.6371012,72.991244,568.3999633789062,0.0,0.0,-0.0,0.0,0.0,-0.0,1.5707963705062866,-0.0
1737285472.7456822,644,1737285465,36671360,,0,65016,33.6371012,72.991244,568.3999633789062,0.0,0.0,-0.0,0.0,0.0,-0.0,1.5707963705062866,-0.0
1737285472.7457743,645,1737285465,136670848,,0,65016,33.6371012,72.991244,568.3999633789062,0.0,0.0,-0.0,0.0,0.0,-0.0,1.5707963705062866,-0.0
1737285472.7458153,646,1737285465,236671360,,0,65016,33.6371012,72.991244,568.3999633789062,0.0,0.0,-0.0,0.0,0.0,-0.0,1.5707963705062866,-0.0
1737285472.745936,647,1737285465,336670848,,0,65016,33.6371012,72.991244,568.3999633789062,0.0,0.0,-0.0,0.0,0.0,-0.0,1.5707963705062866,-0.0
1737285472.7463992,648,1737285465,436671616,,0,65016,33.6371012,72.991244,568.3999633789062,0.0,0.0,-0.0,0.0,0.0,-0.0,1.5707963705062866,-0.0
1737285472.7465162,649,1737285465,536671360,,0,65016,33.6371012,72.991244,568.3999633789062,0.0,0.0,-0.0,0.0,0.0,-0.0,1.5707963705062866,-0.0
1737285472.749102,650,1737285465,636671872,,0,65016,33.6371012,72.991244,568.3999633789062,0.0,0.0,-0.0,0.0,0.0,-0.0,1.5707963705062866,-0.0
1737285472.7491992,651,1737285465,736671360,,0,65016,33.6371012,72.991244,568.3999633789062,0.0,0.0,-0.0,0.0,0.0,-0.0,1.5707963705062866,-0.0
1737285472.7492952,652,1737285465,836672128,,0,65016,33.6371012,72.991244,568.3999633789062,0.0,0.0,-0.0,0.0,0.0,-0.0,1.5707963705062866,-0.0
1737285472.7493246,653,1737285465,936671872,,0,65016,33.6371012,72.991244,568.3999633789062,0.0,0.0,-0.0,0.0,0.0,-0.0,1.5707963705062866,-0.0
1737285472.7567308,654,1737285466,36672640,,0,65016,33.6371012,72.991244,568.3999633789062,0.0,0.0,-0.0,0.0,0.0,-0.0,1.5707963705062866,-0.0
1737285472.7590775,655,1737285466,136673408,,0,65016,33.6371012,72.991244,568.3999633789062,0.0,0.0,-0.0,0.0,0.0,-0.0,1.5707963705062866,-0.0
1737285472.759135,656,1737285466,236674176,,0,65016,33.6371012,72.991244,568.3999633789062,0.0,0.0,-0.0,0.0,0.0,-0.0,1.5707963705062866,-0.0
1737285472.7593613,657,1737285466,336673664,,0,65016,33.6371012,72.991244,568.3999633789062,0.0,0.0,-0.0,0.0,0.0,-0.0,1.5707963705062866,-0.0
1737285472.7597857,658,1737285466,436674688,,0,65016,33.6371012,72.991244,568.3999633789062,0.0,0.0,-0.0,0.0,0.0,-0.0,1.5707963705062866,-0.0
1737285472.7598355,659,1737285466,536674432,,0,65016,33.6371012,72.991244,568.3999633789062,0.0,0.0,-0.0,0.0,0.0,-0.0,1.5707963705062866,-0.0
1737285472.7599442,660,1737285466,636675456,,0,65016,33.6371012,72.991244,568.3999633789062,0.0,0.0,-0.0,0.0,0.0,-0.0,1.5707963705062866,-0.0
1737285472.7599988,661,1737285466,736675200,,0,65016,33.6371012,72.991244,568.3999633789062,0.0,0.0,-0.0,0.0,0.0,-0.0,1.5707963705062866,-0.0
1737285472.760061,662,1737285466,839675968,,0,65016,33.6371012,72.991244,568.3999633789062,0.0,0.0,-0.0,0.0,0.0,-0.0,1.5707963705062866,-0.0
1737285472.7601824,663,1737285466,936675968,,0,65016,33.6371012,72.991244,568.3999633789062,0.0,0.0,-0.0,0.0,0.0,-0.0,1.5707963705062866,-0.0
1737285472.7602196,664,1737285467,36676992,,0,65016,33.6371012,72.991244,568.3999633789062,0.0,0.0,-0.0,0.0,0.0,-0.0,1.5707963705062866,-0.0
1737285472.7603838,665,1737285467,136677760,,0,65016,33.6371012,72.991244,568.3999633789062,0.0,0.0,-0.0,0.0,0.0,-0.0,1.5707963705062866,-0.0
1737285472.7604735,666,1737285467,236678784,,0,65016,33.6371012,72.991244,568.3999633789062,0.0,0.0,-0.0,0.0,0.0,-0.0,1.5707963705062866,-0.0
1737285472.7605019,667,1737285467,336679808,,0,65016,33.6371012,72.991244,568.3999633789062,0.0,0.0,-0.0,0.0,0.0,-0.0,1.5707963705062866,-0.0
1737285472.760575,668,1737285467,436680832,,0,65016,33.6371012,72.991244,568.3999633789062,0.0,0.0,-0.0,0.0,0.0,-0.0,1.5707963705062866,-0.0
1737285472.7606735,669,1737285467,536680832,,0,65016,33.6371012,72.991244,568.3999633789062,0.0,0.0,-0.0,0.0,0.0,-0.0,1.5707963705062866,-0.0
1737285472.7607746,670,1737285467,636681856,,0,65016,33.6371012,72.991244,568.3999633789062,0.0,0.0,-0.0,0.0,0.0,-0.0,1.5707963705062866,-0.0
1737285472.765236,671,1737285467,736681600,,0,65016,33.6371012,72.991244,568.3999633789062,0.0,0.0,-0.0,0.0,0.0,-0.0,1.5707963705062866,-0.0
1737285472.765288,672,1737285467,836682880,,0,65016,33.6371012,72.991244,568.3999633789062,0.0,0.0,-0.0,0.0,0.0,-0.0,1.5707963705062866,-0.0
1737285472.7653334,673,1737285467,939682624,,0,65016,33.6371012,72.991244,568.3999633789062,0.0,0.0,-0.0,0.0,0.0,-0.0,1.5707963705062866,-0.0
1737285472.7654104,674,1737285468,36682112,,0,65016,33.6371012,72.991244,568.3999633789062,0.0,0.0,-0.0,0.0,0.0,-0.0,1.5707963705062866,-0.0
1737285472.7655923,675,1737285468,136682368,,0,65016,33.6371012,72.991244,568.3999633789062,0.0,0.0,-0.0,0.0,0.0,-0.0,1.5707963705062866,-0.0
1737285472.7656534,676,1737285468,239682112,,0,65016,33.6371012,72.991244,568.3999633789062,0.0,0.0,-0.0,0.0,0.0,-0.0,1.5707963705062866,-0.0
1737285472.7658877,677,1737285468,336681856,,0,65016,33.6371012,72.991244,568.3999633789062,0.0,0.0,-0.0,0.0,0.0,-0.0,1.5707963705062866,-0.0
1737285472.765997,678,1737285468,436681344,,0,65016,33.6371012,72.991244,568.3999633789062,0.0,0.0,-0.0,0.0,0.0,-0.0,1.5707963705062866,-0.0
1737285472.768105,679,1737285468,536681088,,0,65016,33.6371012,72.991244,568.3999633789062,0.0,0.0,-0.0,0.0,0.0,-0.0,1.5707963705062866,-0.0
1737285472.768171,680,1737285468,636680832,,0,65016,33.6371012,72.991244,568.3999633789062,0.0,0.0,-0.0,0.0,0.0,-0.0,1.5707963705062866,-0.0
1737285472.7682414,681,1737285468,736680576,,0,65016,33.6371012,72.991244,568.3999633789062,0.0,0.0,-0.0,0.0,0.0,-0.0,1.5707963705062866,-0.0
1737285472.7713904,682,1737285468,839680576,,0,65016,33.6371012,72.991244,568.3999633789062,0.0,0.0,-0.0,0.0,0.0,-0.0,1.5707963705062866,-0.0
1737285472.7714713,683,1737285468,939680320,,0,65016,33.6371012,72.991244,568.3999633789062,0.0,0.0,-0.0,0.0,0.0,-0.0,1.5707963705062866,-0.0
1737285472.7715552,684,1737285469,36680064,,0,65016,33.6371012,72.991244,568.3999633789062,0.0,0.0,-0.0,0.0,0.0,-0.0,1.5707963705062866,-0.0
1737285472.771895,685,1737285469,139680064,,0,65016,33.6371012,72.991244,568.3999633789062,0.0,0.0,-0.0,0.0,0.0,-0.0,1.5707963705062866,-0.0
1737285472.7745752,686,1737285469,236679808,,0,65016,33.6371012,72.991244,568.3999633789062,0.0,0.0,-0.0,0.0,0.0,-0.0,1.5707963705062866,-0.0
1737285472.7746325,687,1737285469,336680064,,0,65016,33.6371012,72.991244,568.3999633789062,0.0,0.0,-0.0,0.0,0.0,-0.0,1.5707963705062866,-0.0
1737285472.774659,688,1737285469,436679808,,0,65016,33.6371012,72.991244,568.3999633789062,0.0,0.0,-0.0,0.0,0.0,-0.0,1.5707963705062866,-0.0
1737285472.7747755,689,1737285469,536680064,,0,65016,33.6371012,72.991244,568.3999633789062,0.0,0.0,-0.0,0.0,0.0,-0.0,1.5707963705062866,-0.0
1737285472.7748914,690,1737285469,636680064,,0,65016,33.6371012,72.991244,568.3999633789062,0.0,0.0,-0.0,0.0,0.0,-0.0,1.5707963705062866,-0.0
1737285472.774993,691,1737285469,736680064,,0,65016,33.6371012,72.991244,568.3999633789062,0.0,0.0,-0.0,0.0,0.0,-0.0,1.5707963705062866,-0.0
1737285472.7750645,692,1737285469,836680064,,0,65016,33.6371015,72.9912437,568.3999633789062,0.0,0.0,-0.0,0.0,0.0,-0.0,1.5707963705062866,-0.0
1737285472.7750955,693,1737285469,936680320,,0,65016,33.6371015,72.9912437,568.3999633789062,0.0,0.0,-0.0,0.0,0.0,-0.0,1.5707963705062866,-0.0
1737285472.7752016,694,1737285470,36680320,,0,65016,33.6371012,72.9912423,568.4599609375,0.0,0.0,-0.0,0.0,0.0,-0.0,1.5707963705062866,-0.0
1737285472.778218,695,1737285470,140680320,,0,65016,33.637099,72.9912417,568.489990234375,0.0,0.0,-0.0,0.0,0.0,-0.0,1.5707963705062866,-0.0
1737285472.778416,696,1737285470,237673664,,0,65016,33.6370972,72.9912376,569.3999633789062,0.0,0.0,-0.0,0.0,0.0,-0.0,1.5707963705062866,-0.0
1737285472.7804737,697,1737285470,336673664,,0,65016,33.6370972,72.9912376,569.3999633789062,0.0,0.0,-0.0,0.0,0.0,-0.0,1.5707963705062866,-0.0
1737285472.780509,698,1737285470,436667008,,0,65016,33.6370972,72.9912376,569.3999633789062,0.0,0.0,-0.0,0.0,0.0,-0.0,1.5707963705062866,-0.0
1737285472.7828932,699,1737285470,536665728,,0,65016,33.6371361,72.9912547,570.3999633789062,0.0,0.0,-0.0,0.0,0.0,-0.0,1.5707963705062866,-0.0
1737285472.7829573,700,1737285470,636665728,,0,65016,33.6371341,72.9912541,570.4199829101562,0.0,0.0,-0.0,0.0,0.0,-0.0,1.5707963705062866,-0.0
1737285472.78356,701,1737285470,736664960,,0,65016,33.6371332,72.9912535,570.4400024414062,0.0,0.0,-0.0,0.0,0.0,-0.0,1.5707963705062866,-0.0
1737285472.7870548,702,1737285470,836665216,,0,65016,33.6371332,72.9912535,570.4400024414062,0.0,0.0,-0.0,0.0,0.0,-0.0,1.5707963705062866,-0.0
1737285472.7870839,703,1737285470,936665728,,0,65016,33.6371308,72.9912526,570.4599609375,0.0,0.0,-0.0,0.0,0.0,-0.0,1.5707963705062866,-0.0
1737285472.7871192,704,1737285471,36665984,,0,65016,33.6371296,72.9912518,570.47998046875,0.0,0.0,-0.0,0.0,0.0,-0.0,1.5707963705062866,-0.0
1737285472.7871969,705,1737285471,136665984,,0,65016,33.6371282,72.9912512,570.47998046875,0.0,0.0,-0.0,0.0,0.0,-0.0,1.5707963705062866,-0.0
1737285472.7872643,706,1737285471,236666240,,0,65016,33.637127,72.9912509,570.5199584960938,0.0,0.0,-0.0,0.0,0.0,-0.0,1.5707963705062866,-0.0
1737285472.7874894,707,1737285471,336667264,,0,65016,33.637127,72.9912509,570.5199584960938,0.0,0.0,-0.0,0.0,0.0,-0.0,1.5707963705062866,-0.0
1737285472.7881505,708,1737285471,436667776,,0,65016,33.637127,72.9912509,570.5199584960938,0.0,0.0,-0.0,0.0,0.0,-0.0,1.5707963705062866,-0.0
1737285472.7881956,709,1737285471,536667008,,0,65016,33.6371233,72.9912493,570.5599975585938,0.0,0.0,-0.0,0.0,0.0,-0.0,1.5707963705062866,-0.0
1737285472.788298,710,1737285471,636667520,,0,65016,33.6371233,72.9912493,570.5599975585938,0.0,0.0,-0.0,0.0,0.0,-0.0,1.5707963705062866,-0.0
1737285472.789079,711,1737285471,739670848,,0,65016,33.6371211,72.9912482,570.5800170898438,0.0,0.0,-0.0,0.0,0.0,-0.0,1.5707963705062866,-0.0
1737285472.7891502,712,1737285471,836671360,,0,65016,33.6371211,72.9912482,570.5800170898438,0.0,0.0,-0.0,0.0,0.0,-0.0,1.5707963705062866,-0.0
1737285472.7892208,713,1737285471,936671872,,0,65016,33.6371199,72.9912478,570.5899658203125,0.0,0.0,-0.0,0.0,0.0,-0.0,1.5707963705062866,-0.0
1737285472.7893062,714,1737285472,36672384,,0,65016,33.6371188,72.9912474,570.5999755859375,0.0,0.0,-0.0,0.0,0.0,-0.0,1.5707963705062866,-0.0
1737285472.7904034,715,1737285472,136671616,,0,65016,33.6371165,72.9912466,570.6099853515625,0.0,0.0,-0.0,0.0,0.0,-0.0,1.5707963705062866,-0.0
1737285472.7906833,716,1737285472,237672384,,0,65016,33.6371154,72.9912462,570.6300048828125,0.0,0.0,-0.0,0.0,0.0,-0.0,1.5707963705062866,-0.0
1737285472.7909722,717,1737285472,336672896,,0,65016,33.6371154,72.9912462,570.6300048828125,0.0,0.0,-0.0,0.0,0.0,-0.0,1.5707963705062866,-0.0
1737285472.7914655,718,1737285472,436672384,,0,65016,33.6371147,72.9912457,570.6400146484375,0.0,0.0,-0.0,0.0,0.0,-0.0,1.5707963705062866,-0.0
1737285472.7915335,719,1737285472,536672896,,0,65016,33.6371129,72.9912448,570.6499633789062,0.0,0.0,-0.0,0.0,0.0,-0.0,1.5707963705062866,-0.0
1737285472.7920363,720,1737285472,636673408,,0,65016,33.6371129,72.9912448,570.6499633789062,0.0,0.0,-0.0,0.0,0.0,-0.0,1.5707963705062866,-0.0
1737285472.7925625,721,1737285472,736672896,,0,65016,33.6371117,72.9912443,570.6900024414062,0.0,0.0,-0.0,0.0,0.0,-0.0,1.5707963705062866,-0.0
1737285472.8412611,722,1737285472,836673664,,0,65016,33.6371117,72.9912443,570.6900024414062,0.0,0.0,-0.0,0.0,0.0,-0.0,1.5707963705062866,-0.0
1737285472.9409835,723,1737285472,936672640,,0,65016,33.6371112,72.9912444,570.719970703125,0.0,0.0,-0.0,0.0,0.0,-0.0,1.5707963705062866,-0.0
1737285473.0419793,724,1737285473,36673152,,0,65016,33.6371112,72.9912444,570.719970703125,0.0,0.0,-0.0,0.0,0.0,-0.0,1.5707963705062866,-0.0
1737285473.1407657,725,1737285473,136672640,,0,65016,33.6371112,72.9912444,570.719970703125,0.0,0.0,-0.0,0.0,0.0,-0.0,1.5707963705062866,-0.0
1737285473.2430947,726,1737285473,239673408,,0,65016,33.6371096,72.9912441,570.7799682617188,0.0,0.0,-0.0,0.0,0.0,-0.0,1.5707963705062866,-0.0
1737285473.3398888,727,1737285473,336672896,,0,65016,33.6371096,72.9912441,570.7799682617188,0.0,0.0,-0.0,0.0,0.0,-0.0,1.5707963705062866,-0.0
1737285473.4397376,728,1737285473,436673664,,0,65016,33.6371087,72.9912437,570.7999877929688,0.0,0.0,-0.0,0.0,0.0,-0.0,1.5707963705062866,-0.0
1737285473.5432012,729,1737285473,539673152,,0,65016,33.6371087,72.9912437,570.7999877929688,0.0,0.0,-0.0,0.0,0.0,-0.0,1.5707963705062866,-0.0
1737285473.6448283,730,1737285473,636674176,,0,65016,33.6371087,72.9912437,570.7999877929688,0.0,0.0,-0.0,0.0,0.0,-0.0,1.5707963705062866,-0.0
1737285473.7446437,731,1737285473,739673920,,0,65016,33.6371087,72.9912437,570.7999877929688,0.0,0.0,-0.0,0.0,0.0,-0.0,1.5707963705062866,-0.0
1737285473.8439388,732,1737285473,836674944,,0,65016,33.6371087,72.9912437,570.7999877929688,0.0,0.0,-0.0,0.0,0.0,-0.0,1.5707963705062866,-0.0
1737285473.9440937,733,1737285473,936675712,,0,65016,33.6371087,72.9912437,570.7999877929688,0.0,0.0,-0.0,0.0,0.0,-0.0,1.5707963705062866,-0.0
1737285474.045176,734,1737285474,36676736,,0,65016,33.6371087,72.9912437,570.7999877929688,0.0,0.0,-0.0,0.0,0.0,-0.0,1.5707963705062866,-0.0
1737285474.144058,735,1737285474,136676480,,0,65016,33.6371087,72.9912437,570.7999877929688,0.0,0.0,-0.0,0.0,0.0,-0.0,1.5707963705062866,-0.0
1737285474.2447207,736,1737285474,236677504,,0,65016,33.6371087,72.9912437,570.7999877929688,0.0,0.0,-0.0,0.0,0.0,-0.0,1.5707963705062866,-0.0
1737285474.3516402,737,1737285474,336679040,,0,65016,33.6371087,72.9912437,570.7999877929688,0.0,0.0,-0.0,0.0,0.0,-0.0,1.5707963705062866,-0.0
1737285474.4444911,738,1737285474,436679808,,0,65016,33.6371087,72.9912437,570.7999877929688,0.0,0.0,-0.0,0.0,0.0,-0.0,1.5707963705062866,-0.0
1737285474.5458786,739,1737285474,536671104,,0,65016,33.6371087,72.9912437,570.7999877929688,0.0,0.0,-0.0,0.0,0.0,-0.0,1.5707963705062866,-0.0
1737285474.6522167,740,1737285474,636670848,,0,65016,33.6371087,72.9912437,570.7999877929688,0.0,0.0,-0.0,0.0,0.0,-0.0,1.5707963705062866,-0.0
1737285474.7424426,741,1737285474,736670592,,0,65016,33.6371087,72.9912437,570.7999877929688,0.0,0.0,-0.0,0.0,0.0,-0.0,1.5707963705062866,-0.0
1737285474.845373,742,1737285474,836670080,,0,65016,33.6371087,72.9912437,570.7999877929688,0.0,0.0,-0.0,0.0,0.0,-0.0,1.5707963705062866,-0.0
1737285474.945503,743,1737285474,936669824,,0,65016,33.6371087,72.9912437,570.7999877929688,0.0,0.0,-0.0,0.0,0.0,-0.0,1.5707963705062866,-0.0
1737285475.0447943,744,1737285475,36669312,,0,65016,33.6371087,72.9912437,570.7999877929688,0.0,0.0,-0.0,0.0,0.0,-0.0,1.5707963705062866,-0.0
1737285475.147744,745,1737285475,137669056,,0,65016,33.6371087,72.9912437,570.7999877929688,0.0,0.0,-0.0,0.0,0.0,-0.0,1.5707963705062866,-0.0
1737285475.2445796,746,1737285475,236668800,,0,65016,33.6371087,72.9912437,570.7999877929688,0.0,0.0,-0.0,0.0,0.0,-0.0,1.5707963705062866,-0.0
1737285475.3431745,747,1737285475,336661888,,0,65016,33.6371087,72.9912437,570.7999877929688,0.0,0.0,-0.0,0.0,0.0,-0.0,1.5707963705062866,-0.0
1737285475.44321,748,1737285475,436661632,,0,65016,33.6371087,72.9912437,570.7999877929688,0.0,0.0,-0.0,0.0,0.0,-0.0,1.5707963705062866,-0.0
1737285475.5424764,749,1737285475,536661632,,0,65016,33.637096,72.9912382,570.9199829101562,0.0,0.0,-0.0,0.0,0.0,-0.0,1.5707963705062866,-0.0
1737285475.6426816,750,1737285475,636661376,,0,65016,33.6370931,72.9912367,570.9599609375,0.0,0.0,-0.0,0.0,0.0,-0.0,1.5707963705062866,-0.0
1737285475.7434256,751,1737285475,736665728,,0,65016,33.6370921,72.9912364,570.9599609375,0.0,0.0,-0.0,0.0,0.0,-0.0,1.5707963705062866,-0.0
1737285475.8446698,752,1737285475,836665472,,0,65016,33.6370911,72.9912359,570.9599609375,0.0,0.0,-0.0,0.0,0.0,-0.0,1.5707963705062866,-0.0
1737285475.9434507,753,1737285475,936665472,,0,65016,33.6370901,72.9912354,570.969970703125,0.0,0.0,-0.0,0.0,0.0,-0.0,1.5707963705062866,-0.0
1737285476.0433888,754,1737285476,36665216,,0,65016,33.6370869,72.9912345,570.97998046875,0.0,0.0,-0.0,0.0,0.0,-0.0,1.5707963705062866,-0.0
1737285476.1431289,755,1737285476,136665216,,0,65016,33.6370856,72.9912343,571.0199584960938,0.0,0.0,-0.0,0.0,0.0,-0.0,1.5707963705062866,-0.0
1737285476.2423284,756,1737285476,236664960,,0,65016,33.6370846,72.9912338,571.0299682617188,0.0,0.0,-0.0,0.0,0.0,-0.0,1.5707963705062866,-0.0
1737285476.3451953,757,1737285476,337665472,,0,65016,33.6370846,72.9912338,571.0299682617188,0.0,0.0,-0.0,0.0,0.0,-0.0,1.5707963705062866,-0.0
1737285476.4437068,758,1737285476,436665216,,0,65016,33.6370835,72.9912331,571.0299682617188,0.0,0.0,-0.0,0.0,0.0,-0.0,1.5707963705062866,-0.0
1737285476.5426726,759,1737285476,536665472,,0,65016,33.6370822,72.9912325,571.0299682617188,0.0,0.0,-0.0,0.0,0.0,-0.0,1.5707963705062866,-0.0
1737285476.64288,760,1737285476,636665472,,0,65016,33.6370798,72.9912313,571.0299682617188,0.0,0.0,-0.0,0.0,0.0,-0.0,1.5707963705062866,-0.0
1737285476.7549143,761,1737285476,736665984,,0,65016,33.6370784,72.9912309,571.0399780273438,0.0,0.0,-0.0,0.0,0.0,-0.0,1.5707963705062866,-0.0
1737285476.8427968,762,1737285476,836666240,,0,65016,33.6370784,72.9912309,571.0399780273438,0.0,0.0,-0.0,0.0,0.0,-0.0,1.5707963705062866,-0.0
1737285476.942482,763,1737285476,939666240,,0,65016,33.6370784,72.9912309,571.0399780273438,0.0,0.0,-0.0,0.0,0.0,-0.0,1.5707963705062866,-0.0
1737285477.0434053,764,1737285477,36666496,,0,65016,33.6370784,72.9912309,571.0399780273438,0.0,0.0,-0.0,0.0,0.0,-0.0,1.5707963705062866,-0.0
1737285477.1434264,765,1737285477,136666752,,0,65016,33.6370784,72.9912309,571.0399780273438,0.0,0.0,-0.0,0.0,0.0,-0.0,1.5707963705062866,-0.0
1737285477.2432253,766,1737285477,236667008,,0,65016,33.6370784,72.9912309,571.0399780273438,0.0,0.0,-0.0,0.0,0.0,-0.0,1.5707963705062866,-0.0
1737285477.3424904,767,1737285477,336667264,,0,65016,33.6370784,72.9912309,571.0399780273438,0.0,0.0,-0.0,0.0,0.0,-0.0,1.5707963705062866,-0.0
1737285477.4429712,768,1737285477,436667776,,0,65016,33.6370784,72.9912309,571.0399780273438,0.0,0.0,-0.0,0.0,0.0,-0.0,1.5707963705062866,-0.0
1737285477.5438814,769,1737285477,536668032,,0,65016,33.6370784,72.9912309,571.0399780273438,0.0,0.0,-0.0,0.0,0.0,-0.0,1.5707963705062866,-0.0
1737285477.6429129,770,1737285477,636668288,,0,65016,33.6370784,72.9912309,571.0399780273438,0.0,0.0,-0.0,0.0,0.0,-0.0,1.5707963705062866,-0.0
1737285477.7433279,771,1737285477,736668800,,0,65016,33.6370732,72.9912285,571.0599975585938,0.0,0.0,-0.0,0.0,0.0,-0.0,1.5707963705062866,-0.0
1737285477.8433688,772,1737285477,836669056,,0,65016,33.6370732,72.9912285,571.0599975585938,0.0,0.0,-0.0,0.0,0.0,-0.0,1.5707963705062866,-0.0
1737285477.9448347,773,1737285477,939669568,,0,65016,33.6370732,72.9912285,571.0599975585938,0.0,0.0,-0.0,0.0,0.0,-0.0,1.5707963705062866,-0.0
1737285478.045141,774,1737285478,37670080,,0,65016,33.6370682,72.9912264,571.1300048828125,0.0,0.0,-0.0,0.0,0.0,-0.0,1.5707963705062866,-0.0
1737285478.1440952,775,1737285478,136670592,,0,65016,33.6370682,72.9912264,571.1300048828125,0.0,0.0,-0.0,0.0,0.0,-0.0,1.5707963705062866,-0.0
1737285478.246957,776,1737285478,236670848,,0,65016,33.6370682,72.9912264,571.1300048828125,0.0,0.0,-0.0,0.0,0.0,-0.0,1.5707963705062866,-0.0
1737285478.348503,777,1737285478,336670080,,0,65016,33.6370682,72.9912264,571.1300048828125,0.0,0.0,-0.0,0.0,0.0,-0.0,1.5707963705062866,-0.0
1737285478.4437387,778,1737285478,436671104,,0,65016,33.6370633,72.9912244,571.1900024414062,0.0,0.0,-0.0,0.0,0.0,-0.0,1.5707963705062866,-0.0
1737285478.5459988,779,1737285478,536670080,,0,65016,33.6370633,72.9912244,571.1900024414062,0.0,0.0,-0.0,0.0,0.0,-0.0,1.5707963705062866,-0.0
1737285478.642181,780,1737285478,636670592,,0,65016,33.6370576,72.9912221,571.219970703125,0.0,0.0,-0.0,0.0,0.0,-0.0,1.5707963705062866,-0.0
1737285478.7480564,781,1737285478,736669824,,0,65016,33.6370558,72.9912215,571.22998046875,0.0,0.0,-0.0,0.0,0.0,-0.0,1.5707963705062866,-0.0
1737285478.8482342,782,1737285478,836670336,,0,65016,33.6370549,72.9912209,571.22998046875,0.0,0.0,-0.0,0.0,0.0,-0.0,1.5707963705062866,-0.0
1737285478.941975,783,1737285478,936669312,,0,65016,33.6370549,72.9912209,571.22998046875,0.0,0.0,-0.0,0.0,0.0,-0.0,1.5707963705062866,-0.0
1737285479.0442882,784,1737285479,36669824,,0,65016,33.6370549,72.9912209,571.22998046875,0.0,0.0,-0.0,0.0,0.0,-0.0,1.5707963705062866,-0.0
1737285479.1433346,785,1737285479,136670336,,0,65016,33.6370549,72.9912209,571.22998046875,0.0,0.0,-0.0,0.0,0.0,-0.0,1.5707963705062866,-0.0
1737285479.2433317,786,1737285479,236671104,,0,65016,33.6370549,72.9912209,571.22998046875,0.0,0.0,-0.0,0.0,0.0,-0.0,1.5707963705062866,-0.0
1737285479.3445818,787,1737285479,336675968,,0,65016,33.637054,72.9912202,571.239990234375,0.0,0.0,-0.0,0.0,0.0,-0.0,1.5707963705062866,-0.0
1737285479.4465892,788,1737285479,437676736,,0,65016,33.637054,72.9912202,571.239990234375,0.0,0.0,-0.0,0.0,0.0,-0.0,1.5707963705062866,-0.0
1737285479.5426455,789,1737285479,536676224,,0,65016,33.637054,72.9912202,571.239990234375,0.0,0.0,-0.0,0.0,0.0,-0.0,1.5707963705062866,-0.0
1737285479.6506999,790,1737285479,636676992,,0,65016,33.637054,72.9912202,571.239990234375,0.0,0.0,-0.0,0.0,0.0,-0.0,1.5707963705062866,-0.0
1737285479.7442212,791,1737285479,739676224,,0,65016,33.637054,72.9912202,571.239990234375,0.0,0.0,-0.0,0.0,0.0,-0.0,1.5707963705062866,-0.0
1737285479.845935,792,1737285479,836676736,,0,65016,33.637054,72.9912202,571.239990234375,0.0,0.0,-0.0,0.0,0.0,-0.0,1.5707963705062866,-0.0
1737285479.9452527,793,1737285479,936678016,,0,65016,33.6370536,72.99122,571.25,0.0,0.0,-0.0,0.0,0.0,-0.0,1.5707963705062866,-0.0
1737285480.0457115,794,1737285480,36678016,,0,65016,33.6370536,72.99122,571.25,0.0,0.0,-0.0,0.0,0.0,-0.0,1.5707963705062866,-0.0
1737285480.1485722,795,1737285480,137677504,,0,65016,33.6370536,72.99122,571.25,0.0,0.0,-0.0,0.0,0.0,-0.0,1.5707963705062866,-0.0
1737285480.2444863,796,1737285480,236679552,,0,65016,33.6370535,72.9912202,571.25,0.0,0.0,-0.0,0.0,0.0,-0.0,1.5707963705062866,-0.0
1737285480.355929,797,1737285480,336680576,,0,65016,33.6370566,72.9912216,571.3900146484375,0.0,0.0,-0.0,0.0,0.0,-0.0,1.5707963705062866,-0.0
1737285480.4460716,798,1737285480,437680576,,0,65016,33.6370566,72.9912216,571.3900146484375,0.0,0.0,-0.0,0.0,0.0,-0.0,1.5707963705062866,-0.0
1737285480.5439298,799,1737285480,540680064,,0,65016,33.6370566,72.9912216,571.3900146484375,0.0,0.0,-0.0,0.0,0.0,-0.0,1.5707963705062866,-0.0
1737285480.642841,800,1737285480,636681344,,0,65016,33.6370603,72.9912231,571.4199829101562,0.0,0.0,-0.0,0.0,0.0,-0.0,1.5707963705062866,-0.0
1737285480.7439454,801,1737285480,736681088,,0,65016,33.6370603,72.9912231,571.4199829101562,0.0,0.0,-0.0,0.0,0.0,-0.0,1.5707963705062866,-0.0
1737285480.8436956,802,1737285480,836682112,,0,65016,33.6370639,72.9912245,571.4400024414062,0.0,0.0,-0.0,0.0,0.0,-0.0,1.5707963705062866,-0.0
1737285480.946065,803,1737285480,936682112,,0,65016,33.6370652,72.9912251,571.4500122070312,0.0,0.0,-0.0,0.0,0.0,-0.0,1.5707963705062866,-0.0
1737285481.0429182,804,1737285481,36682880,,0,65016,33.6370652,72.9912251,571.4500122070312,0.0,0.0,-0.0,0.0,0.0,-0.0,1.5707963705062866,-0.0
1737285481.1436062,805,1737285481,136682624,,0,65016,33.6370652,72.9912251,571.4500122070312,0.0,0.0,-0.0,0.0,0.0,-0.0,1.5707963705062866,-0.0
1737285481.244539,806,1737285481,236683392,,0,65016,33.6370681,72.991226,571.47998046875,0.0,0.0,-0.0,0.0,0.0,-0.0,1.5707963705062866,-0.0
1737285481.3454378,807,1737285481,336683136,,0,65016,33.6370711,72.991227,571.5,0.0,0.0,-0.0,0.0,0.0,-0.0,1.5707963705062866,-0.0
1737285481.4499857,808,1737285481,436684160,,0,65016,33.6370727,72.9912278,571.510009765625,0.0,0.0,-0.0,0.0,0.0,-0.0,1.5707963705062866,-0.0
1737285481.5458307,809,1737285481,536683904,,0,65016,33.6370727,72.9912278,571.510009765625,0.0,0.0,-0.0,0.0,0.0,-0.0,1.5707963705062866,-0.0
1737285481.6440134,810,1737285481,636684928,,0,65016,33.6370744,72.9912286,571.5199584960938,0.0,0.0,-0.0,0.0,0.0,-0.0,1.5707963705062866,-0.0
1737285481.7471666,811,1737285481,736686208,,0,65016,33.637076,72.9912296,571.5199584960938,0.0,0.0,-0.0,0.0,0.0,-0.0,1.5707963705062866,-0.0
1737285481.843859,812,1737285481,836687232,,0,65016,33.6370779,72.9912305,571.5399780273438,0.0,0.0,-0.0,0.0,0.0,-0.0,1.5707963705062866,-0.0
1737285481.947801,813,1737285481,936687232,,0,65016,33.6370779,72.9912305,571.5399780273438,0.0,0.0,-0.0,0.0,0.0,-0.0,1.5707963705062866,-0.0
1737285482.0436523,814,1737285482,36688512,,0,65016,33.6370779,72.9912305,571.5399780273438,0.0,0.0,-0.0,0.0,0.0,-0.0,1.5707963705062866,-0.0
1737285482.1459167,815,1737285482,136688512,,0,65016,33.6370779,72.9912305,571.5399780273438,0.0,0.0,-0.0,0.0,0.0,-0.0,1.5707963705062866,-0.0
1737285482.2450466,816,1737285482,239688512,,0,65016,33.6370837,72.9912325,571.5800170898438,0.0,0.0,-0.0,0.0,0.0,-0.0,1.5707963705062866,-0.0
1737285482.3499377,817,1737285482,337688512,,0,65016,33.6370877,72.9912342,571.6199951171875,0.0,0.0,-0.0,0.0,0.0,-0.0,1.5707963705062866,-0.0
1737285482.4475608,818,1737285482,436688256,,0,65016,33.6370877,72.9912342,571.6199951171875,0.0,0.0,-0.0,0.0,0.0,-0.0,1.5707963705062866,-0.0
1737285482.5425138,819,1737285482,536688256,,0,65016,33.6370877,72.9912342,571.6199951171875,0.0,0.0,-0.0,0.0,0.0,-0.0,1.5707963705062866,-0.0
1737285482.642953,820,1737285482,636688000,,0,65016,33.6370877,72.9912342,571.6199951171875,0.0,0.0,-0.0,0.0,0.0,-0.0,1.5707963705062866,-0.0
1737285482.7448168,821,1737285482,736687744,,0,65016,33.6370877,72.9912342,571.6199951171875,0.0,0.0,-0.0,0.0,0.0,-0.0,1.5707963705062866,-0.0
1737285482.8531609,822,1737285482,836687488,,0,65016,33.6370877,72.9912342,571.6199951171875,0.0,0.0,-0.0,0.0,0.0,-0.0,1.5707963705062866,-0.0
1737285482.9418008,823,1737285482,936688768,,0,65016,33.6370877,72.9912342,571.6199951171875,0.0,0.0,-0.0,0.0,0.0,-0.0,1.5707963705062866,-0.0
1737285483.042644,824,1737285483,36688768,,0,65016,33.6370877,72.9912342,571.6199951171875,0.0,0.0,-0.0,0.0,0.0,-0.0,1.5707963705062866,-0.0
1737285483.1431642,825,1737285483,136688768,,0,65016,33.6370877,72.9912342,571.6199951171875,0.0,0.0,-0.0,0.0,0.0,-0.0,1.5707963705062866,-0.0
1737285483.24269,826,1737285483,236688768,,0,65016,33.6370877,72.9912342,571.6199951171875,0.0,0.0,-0.0,0.0,0.0,-0.0,1.5707963705062866,-0.0
1737285483.3423512,827,1737285483,336689024,,0,65016,33.6370877,72.9912342,571.6199951171875,0.0,0.0,-0.0,0.0,0.0,-0.0,1.5707963705062866,-0.0
1737285483.443496,828,1737285483,436689024,,0,65016,33.6370877,72.9912342,571.6199951171875,0.0,0.0,-0.0,0.0,0.0,-0.0,1.5707963705062866,-0.0
1737285483.5428908,829,1737285483,536689280,,0,65016,33.6370877,72.9912342,571.6199951171875,0.0,0.0,-0.0,0.0,0.0,-0.0,1.5707963705062866,-0.0
1737285483.6436088,830,1737285483,636689280,,0,65016,33.6370877,72.9912342,571.6199951171875,0.0,0.0,-0.0,0.0,0.0,-0.0,1.5707963705062866,-0.0
1737285483.7442017,831,1737285483,736690304,,0,65016,33.6370877,72.9912342,571.6199951171875,0.0,0.0,-0.0,0.0,0.0,-0.0,1.5707963705062866,-0.0
1737285483.849765,832,1737285483,836690304,,0,65016,33.6370877,72.9912342,571.6199951171875,0.0,0.0,-0.0,0.0,0.0,-0.0,1.5707963705062866,-0.0
1737285483.9442906,833,1737285483,936690816,,0,65016,33.6370877,72.9912342,571.6199951171875,0.0,0.0,-0.0,0.0,0.0,-0.0,1.5707963705062866,-0.0
1737285484.0432558,834,1737285484,36691072,,0,65016,33.6370877,72.9912342,571.6199951171875,0.0,0.0,-0.0,0.0,0.0,-0.0,1.5707963705062866,-0.0
1737285484.1560395,835,1737285484,136691584,,0,65016,33.6370877,72.9912342,571.6199951171875,0.0,0.0,-0.0,0.0,0.0,-0.0,1.5707963705062866,-0.0
1737285484.2419834,836,1737285484,236691840,,0,65016,33.6370877,72.9912342,571.6199951171875,0.0,0.0,-0.0,0.0,0.0,-0.0,1.5707963705062866,-0.0
1737285484.3429728,837,1737285484,336692096,,0,65016,33.6370877,72.9912342,571.6199951171875,0.0,0.0,-0.0,0.0,0.0,-0.0,1.5707963705062866,-0.0
1737285484.4547443,838,1737285484,436692352,,0,65016,33.6370877,72.9912342,571.6199951171875,0.0,0.0,-0.0,0.0,0.0,-0.0,1.5707963705062866,-0.0
1737285484.5450506,839,1737285484,536692864,,0,65016,33.6370898,72.9912351,571.6400146484375,0.0,0.0,-0.0,0.0,0.0,-0.0,1.5707963705062866,-0.0
1737285484.6472108,840,1737285484,637693120,,0,65016,33.6370898,72.9912351,571.6400146484375,0.0,0.0,-0.0,0.0,0.0,-0.0,1.5707963705062866,-0.0
1737285484.7470531,841,1737285484,737698752,,0,65016,33.6371082,72.991243,571.7699584960938,0.0,0.0,-0.0,0.0,0.0,-0.0,1.5707963705062866,-0.0
1737285484.8499641,842,1737285484,837701824,,0,65016,33.6371082,72.991243,571.7699584960938,0.0,0.0,-0.0,0.0,0.0,-0.0,1.5707963705062866,-0.0
1737285484.9524953,843,1737285484,937701824,,0,65016,33.6371082,72.991243,571.7699584960938,0.0,0.0,-0.0,0.0,0.0,-0.0,1.5707963705062866,-0.0
1737285485.0538418,844,1737285485,37701824,,0,65016,33.6371352,72.9912557,571.8999633789062,0.0,0.0,-0.0,0.0,0.0,-0.0,1.5707963705062866,-0.0
1737285485.1427593,845,1737285485,137701824,,0,65016,33.6371353,72.9912555,571.8999633789062,0.0,0.0,-0.0,0.0,0.0,-0.0,1.5707963705062866,-0.0
1737285485.2614338,846,1737285485,237701824,,0,65016,33.6371353,72.9912555,571.8999633789062,0.0,0.0,-0.0,0.0,0.0,-0.0,1.5707963705062866,-0.0
1737285485.347838,847,1737285485,336701824,,0,65016,33.6371353,72.9912555,571.8999633789062,0.0,0.0,-0.0,0.0,0.0,-0.0,1.5707963705062866,-0.0
1737285485.4575205,848,1737285485,436706432,,0,65016,33.6371362,72.9912557,571.8800048828125,0.0,0.0,-0.0,0.0,0.0,-0.0,1.5707963705062866,-0.0
1737285485.550841,849,1737285485,537711552,,0,65016,33.6371362,72.9912557,571.8800048828125,0.0,0.0,-0.0,0.0,0.0,-0.0,1.5707963705062866,-0.0
1737285485.6556976,850,1737285485,637711552,,0,65016,33.6371364,72.9912558,571.8699951171875,0.0,0.0,-0.0,0.0,0.0,-0.0,1.5707963705062866,-0.0
1737285485.744126,851,1737285485,736714624,,0,65016,33.6371364,72.9912558,571.8699951171875,0.0,0.0,-0.0,0.0,0.0,-0.0,1.5707963705062866,-0.0
1737285485.8417857,852,1737285485,836714624,,0,65016,33.6371364,72.9912558,571.8699951171875,0.0,0.0,-0.0,0.0,0.0,-0.0,1.5707963705062866,-0.0
1737285485.9457388,853,1737285485,936713600,,0,65016,33.6371364,72.9912558,571.8699951171875,0.0,0.0,-0.0,0.0,0.0,-0.0,1.5707963705062866,-0.0
1737285486.0483506,854,1737285486,37713856,,0,65016,33.6371364,72.9912558,571.8699951171875,0.0,0.0,-0.0,0.0,0.0,-0.0,1.5707963705062866,-0.0
1737285486.1444802,855,1737285486,136713088,,0,65016,33.6371364,72.9912558,571.8699951171875,0.0,0.0,-0.0,0.0,0.0,-0.0,1.5707963705062866,-0.0
1737285486.2435563,856,1737285486,236713344,,0,65016,33.6371364,72.9912558,571.8699951171875,0.0,0.0,-0.0,0.0,0.0,-0.0,1.5707963705062866,-0.0
1737285486.344408,857,1737285486,336712320,,0,65016,33.6371364,72.9912558,571.8699951171875,0.0,0.0,-0.0,0.0,0.0,-0.0,1.5707963705062866,-0.0
1737285486.4437318,858,1737285486,436712576,,0,65016,33.6371364,72.9912558,571.8699951171875,0.0,0.0,-0.0,0.0,0.0,-0.0,1.5707963705062866,-0.0
1737285486.54415,859,1737285486,536711552,,0,65016,33.6371364,72.9912558,571.8699951171875,0.0,0.0,-0.0,0.0,0.0,-0.0,1.5707963705062866,-0.0
1737285486.6436253,860,1737285486,636711552,,0,65016,33.6371365,72.9912744,571.8200073242188,0.0,0.0,-0.0,0.0,0.0,-0.0,1.5707963705062866,-0.0
1737285486.7441132,861,1737285486,736710784,,0,65016,33.6371365,72.9912744,571.8200073242188,0.0,0.0,-0.0,0.0,0.0,-0.0,1.5707963705062866,-0.0
1737285486.8474412,862,1737285486,837711296,,0,65016,33.6371365,72.9912744,571.8200073242188,0.0,0.0,-0.0,0.0,0.0,-0.0,1.5707963705062866,-0.0
1737285486.9430623,863,1737285486,936711808,,0,65016,33.6371365,72.9912744,571.8200073242188,0.0,0.0,-0.0,0.0,0.0,-0.0,1.5707963705062866,-0.0
1737285487.0445657,864,1737285487,36712320,,0,65016,33.6371365,72.9912744,571.8200073242188,0.0,0.0,-0.0,0.0,0.0,-0.0,1.5707963705062866,-0.0
1737285487.143557,865,1737285487,136712832,,0,65016,33.6371365,72.9912744,571.8200073242188,0.0,0.0,-0.0,0.0,0.0,-0.0,1.5707963705062866,-0.0
1737285487.2444148,866,1737285487,239713600,,0,65016,33.6371365,72.9912744,571.8200073242188,0.0,0.0,-0.0,0.0,0.0,-0.0,1.5707963705062866,-0.0
1737285487.343412,867,1737285487,336714112,,0,65016,33.6371365,72.9912744,571.8200073242188,0.0,0.0,-0.0,0.0,0.0,-0.0,1.5707963705062866,-0.0
1737285487.4436839,868,1737285487,436714624,,0,65016,33.6371365,72.9912744,571.8200073242188,0.0,0.0,-0.0,0.0,0.0,-0.0,1.5707963705062866,-0.0
1737285487.5442343,869,1737285487,536715392,,0,65016,33.6371365,72.9912744,571.8200073242188,0.0,0.0,-0.0,0.0,0.0,-0.0,1.5707963705062866,-0.0
1737285487.6438282,870,1737285487,636716160,,0,65016,33.6371365,72.9912744,571.8200073242188,0.0,0.0,-0.0,0.0,0.0,-0.0,1.5707963705062866,-0.0
1737285487.7439575,871,1737285487,736715904,,0,65016,33.6371365,72.9912744,571.8200073242188,0.0,0.0,-0.0,0.0,0.0,-0.0,1.5707963705062866,-0.0
1737285487.8436856,872,1737285487,836716672,,0,65016,33.6371365,72.9912744,571.8200073242188,0.0,0.0,-0.0,0.0,0.0,-0.0,1.5707963705062866,-0.0
1737285487.9436774,873,1737285487,936716160,,0,65016,33.6371365,72.9912744,571.8200073242188,0.0,0.0,-0.0,0.0,0.0,-0.0,1.5707963705062866,-0.0
1737285488.0436206,874,1737285488,36716928,,0,65016,33.6371365,72.9912744,571.8200073242188,0.0,0.0,-0.0,0.0,0.0,-0.0,1.5707963705062866,-0.0
1737285488.1445029,875,1737285488,136717952,,0,65016,33.6371365,72.9912744,571.8200073242188,0.0,0.0,-0.0,0.0,0.0,-0.0,1.5707963705062866,-0.0
1737285488.2451394,876,1737285488,236718720,,0,65016,33.6371365,72.9912744,571.8200073242188,0.0,0.0,-0.0,0.0,0.0,-0.0,1.5707963705062866,-0.0
1737285488.344396,877,1737285488,336718208,,0,65016,33.6371365,72.9912744,571.8200073242188,0.0,0.0,-0.0,0.0,0.0,-0.0,1.5707963705062866,-0.0
1737285488.4445832,878,1737285488,436718976,,0,65016,33.6371365,72.9912744,571.8200073242188,0.0,0.0,-0.0,0.0,0.0,-0.0,1.5707963705062866,-0.0
1737285488.5440354,879,1737285488,536718720,,0,65016,33.6371365,72.9912744,571.8200073242188,0.0,0.0,-0.0,0.0,0.0,-0.0,1.5707963705062866,-0.0
1737285488.6434896,880,1737285488,636719744,,0,65016,33.6371365,72.9912744,571.8200073242188,0.0,0.0,-0.0,0.0,0.0,-0.0,1.5707963705062866,-0.0
1737285488.7444139,881,1737285488,736719488,,0,65016,33.6371365,72.9912744,571.8200073242188,0.0,0.0,-0.0,0.0,0.0,-0.0,1.5707963705062866,-0.0
1737285488.8438168,882,1737285488,836720512,,0,65016,33.6371365,72.9912744,571.8200073242188,0.0,0.0,-0.0,0.0,0.0,-0.0,1.5707963705062866,-0.0
1737285488.9437344,883,1737285488,936720256,,0,65016,33.6371365,72.9912744,571.8200073242188,0.0,0.0,-0.0,0.0,0.0,-0.0,1.5707963705062866,-0.0
1737285489.043523,884,1737285489,36721280,,0,65016,33.6371365,72.9912744,571.8200073242188,0.0,0.0,-0.0,0.0,0.0,-0.0,1.5707963705062866,-0.0
1737285489.1434183,885,1737285489,136720768,,0,65016,33.6371365,72.9912744,571.8200073242188,0.0,0.0,-0.0,0.0,0.0,-0.0,1.5707963705062866,-0.0
1737285489.2435522,886,1737285489,236721792,,0,65016,33.6371365,72.9912744,571.8200073242188,0.0,0.0,-0.0,0.0,0.0,-0.0,1.5707963705062866,-0.0
1737285489.3430884,887,1737285489,336721536,,0,65016,33.6371365,72.9912744,571.8200073242188,0.0,0.0,-0.0,0.0,0.0,-0.0,1.5707963705062866,-0.0
1737285489.4443533,888,1737285489,436722560,,0,65016,33.6371365,72.9912744,571.8200073242188,0.0,0.0,-0.0,0.0,0.0,-0.0,1.5707963705062866,-0.0
1737285489.543398,889,1737285489,536724096,,0,65016,33.6371365,72.9912744,571.8200073242188,0.0,0.0,-0.0,0.0,0.0,-0.0,1.5707963705062866,-0.0
1737285489.6436756,890,1737285489,636723584,,0,65016,33.6371365,72.9912744,571.8200073242188,0.0,0.0,-0.0,0.0,0.0,-0.0,1.5707963705062866,-0.0
1737285489.7428355,891,1737285489,736723328,,0,65016,33.6371365,72.9912744,571.8200073242188,0.0,0.0,-0.0,0.0,0.0,-0.0,1.5707963705062866,-0.0
1737285489.8440444,892,1737285489,836723072,,0,65016,33.6371365,72.9912744,571.8200073242188,0.0,0.0,-0.0,0.0,0.0,-0.0,1.5707963705062866,-0.0
1737285489.9428759,893,1737285489,936723072,,0,65016,33.6371365,72.9912744,571.8200073242188,0.0,0.0,-0.0,0.0,0.0,-0.0,1.5707963705062866,-0.0
1737285490.0441284,894,1737285490,36722816,,0,65016,33.6371365,72.9912744,571.8200073242188,0.0,0.0,-0.0,0.0,0.0,-0.0,1.5707963705062866,-0.0
1737285490.143311,895,1737285490,136724352,,0,65016,33.6371365,72.9912744,571.8200073242188,0.0,0.0,-0.0,0.0,0.0,-0.0,1.5707963705062866,-0.0
1737285490.2431605,896,1737285490,236724096,,0,65016,33.6371365,72.9912744,571.8200073242188,0.0,0.0,-0.0,0.0,0.0,-0.0,1.5707963705062866,-0.0
1737285490.343053,897,1737285490,339724096,,0,65016,33.6371365,72.9912744,571.8200073242188,0.0,0.0,-0.0,0.0,0.0,-0.0,1.5707963705062866,-0.0
1737285490.4448693,898,1737285490,436723840,,0,65016,33.6371365,72.9912744,571.8200073242188,0.0,0.0,-0.0,0.0,0.0,-0.0,1.5707963705062866,-0.0
1737285490.5419836,899,1737285490,536723840,,0,65016,33.6371365,72.9912744,571.8200073242188,0.0,0.0,-0.0,0.0,0.0,-0.0,1.5707963705062866,-0.0
1737285490.6442158,900,1737285490,636723584,,0,65016,33.6371365,72.9912744,571.8200073242188,0.0,0.0,-0.0,0.0,0.0,-0.0,1.5707963705062866,-0.0
1737285490.7441354,901,1737285490,736723584,,0,65016,33.6371365,72.9912744,571.8200073242188,0.0,0.0,-0.0,0.0,0.0,-0.0,1.5707963705062866,-0.0
1737285490.843329,902,1737285490,836723328,,0,65016,33.6371365,72.9912744,571.8200073242188,0.0,0.0,-0.0,0.0,0.0,-0.0,1.5707963705062866,-0.0
1737285490.9439828,903,1737285490,936723328,,0,65016,33.6371365,72.9912744,571.8200073242188,0.0,0.0,-0.0,0.0,0.0,-0.0,1.5707963705062866,-0.0
1737285491.0441663,904,1737285491,36723072,,0,65016,33.6371365,72.9912744,571.8200073242188,0.0,0.0,-0.0,0.0,0.0,-0.0,1.5707963705062866,-0.0
1737285491.144015,905,1737285491,136723328,,0,65016,33.6371365,72.9912744,571.8200073242188,0.0,0.0,-0.0,0.0,0.0,-0.0,1.5707963705062866,-0.0
1737285491.2440414,906,1737285491,236723072,,0,65016,33.6371365,72.9912744,571.8200073242188,0.0,0.0,-0.0,0.0,0.0,-0.0,1.5707963705062866,-0.0
1737285491.345768,907,1737285491,336723328,,0,65016,33.6371365,72.9912744,571.8200073242188,0.0,0.0,-0.0,0.0,0.0,-0.0,1.5707963705062866,-0.0
1737285491.4436977,908,1737285491,436723328,,0,65016,33.6371365,72.9912744,571.8200073242188,0.0,0.0,-0.0,0.0,0.0,-0.0,1.5707963705062866,-0.0
1737285491.5435002,909,1737285491,536723328,,0,65016,33.6371365,72.9912744,571.8200073242188,0.0,0.0,-0.0,0.0,0.0,-0.0,1.5707963705062866,-0.0
1737285491.6441503,910,1737285491,639723328,,0,65016,33.6371365,72.9912744,571.8200073242188,0.0,0.0,-0.0,0.0,0.0,-0.0,1.5707963705062866,-0.0
1737285491.7437472,911,1737285491,736728192,,0,65016,33.6371365,72.9912744,571.8200073242188,0.0,0.0,-0.0,0.0,0.0,-0.0,1.5707963705062866,-0.0
1737285491.8442438,912,1737285491,836728192,,0,65016,33.6371365,72.9912744,571.8200073242188,0.0,0.0,-0.0,0.0,0.0,-0.0,1.5707963705062866,-0.0
1737285491.9435053,913,1737285491,936728192,,0,65016,33.6371365,72.9912744,571.8200073242188,0.0,0.0,-0.0,0.0,0.0,-0.0,1.5707963705062866,-0.0
1737285492.0481706,914,1737285492,36733312,,0,65016,33.6371365,72.9912744,571.8200073242188,0.0,0.0,-0.0,0.0,0.0,-0.0,1.5707963705062866,-0.0
1737285492.1447687,915,1737285492,136739456,,0,65016,33.6371365,72.9912744,571.8200073242188,0.0,0.0,-0.0,0.0,0.0,-0.0,1.5707963705062866,-0.0
1737285492.2436252,916,1737285492,236739456,,0,65016,33.6371365,72.9912744,571.8200073242188,0.0,0.0,-0.0,0.0,0.0,-0.0,1.5707963705062866,-0.0
1737285492.3441298,917,1737285492,336739712,,0,65016,33.6371365,72.9912744,571.8200073242188,0.0,0.0,-0.0,0.0,0.0,-0.0,1.5707963705062866,-0.0
1737285492.4444232,918,1737285492,436739968,,0,65016,33.6371365,72.9912744,571.8200073242188,0.0,0.0,-0.0,0.0,0.0,-0.0,1.5707963705062866,-0.0
1737285492.544635,919,1737285492,536740224,,0,65016,33.6371365,72.9912744,571.8200073242188,0.0,0.0,-0.0,0.0,0.0,-0.0,1.5707963705062866,-0.0
1737285492.6445546,920,1737285492,636745344,,0,65016,33.6371365,72.9912744,571.8200073242188,0.0,0.0,-0.0,0.0,0.0,-0.0,1.5707963705062866,-0.0
1737285492.7447643,921,1737285492,736745856,,0,65016,33.6371365,72.9912744,571.8200073242188,0.0,0.0,-0.0,0.0,0.0,-0.0,1.5707963705062866,-0.0
1737285492.8440428,922,1737285492,836745856,,0,65016,33.6371365,72.9912744,571.8200073242188,0.0,0.0,-0.0,0.0,0.0,-0.0,1.5707963705062866,-0.0
1737285492.9449131,923,1737285492,939751232,,0,65016,33.6371365,72.9912744,571.8200073242188,0.0,0.0,-0.0,0.0,0.0,-0.0,1.5707963705062866,-0.0
1737285493.0444353,924,1737285493,36751744,,0,65016,33.6371365,72.9912744,571.8200073242188,0.0,0.0,-0.0,0.0,0.0,-0.0,1.5707963705062866,-0.0
1737285493.1442173,925,1737285493,139752256,,0,65016,33.6371365,72.9912744,571.8200073242188,0.0,0.0,-0.0,0.0,0.0,-0.0,1.5707963705062866,-0.0
1737285493.24462,926,1737285493,236752768,,0,65016,33.6371365,72.9912744,571.8200073242188,0.0,0.0,-0.0,0.0,0.0,-0.0,1.5707963705062866,-0.0
1737285493.34441,927,1737285493,336756608,,0,65016,33.6371365,72.9912744,571.8200073242188,0.0,0.0,-0.0,0.0,0.0,-0.0,1.5707963705062866,-0.0
1737285493.4447834,928,1737285493,436757120,,0,65016,33.6371365,72.9912744,571.8200073242188,0.0,0.0,-0.0,0.0,0.0,-0.0,1.5707963705062866,-0.0
1737285493.5440261,929,1737285493,536756096,,0,65016,33.6371365,72.9912744,571.8200073242188,0.0,0.0,-0.0,0.0,0.0,-0.0,1.5707963705062866,-0.0
1737285493.6448567,930,1737285493,636756608,,0,65016,33.6371365,72.9912744,571.8200073242188,0.0,0.0,-0.0,0.0,0.0,-0.0,1.5707963705062866,-0.0
1737285493.7441077,931,1737285493,736760192,,0,65016,33.6371365,72.9912744,571.8200073242188,0.0,0.0,-0.0,0.0,0.0,-0.0,1.5707963705062866,-0.0
1737285493.8492162,932,1737285493,836760960,,0,65016,33.6371365,72.9912744,571.8200073242188,0.0,0.0,-0.0,0.0,0.0,-0.0,1.5707963705062866,-0.0
1737285493.9461288,933,1737285493,936760192,,0,65016,33.6371365,72.9912744,571.8200073242188,0.0,0.0,-0.0,0.0,0.0,-0.0,1.5707963705062866,-0.0
1737285494.0436392,934,1737285494,36760704,,0,65016,33.6371365,72.9912744,571.8200073242188,0.0,0.0,-0.0,0.0,0.0,-0.0,1.5707963705062866,-0.0
1737285494.1481092,935,1737285494,136759936,,0,65016,33.6371365,72.9912744,571.8200073242188,0.0,0.0,-0.0,0.0,0.0,-0.0,1.5707963705062866,-0.0
1737285494.2430108,936,1737285494,236764032,,0,65016,33.6371365,72.9912744,571.8200073242188,0.0,0.0,-0.0,0.0,0.0,-0.0,1.5707963705062866,-0.0
1737285494.3420887,937,1737285494,336763520,,0,65016,33.6371365,72.9912744,571.8200073242188,0.0,0.0,-0.0,0.0,0.0,-0.0,1.5707963705062866,-0.0
1737285494.442869,938,1737285494,436767616,,0,65016,33.6371365,72.9912744,571.8200073242188,0.0,0.0,-0.0,0.0,0.0,-0.0,1.5707963705062866,-0.0
1737285494.54317,939,1737285494,536766848,,0,65016,33.6371365,72.9912744,571.8200073242188,0.0,0.0,-0.0,0.0,0.0,-0.0,1.5707963705062866,-0.0
1737285494.643533,940,1737285494,636770944,,0,65016,33.6371365,72.9912744,571.8200073242188,0.0,0.0,-0.0,0.0,0.0,-0.0,1.5707963705062866,-0.0
1737285494.7436404,941,1737285494,736775040,,0,65016,33.6371365,72.9912744,571.8200073242188,0.0,0.0,-0.0,0.0,0.0,-0.0,1.5707963705062866,-0.0
1737285494.8433003,942,1737285494,836779136,,0,65016,33.6371365,72.9912744,571.8200073242188,0.0,0.0,-0.0,0.0,0.0,-0.0,1.5707963705062866,-0.0
1737285494.9432454,943,1737285494,936784768,,0,65016,33.6371365,72.9912744,571.8200073242188,0.0,0.0,-0.0,0.0,0.0,-0.0,1.5707963705062866,-0.0
1737285495.0436125,944,1737285495,36785536,,0,65016,33.6371365,72.9912744,571.8200073242188,0.0,0.0,-0.0,0.0,0.0,-0.0,1.5707963705062866,-0.0
1737285495.1437256,945,1737285495,136784768,,0,65016,33.6371365,72.9912744,571.8200073242188,0.0,0.0,-0.0,0.0,0.0,-0.0,1.5707963705062866,-0.0
1737285495.2446344,946,1737285495,236785536,,0,65016,33.6371365,72.9912744,571.8200073242188,0.0,0.0,-0.0,0.0,0.0,-0.0,1.5707963705062866,-0.0
1737285495.3432658,947,1737285495,336791424,,0,65016,33.6371365,72.9912744,571.8200073242188,0.0,0.0,-0.0,0.0,0.0,-0.0,1.5707963705062866,-0.0
1737285495.4451334,948,1737285495,436792448,,0,65016,33.6371365,72.9912744,571.8200073242188,0.0,0.0,-0.0,0.0,0.0,-0.0,1.5707963705062866,-0.0
1737285495.5442462,949,1737285495,536798336,,0,65016,33.6371365,72.9912744,571.8200073242188,0.0,0.0,-0.0,0.0,0.0,-0.0,1.5707963705062866,-0.0
1737285495.6435215,950,1737285495,636802688,,0,65016,33.6371365,72.9912744,571.8200073242188,0.0,0.0,-0.0,0.0,0.0,-0.0,1.5707963705062866,-0.0
1737285495.7433956,951,1737285495,736803712,,0,65016,33.6371365,72.9912744,571.8200073242188,0.0,0.0,-0.0,0.0,0.0,-0.0,1.5707963705062866,-0.0
1737285495.8441865,952,1737285495,836808064,,0,65016,33.6371365,72.9912744,571.8200073242188,0.0,0.0,-0.0,0.0,0.0,-0.0,1.5707963705062866,-0.0
1737285495.9444327,953,1737285495,936812416,,0,65016,33.6371365,72.9912744,571.8200073242188,0.0,0.0,-0.0,0.0,0.0,-0.0,1.5707963705062866,-0.0
1737285496.0448725,954,1737285496,36817024,,0,65016,33.6371365,72.9912744,571.8200073242188,0.0,0.0,-0.0,0.0,0.0,-0.0,1.5707963705062866,-0.0
1737285496.1446831,955,1737285496,136818048,,0,65016,33.6371365,72.9912744,571.8200073242188,0.0,0.0,-0.0,0.0,0.0,-0.0,1.5707963705062866,-0.0
1737285496.2482994,956,1737285496,236819072,,0,65016,33.6371365,72.9912744,571.8200073242188,0.0,0.0,-0.0,0.0,0.0,-0.0,1.5707963705062866,-0.0
1737285496.3438895,957,1737285496,336818816,,0,65016,33.6371365,72.9912744,571.8200073242188,0.0,0.0,-0.0,0.0,0.0,-0.0,1.5707963705062866,-0.0
1737285496.4432664,958,1737285496,436819840,,0,65016,33.6371365,72.9912744,571.8200073242188,0.0,0.0,-0.0,0.0,0.0,-0.0,1.5707963705062866,-0.0
1737285496.5429492,959,1737285496,536820864,,0,65016,33.6371365,72.9912744,571.8200073242188,0.0,0.0,-0.0,0.0,0.0,-0.0,1.5707963705062866,-0.0
1737285496.6430278,960,1737285496,636821888,,0,65016,33.6371365,72.9912744,571.8200073242188,0.0,0.0,-0.0,0.0,0.0,-0.0,1.5707963705062866,-0.0
1737285496.7423284,961,1737285496,736826496,,0,65016,33.6371365,72.9912744,571.8200073242188,0.0,0.0,-0.0,0.0,0.0,-0.0,1.5707963705062866,-0.0
1737285496.843731,962,1737285496,836827776,,0,65016,33.6371365,72.9912744,571.8200073242188,0.0,0.0,-0.0,0.0,0.0,-0.0,1.5707963705062866,-0.0
1737285496.9449272,963,1737285496,936832384,,0,65016,33.6371365,72.9912744,571.8200073242188,0.0,0.0,-0.0,0.0,0.0,-0.0,1.5707963705062866,-0.0
1737285497.0436318,964,1737285497,36832128,,0,65016,33.6371365,72.9912744,571.8200073242188,0.0,0.0,-0.0,0.0,0.0,-0.0,1.5707963705062866,-0.0
1737285497.1442142,965,1737285497,136831872,,0,65016,33.6371365,72.9912744,571.8200073242188,0.0,0.0,-0.0,0.0,0.0,-0.0,1.5707963705062866,-0.0
1737285497.2446823,966,1737285497,236836736,,0,65016,33.6371365,72.9912744,571.8200073242188,0.0,0.0,-0.0,0.0,0.0,-0.0,1.5707963705062866,-0.0
1737285497.3443103,967,1737285497,336841600,,0,65016,33.6371365,72.9912744,571.8200073242188,0.0,0.0,-0.0,0.0,0.0,-0.0,1.5707963705062866,-0.0
1737285497.4441574,968,1737285497,436841344,,0,65016,33.6371365,72.9912744,571.8200073242188,0.0,0.0,-0.0,0.0,0.0,-0.0,1.5707963705062866,-0.0
1737285497.544116,969,1737285497,536841344,,0,65016,33.6371365,72.9912744,571.8200073242188,0.0,0.0,-0.0,0.0,0.0,-0.0,1.5707963705062866,-0.0
1737285497.6446743,970,1737285497,636841088,,0,65016,33.6371365,72.9912744,571.8200073242188,0.0,0.0,-0.0,0.0,0.0,-0.0,1.5707963705062866,-0.0
1737285497.7438364,971,1737285497,736841088,,0,65016,33.6371365,72.9912744,571.8200073242188,0.0,0.0,-0.0,0.0,0.0,-0.0,1.5707963705062866,-0.0
1737285497.8441067,972,1737285497,836845952,,0,65016,33.6371365,72.9912744,571.8200073242188,0.0,0.0,-0.0,0.0,0.0,-0.0,1.5707963705062866,-0.0
1737285497.943619,973,1737285497,936850816,,0,65016,33.6371365,72.9912744,571.8200073242188,0.0,0.0,-0.0,0.0,0.0,-0.0,1.5707963705062866,-0.0
1737285498.0433533,974,1737285498,36855680,,0,65016,33.6371365,72.9912744,571.8200073242188,0.0,0.0,-0.0,0.0,0.0,-0.0,1.5707963705062866,-0.0
1737285498.1435,975,1737285498,136860544,,0,65016,33.6371365,72.9912744,571.8200073242188,0.0,0.0,-0.0,0.0,0.0,-0.0,1.5707963705062866,-0.0
1737285498.2434607,976,1737285498,236865408,,0,65016,33.6371365,72.9912744,571.8200073242188,0.0,0.0,-0.0,0.0,0.0,-0.0,1.5707963705062866,-0.0
1737285498.3475494,977,1737285498,336870272,,0,65016,33.6371365,72.9912744,571.8200073242188,0.0,0.0,-0.0,0.0,0.0,-0.0,1.5707963705062866,-0.0
1737285498.443938,978,1737285498,439875136,,0,65016,33.6371365,72.9912744,571.8200073242188,0.0,0.0,-0.0,0.0,0.0,-0.0,1.5707963705062866,-0.0
1737285498.5438929,979,1737285498,536874880,,0,65016,33.6371365,72.9912744,571.8200073242188,0.0,0.0,-0.0,0.0,0.0,-0.0,1.5707963705062866,-0.0
1737285498.6441422,980,1737285498,636879744,,0,65016,33.6371365,72.9912744,571.8200073242188,0.0,0.0,-0.0,0.0,0.0,-0.0,1.5707963705062866,-0.0
1737285498.744151,981,1737285498,736884608,,0,65016,33.6371365,72.9912744,571.8200073242188,0.0,0.0,-0.0,0.0,0.0,-0.0,1.5707963705062866,-0.0
1737285498.8442492,982,1737285498,836889472,,0,65016,33.6371365,72.9912744,571.8200073242188,0.0,0.0,-0.0,0.0,0.0,-0.0,1.5707963705062866,-0.0
1737285498.944491,983,1737285498,936894592,,0,65016,33.6371365,72.9912744,571.8200073242188,0.0,0.0,-0.0,0.0,0.0,-0.0,1.5707963705062866,-0.0
1737285499.0444884,984,1737285499,36899712,,0,65016,33.6371365,72.9912744,571.8200073242188,0.0,0.0,-0.0,0.0,0.0,-0.0,1.5707963705062866,-0.0
1737285499.1443167,985,1737285499,136905088,,0,65016,33.6371365,72.9912744,571.8200073242188,0.0,0.0,-0.0,0.0,0.0,-0.0,1.5707963705062866,-0.0
1737285499.2442727,986,1737285499,236910208,,0,65016,33.6371365,72.9912744,571.8200073242188,0.0,0.0,-0.0,0.0,0.0,-0.0,1.5707963705062866,-0.0
1737285499.3443182,987,1737285499,336915328,,0,65016,33.6371365,72.9912744,571.8200073242188,0.0,0.0,-0.0,0.0,0.0,-0.0,1.5707963705062866,-0.0
1737285499.4445953,988,1737285499,436920704,,0,65016,33.6371365,72.9912744,571.8200073242188,0.0,0.0,-0.0,0.0,0.0,-0.0,1.5707963705062866,-0.0
1737285499.5442817,989,1737285499,536926080,,0,65016,33.6371365,72.9912744,571.8200073242188,0.0,0.0,-0.0,0.0,0.0,-0.0,1.5707963705062866,-0.0
1737285499.64409,990,1737285499,636931456,,0,65016,33.6371365,72.9912744,571.8200073242188,0.0,0.0,-0.0,0.0,0.0,-0.0,1.5707963705062866,-0.0
1737285499.7484965,991,1737285499,736936576,,0,65016,33.6371365,72.9912744,571.8200073242188,0.0,0.0,-0.0,0.0,0.0,-0.0,1.5707963705062866,-0.0
1737285499.84322,992,1737285499,836941952,,0,65016,33.6371365,72.9912744,571.8200073242188,0.0,0.0,-0.0,0.0,0.0,-0.0,1.5707963705062866,-0.0
1737285499.9469216,993,1737285499,936947328,,0,65016,33.6371365,72.9912744,571.8200073242188,0.0,0.0,-0.0,0.0,0.0,-0.0,1.5707963705062866,-0.0
1737285500.043127,994,1737285500,39952704,,0,65016,33.6371365,72.9912744,571.8200073242188,0.0,0.0,-0.0,0.0,0.0,-0.0,1.5707963705062866,-0.0
1737285500.145153,995,1737285500,136952704,,0,65016,33.6371365,72.9912744,571.8200073242188,0.0,0.0,-0.0,0.0,0.0,-0.0,1.5707963705062866,-0.0
