Time,header.seq,header.stamp.secs,header.stamp.nsecs,header.frame_id,magnetic_field.x,magnetic_field.y,magnetic_field.z,magnetic_field_covariance_0,magnetic_field_covariance_1,magnetic_field_covariance_2,magnetic_field_covariance_3,magnetic_field_covariance_4,magnetic_field_covariance_5,magnetic_field_covariance_6,magnetic_field_covariance_7,magnetic_field_covariance_8
1737285472.7333128,12810,1737285462,734821152,base_link,57000.0,-245000.00000000006,-377999.99999999994,-1.0,0.0,0.0,0.0,0.0,0.0,0.0,0.0,0.0
1737285472.733556,12811,1737285462,834803408,base_link,59000.0,-242000.00000000006,-381999.99999999994,-1.0,0.0,0.0,0.0,0.0,0.0,0.0,0.0,0.0
1737285472.7335892,12812,1737285462,934808384,base_link,61000.0,-246000.00000000006,-366999.99999999994,-1.0,0.0,0.0,0.0,0.0,0.0,0.0,0.0,0.0
1737285472.7341628,12813,1737285463,34836640,base_link,61000.0,-245000.00000000006,-363999.99999999994,-1.0,0.0,0.0,0.0,0.0,0.0,0.0,0.0,0.0
1737285472.7343984,12814,1737285463,134823152,base_link,63000.0,-246000.00000000006,-356999.99999999994,-1.0,0.0,0.0,0.0,0.0,0.0,0.0,0.0,0.0
1737285472.7344556,12815,1737285463,234737408,base_link,59000.0,-249000.00000000006,-371999.99999999994,-1.0,0.0,0.0,0.0,0.0,0.0,0.0,0.0,0.0
1737285472.734486,12816,1737285463,334804384,base_link,53000.0,-245000.00000000006,-373999.99999999994,-1.0,0.0,0.0,0.0,0.0,0.0,0.0,0.0,0.0
1737285472.735324,12817,1737285463,434800384,base_link,49000.0,-243000.00000000006,-364999.99999999994,-1.0,0.0,0.0,0.0,0.0,0.0,0.0,0.0,0.0
1737285472.7392368,12818,1737285463,534726384,base_link,46000.0,-255000.00000000006,-400999.99999999994,-1.0,0.0,0.0,0.0,0.0,0.0,0.0,0.0,0.0
1737285472.7393818,12819,1737285463,634726640,base_link,46000.0,-246000.00000000006,-360999.99999999994,-1.0,0.0,0.0,0.0,0.0,0.0,0.0,0.0,0.0
1737285472.7396333,12820,1737285463,734723128,base_link,41000.0,-252000.00000000006,-368999.99999999994,-1.0,0.0,0.0,0.0,0.0,0.0,0.0,0.0,0.0
1737285472.739756,12821,1737285463,834822128,base_link,42000.0,-263000.00000000006,-383999.99999999994,-1.0,0.0,0.0,0.0,0.0,0.0,0.0,0.0,0.0
1737285472.7398725,12822,1737285463,934853360,base_link,42000.0,-246000.00000000003,-355999.99999999994,-1.0,0.0,0.0,0.0,0.0,0.0,0.0,0.0,0.0
1737285472.739941,12823,1737285464,34714616,base_link,46000.0,-244000.00000000003,-352999.99999999994,-1.0,0.0,0.0,0.0,0.0,0.0,0.0,0.0,0.0
1737285472.7540824,12824,1737285464,134821104,base_link,44000.0,-245000.00000000006,-365999.99999999994,-1.0,0.0,0.0,0.0,0.0,0.0,0.0,0.0,0.0
1737285472.7541819,12825,1737285464,234807360,base_link,40000.0,-251000.00000000006,-369999.99999999994,-1.0,0.0,0.0,0.0,0.0,0.0,0.0,0.0,0.0
1737285472.7542646,12826,1737285464,334770592,base_link,35000.0,-264000.00000000006,-382999.99999999994,-1.0,0.0,0.0,0.0,0.0,0.0,0.0,0.0,0.0
1737285472.754296,12827,1737285464,434789848,base_link,35000.0,-270000.00000000006,-386999.99999999994,-1.0,0.0,0.0,0.0,0.0,0.0,0.0,0.0,0.0
1737285472.7544718,12828,1737285464,534781080,base_link,41000.0,-273000.00000000006,-377999.99999999994,-1.0,0.0,0.0,0.0,0.0,0.0,0.0,0.0,0.0
1737285472.754525,12829,1737285464,634817592,base_link,47000.0,-266000.00000000006,-362999.99999999994,-1.0,0.0,0.0,0.0,0.0,0.0,0.0,0.0,0.0
1737285472.7545686,12830,1737285464,734806104,base_link,45000.0,-264000.00000000006,-373999.99999999994,-1.0,0.0,0.0,0.0,0.0,0.0,0.0,0.0,0.0
1737285472.7546468,12831,1737285464,834796616,base_link,47000.0,-263000.00000000006,-357999.99999999994,-1.0,0.0,0.0,0.0,0.0,0.0,0.0,0.0,0.0
1737285472.7547104,12832,1737285464,934822848,base_link,46000.0,-262000.00000000006,-366999.99999999994,-1.0,0.0,0.0,0.0,0.0,0.0,0.0,0.0,0.0
1737285472.754742,12833,1737285465,34766360,base_link,47000.0,-252000.00000000003,-355999.99999999994,-1.0,0.0,0.0,0.0,0.0,0.0,0.0,0.0,0.0
1737285472.7549021,12834,1737285465,134813848,base_link,35000.0,-253000.00000000006,-375999.99999999994,-1.0,0.0,0.0,0.0,0.0,0.0,0.0,0.0,0.0
1737285472.7549732,12835,1737285465,234788360,base_link,35000.0,-263000.00000000006,-373999.99999999994,-1.0,0.0,0.0,0.0,0.0,0.0,0.0,0.0,0.0
1737285472.75505,12836,1737285465,334758848,base_link,39000.0,-267000.00000000006,-393999.99999999994,-1.0,0.0,0.0,0.0,0.0,0.0,0.0,0.0,0.0
1737285472.7552762,12837,1737285465,434808616,base_link,45000.0,-267000.00000000006,-370999.99999999994,-1.0,0.0,0.0,0.0,0.0,0.0,0.0,0.0,0.0
1737285472.7553108,12838,1737285465,534799360,base_link,47000.0,-256000.00000000006,-370999.99999999994,-1.0,0.0,0.0,0.0,0.0,0.0,0.0,0.0,0.0
1737285472.7555218,12839,1737285465,634787872,base_link,45000.0,-253000.00000000006,-368999.99999999994,-1.0,0.0,0.0,0.0,0.0,0.0,0.0,0.0,0.0
1737285472.7560966,12840,1737285465,734796360,base_link,39000.0,-249000.00000000006,-375999.99999999994,-1.0,0.0,0.0,0.0,0.0,0.0,0.0,0.0,0.0
1737285472.7561677,12841,1737285465,834790128,base_link,38000.0,-260000.00000000006,-384999.99999999994,-1.0,0.0,0.0,0.0,0.0,0.0,0.0,0.0,0.0
1737285472.7566376,12842,1737285465,934801872,base_link,43000.0,-270000.00000000006,-372999.99999999994,-1.0,0.0,0.0,0.0,0.0,0.0,0.0,0.0,0.0
1737285472.758986,12843,1737285466,34816640,base_link,45000.0,-263000.00000000006,-369999.99999999994,-1.0,0.0,0.0,0.0,0.0,0.0,0.0,0.0,0.0
1737285472.7630818,12844,1737285466,134809408,base_link,44000.0,-254000.00000000006,-363999.99999999994,-1.0,0.0,0.0,0.0,0.0,0.0,0.0,0.0,0.0
1737285472.7631452,12845,1737285466,234737176,base_link,50000.0,-248000.00000000003,-346999.99999999994,-1.0,0.0,0.0,0.0,0.0,0.0,0.0,0.0,0.0
1737285472.7632399,12846,1737285466,334824664,base_link,43000.0,-242000.00000000006,-373999.99999999994,-1.0,0.0,0.0,0.0,0.0,0.0,0.0,0.0,0.0
1737285472.7637408,12847,1737285466,434806688,base_link,40000.0,-257000.00000000006,-385999.99999999994,-1.0,0.0,0.0,0.0,0.0,0.0,0.0,0.0,0.0
1737285472.763924,12848,1737285466,534753432,base_link,44000.0,-260000.00000000006,-382999.99999999994,-1.0,0.0,0.0,0.0,0.0,0.0,0.0,0.0,0.0
1737285472.7639484,12849,1737285466,634832456,base_link,45000.0,-262000.00000000006,-368999.99999999994,-1.0,0.0,0.0,0.0,0.0,0.0,0.0,0.0,0.0
1737285472.7641797,12850,1737285466,734721200,base_link,50000.0,-254000.00000000006,-362999.99999999994,-1.0,0.0,0.0,0.0,0.0,0.0,0.0,0.0,0.0
1737285472.7643013,12851,1737285466,834838968,base_link,49000.0,-254000.00000000006,-367999.99999999994,-1.0,0.0,0.0,0.0,0.0,0.0,0.0,0.0,0.0
1737285472.7657382,12852,1737285466,934823968,base_link,46000.0,-244000.00000000006,-356999.99999999994,-1.0,0.0,0.0,0.0,0.0,0.0,0.0,0.0,0.0
1737285472.7702918,12853,1737285467,34813992,base_link,48000.0,-235000.00000000006,-366000.0,-1.0,0.0,0.0,0.0,0.0,0.0,0.0,0.0,0.0
1737285472.7703667,12854,1737285467,134735760,base_link,46000.0,-242000.00000000006,-359999.99999999994,-1.0,0.0,0.0,0.0,0.0,0.0,0.0,0.0,0.0
1737285472.7704344,12855,1737285467,234807784,base_link,50000.0,-239000.00000000006,-365999.99999999994,-1.0,0.0,0.0,0.0,0.0,0.0,0.0,0.0,0.0
1737285472.7704718,12856,1737285467,334806808,base_link,44000.0,-243000.00000000006,-382999.99999999994,-1.0,0.0,0.0,0.0,0.0,0.0,0.0,0.0,0.0
1737285472.7705867,12857,1737285467,434810832,base_link,40000.0,-255000.00000000006,-391999.99999999994,-1.0,0.0,0.0,0.0,0.0,0.0,0.0,0.0,0.0
1737285472.7706792,12858,1737285467,534828832,base_link,43000.0,-259000.00000000006,-380999.99999999994,-1.0,0.0,0.0,0.0,0.0,0.0,0.0,0.0,0.0
1737285472.7707675,12859,1737285467,634817856,base_link,45000.0,-261000.00000000006,-382999.99999999994,-1.0,0.0,0.0,0.0,0.0,0.0,0.0,0.0,0.0
1737285472.7737973,12860,1737285467,734846600,base_link,49000.0,-255000.00000000006,-361999.99999999994,-1.0,0.0,0.0,0.0,0.0,0.0,0.0,0.0,0.0
1737285472.774706,12861,1737285467,834836880,base_link,45000.0,-257000.00000000006,-379999.99999999994,-1.0,0.0,0.0,0.0,0.0,0.0,0.0,0.0,0.0
1737285472.7779388,12862,1737285467,934764624,base_link,49000.0,-252000.00000000006,-384999.99999999994,-1.0,0.0,0.0,0.0,0.0,0.0,0.0,0.0,0.0
1737285472.7779763,12863,1737285468,34820112,base_link,47000.0,-248000.00000000006,-361999.99999999994,-1.0,0.0,0.0,0.0,0.0,0.0,0.0,0.0,0.0
1737285472.779536,12864,1737285468,134815368,base_link,49000.0,-249000.00000000003,-354999.99999999994,-1.0,0.0,0.0,0.0,0.0,0.0,0.0,0.0,0.0
1737285472.7823565,12865,1737285468,234740112,base_link,47000.0,-246000.00000000006,-375999.99999999994,-1.0,0.0,0.0,0.0,0.0,0.0,0.0,0.0,0.0
1737285472.7824805,12866,1737285468,334811856,base_link,35000.0,-251000.00000000006,-378999.99999999994,-1.0,0.0,0.0,0.0,0.0,0.0,0.0,0.0,0.0
1737285472.7861109,12867,1737285468,434822344,base_link,39000.0,-260000.00000000006,-383999.99999999994,-1.0,0.0,0.0,0.0,0.0,0.0,0.0,0.0,0.0
1737285472.7861903,12868,1737285468,534836088,base_link,40000.0,-261000.00000000006,-375999.99999999994,-1.0,0.0,0.0,0.0,0.0,0.0,0.0,0.0,0.0
1737285472.7862132,12869,1737285468,634813832,base_link,43000.0,-263000.00000000006,-388999.99999999994,-1.0,0.0,0.0,0.0,0.0,0.0,0.0,0.0,0.0
1737285472.7864287,12870,1737285468,734837576,base_link,42000.0,-257000.00000000006,-365999.99999999994,-1.0,0.0,0.0,0.0,0.0,0.0,0.0,0.0,0.0
1737285472.7865398,12871,1737285468,834738576,base_link,46000.0,-254000.00000000006,-359999.99999999994,-1.0,0.0,0.0,0.0,0.0,0.0,0.0,0.0,0.0
1737285472.7866645,12872,1737285468,934750320,base_link,46000.0,-250000.00000000006,-358999.99999999994,-1.0,0.0,0.0,0.0,0.0,0.0,0.0,0.0,0.0
1737285472.786845,12873,1737285469,34815064,base_link,47000.0,-247000.00000000006,-369999.99999999994,-1.0,0.0,0.0,0.0,0.0,0.0,0.0,0.0,0.0
1737285472.7868707,12874,1737285469,134868064,base_link,44000.0,-244000.00000000006,-358999.99999999994,-1.0,0.0,0.0,0.0,0.0,0.0,0.0,0.0,0.0
1737285472.7869163,12875,1737285469,234840808,base_link,41000.0,-243000.00000000006,-381999.99999999994,-1.0,0.0,0.0,0.0,0.0,0.0,0.0,0.0,0.0
1737285472.7869482,12876,1737285469,334814064,base_link,34000.0,-256000.00000000006,-378999.99999999994,-1.0,0.0,0.0,0.0,0.0,0.0,0.0,0.0,0.0
1737285472.787889,12877,1737285469,434814808,base_link,36000.0,-261000.00000000006,-384999.99999999994,-1.0,0.0,0.0,0.0,0.0,0.0,0.0,0.0,0.0
1737285472.7879157,12878,1737285469,534857064,base_link,38000.0,-264000.00000000006,-376999.99999999994,-1.0,0.0,0.0,0.0,0.0,0.0,0.0,0.0,0.0
1737285472.7879803,12879,1737285469,634856064,base_link,42000.0,-261000.00000000006,-382999.99999999994,-1.0,0.0,0.0,0.0,0.0,0.0,0.0,0.0,0.0
1737285472.7880087,12880,1737285469,734778064,base_link,42000.0,-264000.00000000006,-381999.99999999994,-1.0,0.0,0.0,0.0,0.0,0.0,0.0,0.0,0.0
1737285472.7880352,12881,1737285469,834833064,base_link,48000.0,-268000.00000000006,-391999.99999999994,-1.0,0.0,0.0,0.0,0.0,0.0,0.0,0.0,0.0
1737285472.789404,12882,1737285469,934792320,base_link,50000.0,-249000.00000000006,-358999.99999999994,-1.0,0.0,0.0,0.0,0.0,0.0,0.0,0.0,0.0
1737285472.7897694,12883,1737285470,34845320,base_link,52000.0,-247000.00000000006,-358999.99999999994,-1.0,0.0,0.0,0.0,0.0,0.0,0.0,0.0,0.0
1737285472.789825,12884,1737285470,134759320,base_link,50000.0,-258000.00000000006,-379999.99999999994,-1.0,0.0,0.0,0.0,0.0,0.0,0.0,0.0,0.0
1737285472.7898943,12885,1737285470,235357664,base_link,46000.0,-252000.00000000006,-372999.99999999994,-1.0,0.0,0.0,0.0,0.0,0.0,0.0,0.0,0.0
1737285472.7905085,12886,1737285470,335729664,base_link,42000.0,-253000.00000000006,-382999.99999999994,-1.0,0.0,0.0,0.0,0.0,0.0,0.0,0.0,0.0
1737285472.7905517,12887,1737285470,434807008,base_link,60000.0,-229000.00000000006,-371000.0,-1.0,0.0,0.0,0.0,0.0,0.0,0.0,0.0,0.0
1737285472.7905755,12888,1737285470,534711728,base_link,59000.0,-206000.00000000006,-386000.0,-1.0,0.0,0.0,0.0,0.0,0.0,0.0,0.0,0.0
1737285472.79062,12889,1737285470,634788728,base_link,54000.0,-203000.00000000006,-390000.0,-1.0,0.0,0.0,0.0,0.0,0.0,0.0,0.0,0.0
1737285472.7906673,12890,1737285470,734795960,base_link,50000.0,-218000.00000000006,-357000.0,-1.0,0.0,0.0,0.0,0.0,0.0,0.0,0.0,0.0
1737285472.7911634,12891,1737285470,834784216,base_link,33000.0,-237000.00000000003,-356000.0,-1.0,0.0,0.0,0.0,0.0,0.0,0.0,0.0,0.0
1737285472.7912045,12892,1737285470,934794728,base_link,4000.0,-281000.00000000006,-363999.99999999994,-1.0,0.0,0.0,0.0,0.0,0.0,0.0,0.0,0.0
1737285472.7946415,12893,1737285471,34718984,base_link,-37000.0,-300000.00000000006,-338999.99999999994,-1.0,0.0,0.0,0.0,0.0,0.0,0.0,0.0,0.0
1737285472.795208,12894,1737285471,134813984,base_link,-82000.0,-317000.00000000006,-361999.99999999994,-1.0,0.0,0.0,0.0,0.0,0.0,0.0,0.0,0.0
1737285472.7985055,12895,1737285471,234735240,base_link,-94000.0,-318000.00000000006,-332999.99999999994,-1.0,0.0,0.0,0.0,0.0,0.0,0.0,0.0,0.0
1737285472.7985413,12896,1737285471,334798264,base_link,-110000.0,-341000.00000000006,-321999.99999999994,-1.0,0.0,0.0,0.0,0.0,0.0,0.0,0.0,0.0
1737285472.7986987,12897,1737285471,434806776,base_link,-94000.0,-335000.00000000006,-335999.99999999994,-1.0,0.0,0.0,0.0,0.0,0.0,0.0,0.0,0.0
1737285472.7989602,12898,1737285471,534710008,base_link,-57000.0,-344000.00000000006,-315999.99999999994,-1.0,0.0,0.0,0.0,0.0,0.0,0.0,0.0,0.0
1737285472.7994494,12899,1737285471,634798520,base_link,-15000.0,-344000.00000000006,-317999.99999999994,-1.0,0.0,0.0,0.0,0.0,0.0,0.0,0.0,0.0
1737285472.7996342,12900,1737285471,734806848,base_link,27000.0,-337000.00000000006,-329999.99999999994,-1.0,0.0,0.0,0.0,0.0,0.0,0.0,0.0,0.0
1737285472.7996597,12901,1737285471,834793360,base_link,83000.0,-316000.00000000006,-326999.99999999994,-1.0,0.0,0.0,0.0,0.0,0.0,0.0,0.0,0.0
1737285472.7999363,12902,1737285471,934815872,base_link,121000.0,-278000.00000000006,-367999.99999999994,-1.0,0.0,0.0,0.0,0.0,0.0,0.0,0.0,0.0
1737285472.7999592,12903,1737285472,34810384,base_link,158000.0,-238000.00000000006,-371999.99999999994,-1.0,0.0,0.0,0.0,0.0,0.0,0.0,0.0,0.0
1737285472.8003614,12904,1737285472,134791616,base_link,176000.0,-182000.00000000006,-391000.0,-1.0,0.0,0.0,0.0,0.0,0.0,0.0,0.0,0.0
1737285472.8004942,12905,1737285472,234773384,base_link,181000.0,-132000.00000000006,-388000.0,-1.0,0.0,0.0,0.0,0.0,0.0,0.0,0.0,0.0
1737285472.803002,12906,1737285472,334820896,base_link,181000.0,-88000.00000000004,-388000.0,-1.0,0.0,0.0,0.0,0.0,0.0,0.0,0.0,0.0
1737285472.8035402,12907,1737285472,434796384,base_link,171000.0,-48000.00000000005,-393000.0,-1.0,0.0,0.0,0.0,0.0,0.0,0.0,0.0,0.0
1737285472.803564,12908,1737285472,534965896,base_link,153000.0,999.9999999999493,-414000.0,-1.0,0.0,0.0,0.0,0.0,0.0,0.0,0.0,0.0
1737285472.8036125,12909,1737285472,634799408,base_link,136000.0,27999.99999999995,-424000.0,-1.0,0.0,0.0,0.0,0.0,0.0,0.0,0.0,0.0
1737285472.8040266,12910,1737285472,734936896,base_link,128000.0,65999.99999999996,-400000.0,-1.0,0.0,0.0,0.0,0.0,0.0,0.0,0.0,0.0
1737285472.840484,12911,1737285472,834801664,base_link,129000.0,74999.99999999994,-416000.0,-1.0,0.0,0.0,0.0,0.0,0.0,0.0,0.0,0.0
1737285472.9405463,12912,1737285472,934803640,base_link,124000.0,79999.99999999996,-409000.0,-1.0,0.0,0.0,0.0,0.0,0.0,0.0,0.0,0.0
1737285473.0404994,12913,1737285473,34796152,base_link,125000.0,87999.99999999994,-420000.0,-1.0,0.0,0.0,0.0,0.0,0.0,0.0,0.0,0.0
1737285473.1399784,12914,1737285473,134814640,base_link,133000.0,92999.99999999996,-393000.0,-1.0,0.0,0.0,0.0,0.0,0.0,0.0,0.0,0.0
1737285473.2378993,12915,1737285473,234724408,base_link,146000.0,103999.99999999996,-398000.0,-1.0,0.0,0.0,0.0,0.0,0.0,0.0,0.0,0.0
1737285473.3379774,12916,1737285473,334799896,base_link,160000.0,99999.99999999996,-367000.0,-1.0,0.0,0.0,0.0,0.0,0.0,0.0,0.0,0.0
1737285473.4381957,12917,1737285473,434813664,base_link,168000.0,91999.99999999996,-394000.0,-1.0,0.0,0.0,0.0,0.0,0.0,0.0,0.0,0.0
1737285473.5401876,12918,1737285473,534720152,base_link,177000.0,73999.99999999996,-383000.0,-1.0,0.0,0.0,0.0,0.0,0.0,0.0,0.0,0.0
1737285473.6428614,12919,1737285473,634822176,base_link,184000.0,52999.999999999956,-366000.0,-1.0,0.0,0.0,0.0,0.0,0.0,0.0,0.0,0.0
1737285473.7424777,12920,1737285473,734714920,base_link,192000.0,24999.999999999953,-388000.0,-1.0,0.0,0.0,0.0,0.0,0.0,0.0,0.0,0.0
1737285473.8407257,12921,1737285473,834826944,base_link,203000.0,-21000.000000000044,-370000.0,-1.0,0.0,0.0,0.0,0.0,0.0,0.0,0.0,0.0
1737285473.9412305,12922,1737285473,934800712,base_link,202000.0,-66000.00000000004,-373000.0,-1.0,0.0,0.0,0.0,0.0,0.0,0.0,0.0,0.0
1737285474.041641,12923,1737285474,34866736,base_link,194000.0,-115000.00000000004,-380000.0,-1.0,0.0,0.0,0.0,0.0,0.0,0.0,0.0,0.0
1737285474.140058,12924,1737285474,134940480,base_link,169000.0,-162000.00000000006,-398000.0,-1.0,0.0,0.0,0.0,0.0,0.0,0.0,0.0,0.0
1737285474.2411678,12925,1737285474,234809504,base_link,139000.0,-197000.00000000006,-362000.0,-1.0,0.0,0.0,0.0,0.0,0.0,0.0,0.0,0.0
1737285474.3414242,12926,1737285474,334810040,base_link,104000.0,-232000.00000000006,-376000.0,-1.0,0.0,0.0,0.0,0.0,0.0,0.0,0.0,0.0
1737285474.4418647,12927,1737285474,434817808,base_link,70000.0,-260000.00000000006,-379999.99999999994,-1.0,0.0,0.0,0.0,0.0,0.0,0.0,0.0,0.0
1737285474.5442824,12928,1737285474,534848104,base_link,32000.0,-270000.00000000006,-380999.99999999994,-1.0,0.0,0.0,0.0,0.0,0.0,0.0,0.0,0.0
1737285474.6414874,12929,1737285474,634792848,base_link,-3000.0,-272000.00000000006,-362999.99999999994,-1.0,0.0,0.0,0.0,0.0,0.0,0.0,0.0,0.0
1737285474.7388422,12930,1737285474,734805592,base_link,-29000.0,-279000.00000000006,-359999.99999999994,-1.0,0.0,0.0,0.0,0.0,0.0,0.0,0.0,0.0
1737285474.8421218,12931,1737285474,834834080,base_link,-63000.0,-288000.00000000006,-368999.99999999994,-1.0,0.0,0.0,0.0,0.0,0.0,0.0,0.0,0.0
1737285474.9431446,12932,1737285474,934846824,base_link,-100000.0,-288000.00000000006,-384999.99999999994,-1.0,0.0,0.0,0.0,0.0,0.0,0.0,0.0,0.0
1737285475.0427828,12933,1737285475,34804312,base_link,-121000.0,-290000.00000000006,-374999.99999999994,-1.0,0.0,0.0,0.0,0.0,0.0,0.0,0.0,0.0
1737285475.1436667,12934,1737285475,134833056,base_link,-142000.0,-287000.00000000006,-368999.99999999994,-1.0,0.0,0.0,0.0,0.0,0.0,0.0,0.0,0.0
1737285475.242968,12935,1737285475,234808800,base_link,-165000.0,-275000.00000000006,-365999.99999999994,-1.0,0.0,0.0,0.0,0.0,0.0,0.0,0.0,0.0
1737285475.340201,12936,1737285475,334799888,base_link,-189000.0,-268000.00000000006,-351999.99999999994,-1.0,0.0,0.0,0.0,0.0,0.0,0.0,0.0,0.0
1737285475.4411664,12937,1737285475,434778632,base_link,-218000.0,-256000.00000000006,-372999.99999999994,-1.0,0.0,0.0,0.0,0.0,0.0,0.0,0.0,0.0
1737285475.5392528,12938,1737285475,534794632,base_link,-234000.0,-239000.00000000003,-344999.99999999994,-1.0,0.0,0.0,0.0,0.0,0.0,0.0,0.0,0.0
1737285475.6399286,12939,1737285475,634826376,base_link,-254000.0,-217000.00000000006,-361000.0,-1.0,0.0,0.0,0.0,0.0,0.0,0.0,0.0,0.0
1737285475.741886,12940,1737285475,734801728,base_link,-263000.0,-181000.00000000003,-344000.0,-1.0,0.0,0.0,0.0,0.0,0.0,0.0,0.0,0.0
1737285475.8423448,12941,1737285475,834794472,base_link,-267000.0,-162000.00000000006,-374000.0,-1.0,0.0,0.0,0.0,0.0,0.0,0.0,0.0,0.0
1737285475.940838,12942,1737285475,934786472,base_link,-250000.0,-144000.00000000006,-390000.0,-1.0,0.0,0.0,0.0,0.0,0.0,0.0,0.0,0.0
1737285476.0404139,12943,1737285476,34823216,base_link,-235000.0,-135000.00000000006,-408000.0,-1.0,0.0,0.0,0.0,0.0,0.0,0.0,0.0,0.0
1737285476.1397,12944,1737285476,134757216,base_link,-220000.0,-118000.00000000004,-403000.0,-1.0,0.0,0.0,0.0,0.0,0.0,0.0,0.0,0.0
1737285476.2394757,12945,1737285476,234809960,base_link,-213000.0,-115000.00000000006,-423000.0,-1.0,0.0,0.0,0.0,0.0,0.0,0.0,0.0,0.0
1737285476.3420742,12946,1737285476,335323472,base_link,-220000.0,-99000.00000000006,-417000.0,-1.0,0.0,0.0,0.0,0.0,0.0,0.0,0.0,0.0
1737285476.4406998,12947,1737285476,434761216,base_link,-246000.0,-100000.00000000006,-430000.0,-1.0,0.0,0.0,0.0,0.0,0.0,0.0,0.0,0.0
1737285476.5401263,12948,1737285476,534787472,base_link,-279000.0,-77000.00000000004,-391000.0,-1.0,0.0,0.0,0.0,0.0,0.0,0.0,0.0,0.0
1737285476.639824,12949,1737285476,634766472,base_link,-300000.0,-74000.00000000004,-386000.0,-1.0,0.0,0.0,0.0,0.0,0.0,0.0,0.0,0.0
1737285476.753191,12950,1737285476,734782984,base_link,-307000.0,-66000.00000000004,-379000.0,-1.0,0.0,0.0,0.0,0.0,0.0,0.0,0.0,0.0
1737285476.8407683,12951,1737285476,834808240,base_link,-310000.0,-63000.000000000044,-374000.0,-1.0,0.0,0.0,0.0,0.0,0.0,0.0,0.0,0.0
1737285476.939024,12952,1737285476,934806240,base_link,-314000.0,-61000.000000000044,-374000.0,-1.0,0.0,0.0,0.0,0.0,0.0,0.0,0.0,0.0
1737285477.0410838,12953,1737285477,34793496,base_link,-318000.0,-72000.00000000004,-353000.0,-1.0,0.0,0.0,0.0,0.0,0.0,0.0,0.0,0.0
1737285477.140653,12954,1737285477,134793752,base_link,-336000.0,-76000.00000000004,-374000.0,-1.0,0.0,0.0,0.0,0.0,0.0,0.0,0.0,0.0
1737285477.2401066,12955,1737285477,234822008,base_link,-345000.0,-71000.00000000004,-343000.0,-1.0,0.0,0.0,0.0,0.0,0.0,0.0,0.0,0.0
1737285477.3402157,12956,1737285477,334814264,base_link,-352000.0,-81000.00000000004,-329000.0,-1.0,0.0,0.0,0.0,0.0,0.0,0.0,0.0,0.0
1737285477.4404056,12957,1737285477,434821776,base_link,-354000.0,-91000.00000000004,-310000.0,-1.0,0.0,0.0,0.0,0.0,0.0,0.0,0.0,0.0
1737285477.5398328,12958,1737285477,534716032,base_link,-362000.0,-96000.00000000004,-305000.0,-1.0,0.0,0.0,0.0,0.0,0.0,0.0,0.0,0.0
1737285477.6389277,12959,1737285477,634806288,base_link,-366000.0,-107000.00000000004,-307000.0,-1.0,0.0,0.0,0.0,0.0,0.0,0.0,0.0,0.0
1737285477.7404883,12960,1737285477,734804800,base_link,-371000.0,-100000.00000000003,-286000.0,-1.0,0.0,0.0,0.0,0.0,0.0,0.0,0.0,0.0
1737285477.8400946,12961,1737285477,834806056,base_link,-379000.0,-106000.00000000004,-323000.0,-1.0,0.0,0.0,0.0,0.0,0.0,0.0,0.0,0.0
1737285477.9419587,12962,1737285477,934822568,base_link,-375000.0,-103000.00000000004,-327000.0,-1.0,0.0,0.0,0.0,0.0,0.0,0.0,0.0,0.0
1737285478.041847,12963,1737285478,35790080,base_link,-357000.0,-94000.00000000004,-351000.0,-1.0,0.0,0.0,0.0,0.0,0.0,0.0,0.0,0.0
1737285478.1406865,12964,1737285478,134807592,base_link,-336000.0,-89000.00000000004,-340000.0,-1.0,0.0,0.0,0.0,0.0,0.0,0.0,0.0,0.0
1737285478.240219,12965,1737285478,234723848,base_link,-327000.0,-89000.00000000004,-324000.0,-1.0,0.0,0.0,0.0,0.0,0.0,0.0,0.0,0.0
1737285478.3422613,12966,1737285478,334822080,base_link,-319000.0,-91000.00000000004,-379000.0,-1.0,0.0,0.0,0.0,0.0,0.0,0.0,0.0,0.0
1737285478.4407868,12967,1737285478,434806104,base_link,-318000.0,-85000.00000000004,-369000.0,-1.0,0.0,0.0,0.0,0.0,0.0,0.0,0.0,0.0
1737285478.5423167,12968,1737285478,534835080,base_link,-316000.0,-93000.00000000004,-371000.0,-1.0,0.0,0.0,0.0,0.0,0.0,0.0,0.0,0.0
1737285478.6402528,12969,1737285478,634791592,base_link,-319000.0,-83000.00000000004,-375000.0,-1.0,0.0,0.0,0.0,0.0,0.0,0.0,0.0,0.0
1737285478.7414198,12970,1737285478,734792824,base_link,-304000.0,-97000.00000000004,-363000.0,-1.0,0.0,0.0,0.0,0.0,0.0,0.0,0.0,0.0
1737285478.8454986,12971,1737285478,834805336,base_link,-292000.0,-98000.00000000004,-373000.0,-1.0,0.0,0.0,0.0,0.0,0.0,0.0,0.0,0.0
1737285478.9397457,12972,1737285478,934795312,base_link,-281000.0,-97000.00000000004,-387000.0,-1.0,0.0,0.0,0.0,0.0,0.0,0.0,0.0,0.0
1737285479.0404887,12973,1737285479,34862824,base_link,-282000.0,-93000.00000000004,-362000.0,-1.0,0.0,0.0,0.0,0.0,0.0,0.0,0.0,0.0
1737285479.1397667,12974,1737285479,134725336,base_link,-300000.0,-84000.00000000004,-373000.0,-1.0,0.0,0.0,0.0,0.0,0.0,0.0,0.0,0.0
1737285479.2405279,12975,1737285479,234821104,base_link,-319000.0,-81000.00000000004,-335000.0,-1.0,0.0,0.0,0.0,0.0,0.0,0.0,0.0,0.0
1737285479.3423119,12976,1737285479,334822968,base_link,-337000.0,-89000.00000000004,-331000.0,-1.0,0.0,0.0,0.0,0.0,0.0,0.0,0.0,0.0
1737285479.4453945,12977,1737285479,435826736,base_link,-349000.0,-85000.00000000004,-342000.0,-1.0,0.0,0.0,0.0,0.0,0.0,0.0,0.0,0.0
1737285479.5408812,12978,1737285479,534802224,base_link,-358000.0,-84000.00000000004,-342000.0,-1.0,0.0,0.0,0.0,0.0,0.0,0.0,0.0,0.0
1737285479.648782,12979,1737285479,634837992,base_link,-352000.0,-77000.00000000004,-329000.0,-1.0,0.0,0.0,0.0,0.0,0.0,0.0,0.0,0.0
1737285479.7408845,12980,1737285479,734723224,base_link,-356000.0,-90000.00000000004,-332000.0,-1.0,0.0,0.0,0.0,0.0,0.0,0.0,0.0,0.0
1737285479.8436108,12981,1737285479,834767736,base_link,-366000.0,-92000.00000000004,-336000.0,-1.0,0.0,0.0,0.0,0.0,0.0,0.0,0.0,0.0
1737285479.9402938,12982,1737285479,935329016,base_link,-379000.0,-96000.00000000004,-364000.0,-1.0,0.0,0.0,0.0,0.0,0.0,0.0,0.0,0.0
1737285480.0415068,12983,1737285480,34723016,base_link,-374000.0,-88000.00000000004,-319000.0,-1.0,0.0,0.0,0.0,0.0,0.0,0.0,0.0,0.0
1737285480.1416776,12984,1737285480,135345504,base_link,-376000.0,-92000.00000000004,-324000.0,-1.0,0.0,0.0,0.0,0.0,0.0,0.0,0.0,0.0
1737285480.2395482,12985,1737285480,234820552,base_link,-374000.0,-100000.00000000004,-348000.0,-1.0,0.0,0.0,0.0,0.0,0.0,0.0,0.0,0.0
1737285480.3505185,12986,1737285480,334803576,base_link,-368000.0,-94000.00000000004,-311000.0,-1.0,0.0,0.0,0.0,0.0,0.0,0.0,0.0,0.0
1737285480.4447558,12987,1737285480,435318576,base_link,-367000.0,-102000.00000000004,-314000.0,-1.0,0.0,0.0,0.0,0.0,0.0,0.0,0.0,0.0
1737285480.542256,12988,1737285480,535814064,base_link,-383000.0,-105000.00000000004,-319000.0,-1.0,0.0,0.0,0.0,0.0,0.0,0.0,0.0,0.0
1737285480.639783,12989,1737285480,634814344,base_link,-387000.0,-107000.00000000004,-308000.0,-1.0,0.0,0.0,0.0,0.0,0.0,0.0,0.0,0.0
1737285480.7423124,12990,1737285480,734826088,base_link,-401000.0,-102000.00000000004,-319000.0,-1.0,0.0,0.0,0.0,0.0,0.0,0.0,0.0,0.0
1737285480.8412423,12991,1737285480,834817112,base_link,-400000.0,-104000.00000000004,-304000.0,-1.0,0.0,0.0,0.0,0.0,0.0,0.0,0.0,0.0
1737285480.9439142,12992,1737285480,934827112,base_link,-402000.0,-81000.00000000004,-319000.0,-1.0,0.0,0.0,0.0,0.0,0.0,0.0,0.0,0.0
1737285481.041181,12993,1737285481,34866880,base_link,-401000.0,-91000.00000000004,-311000.0,-1.0,0.0,0.0,0.0,0.0,0.0,0.0,0.0,0.0
1737285481.140393,12994,1737285481,134835624,base_link,-404000.0,-101000.00000000003,-289000.0,-1.0,0.0,0.0,0.0,0.0,0.0,0.0,0.0,0.0
1737285481.2417142,12995,1737285481,234841392,base_link,-406000.0,-77000.00000000003,-275000.0,-1.0,0.0,0.0,0.0,0.0,0.0,0.0,0.0,0.0
1737285481.3436573,12996,1737285481,334805136,base_link,-400000.0,-53000.00000000004,-302000.0,-1.0,0.0,0.0,0.0,0.0,0.0,0.0,0.0,0.0
1737285481.441474,12997,1737285481,434818160,base_link,-398000.0,-29000.000000000036,-292000.0,-1.0,0.0,0.0,0.0,0.0,0.0,0.0,0.0,0.0
1737285481.5434694,12998,1737285481,534983904,base_link,-400000.0,9999.999999999962,-307000.0,-1.0,0.0,0.0,0.0,0.0,0.0,0.0,0.0,0.0
1737285481.6425545,12999,1737285481,634825928,base_link,-399000.0,50999.99999999996,-280000.0,-1.0,0.0,0.0,0.0,0.0,0.0,0.0,0.0,0.0
1737285481.745354,13000,1737285481,734839208,base_link,-387000.0,103999.99999999997,-289000.0,-1.0,0.0,0.0,0.0,0.0,0.0,0.0,0.0,0.0
1737285481.8419595,13001,1737285481,834809232,base_link,-359000.0,144999.99999999997,-291000.0,-1.0,0.0,0.0,0.0,0.0,0.0,0.0,0.0,0.0
1737285481.9458785,13002,1737285481,934834232,base_link,-330000.0,183999.99999999997,-293000.0,-1.0,0.0,0.0,0.0,0.0,0.0,0.0,0.0,0.0
1737285482.0406585,13003,1737285482,34824512,base_link,-299000.0,228999.99999999997,-289000.0,-1.0,0.0,0.0,0.0,0.0,0.0,0.0,0.0,0.0
1737285482.1421938,13004,1737285482,134830512,base_link,-271000.0,251999.99999999997,-303000.00000000006,-1.0,0.0,0.0,0.0,0.0,0.0,0.0,0.0,0.0
1737285482.2401874,13005,1737285482,234816512,base_link,-237000.0,259999.99999999997,-316000.00000000006,-1.0,0.0,0.0,0.0,0.0,0.0,0.0,0.0,0.0
1737285482.3471227,13006,1737285482,335844512,base_link,-207000.0,261999.99999999997,-347000.00000000006,-1.0,0.0,0.0,0.0,0.0,0.0,0.0,0.0,0.0
1737285482.444819,13007,1737285482,434817256,base_link,-176000.0,285999.99999999994,-323000.00000000006,-1.0,0.0,0.0,0.0,0.0,0.0,0.0,0.0,0.0
1737285482.5401134,13008,1737285482,534811256,base_link,-150000.0,319999.99999999994,-279000.00000000006,-1.0,0.0,0.0,0.0,0.0,0.0,0.0,0.0,0.0
1737285482.6398618,13009,1737285482,634821000,base_link,-118000.0,342999.99999999994,-267000.00000000006,-1.0,0.0,0.0,0.0,0.0,0.0,0.0,0.0,0.0
1737285482.7413433,13010,1737285482,735768744,base_link,-81000.0,335999.99999999994,-268000.00000000006,-1.0,0.0,0.0,0.0,0.0,0.0,0.0,0.0,0.0
1737285482.8514314,13011,1737285482,834896488,base_link,-51000.0,303999.99999999994,-316000.00000000006,-1.0,0.0,0.0,0.0,0.0,0.0,0.0,0.0,0.0
1737285482.9390647,13012,1737285482,934806768,base_link,-28000.0,285999.99999999994,-347000.00000000006,-1.0,0.0,0.0,0.0,0.0,0.0,0.0,0.0,0.0
1737285483.0407026,13013,1737285483,34831768,base_link,-11000.0,284999.99999999994,-347000.00000000006,-1.0,0.0,0.0,0.0,0.0,0.0,0.0,0.0,0.0
1737285483.1406527,13014,1737285483,134815768,base_link,9000.0,269999.99999999994,-343000.00000000006,-1.0,0.0,0.0,0.0,0.0,0.0,0.0,0.0,0.0
1737285483.2399702,13015,1737285483,234815768,base_link,32000.0,254999.99999999997,-346000.00000000006,-1.0,0.0,0.0,0.0,0.0,0.0,0.0,0.0,0.0
1737285483.3393574,13016,1737285483,334833024,base_link,52000.0,235999.99999999994,-373000.0,-1.0,0.0,0.0,0.0,0.0,0.0,0.0,0.0,0.0
1737285483.4407413,13017,1737285483,434800024,base_link,72000.0,226999.99999999994,-366000.0,-1.0,0.0,0.0,0.0,0.0,0.0,0.0,0.0,0.0
1737285483.5397518,13018,1737285483,534839280,base_link,93000.0,212999.99999999994,-366000.0,-1.0,0.0,0.0,0.0,0.0,0.0,0.0,0.0,0.0
1737285483.6406782,13019,1737285483,634824280,base_link,115000.0,192999.99999999994,-359000.0,-1.0,0.0,0.0,0.0,0.0,0.0,0.0,0.0,0.0
1737285483.7410896,13020,1737285483,734839304,base_link,127000.0,168999.99999999994,-366000.0,-1.0,0.0,0.0,0.0,0.0,0.0,0.0,0.0,0.0
1737285483.84224,13021,1737285483,834829304,base_link,146000.0,153999.99999999994,-365000.0,-1.0,0.0,0.0,0.0,0.0,0.0,0.0,0.0,0.0
1737285483.9427655,13022,1737285483,934833816,base_link,159000.0,135999.99999999994,-376000.0,-1.0,0.0,0.0,0.0,0.0,0.0,0.0,0.0,0.0
1737285484.0403605,13023,1737285484,34825072,base_link,173000.0,103999.99999999996,-400000.0,-1.0,0.0,0.0,0.0,0.0,0.0,0.0,0.0,0.0
1737285484.1403656,13024,1737285484,134818584,base_link,182000.0,78999.99999999996,-398000.0,-1.0,0.0,0.0,0.0,0.0,0.0,0.0,0.0,0.0
1737285484.2395253,13025,1737285484,234817840,base_link,190000.0,63999.99999999995,-409000.0,-1.0,0.0,0.0,0.0,0.0,0.0,0.0,0.0,0.0
1737285484.3403146,13026,1737285484,334823096,base_link,198000.0,43999.99999999995,-425000.0,-1.0,0.0,0.0,0.0,0.0,0.0,0.0,0.0,0.0
1737285484.4411805,13027,1737285484,434811352,base_link,197000.0,39999.99999999995,-397000.0,-1.0,0.0,0.0,0.0,0.0,0.0,0.0,0.0,0.0
1737285484.542988,13028,1737285484,534818864,base_link,202000.0,38999.99999999995,-402000.0,-1.0,0.0,0.0,0.0,0.0,0.0,0.0,0.0,0.0
1737285484.642208,13029,1737285484,635380120,base_link,199000.0,41999.99999999995,-393000.0,-1.0,0.0,0.0,0.0,0.0,0.0,0.0,0.0,0.0
1737285484.7433355,13030,1737285484,735228752,base_link,214000.0,49999.999999999956,-382000.0,-1.0,0.0,0.0,0.0,0.0,0.0,0.0,0.0,0.0
1737285484.848594,13031,1737285484,835851824,base_link,216000.0,43999.99999999995,-400000.0,-1.0,0.0,0.0,0.0,0.0,0.0,0.0,0.0,0.0
1737285484.9497316,13032,1737285484,935780824,base_link,221000.0,61999.999999999956,-370000.0,-1.0,0.0,0.0,0.0,0.0,0.0,0.0,0.0,0.0
1737285485.043654,13033,1737285485,35835824,base_link,225000.0,78999.99999999996,-361000.0,-1.0,0.0,0.0,0.0,0.0,0.0,0.0,0.0,0.0
1737285485.1389568,13034,1737285485,135000824,base_link,243000.0,84999.99999999996,-345000.0,-1.0,0.0,0.0,0.0,0.0,0.0,0.0,0.0,0.0
1737285485.2584004,13035,1737285485,235791824,base_link,265000.0,91999.99999999996,-323000.0,-1.0,0.0,0.0,0.0,0.0,0.0,0.0,0.0,0.0
1737285485.3436973,13036,1737285485,334855824,base_link,274000.0,92999.99999999996,-321000.0,-1.0,0.0,0.0,0.0,0.0,0.0,0.0,0.0,0.0
1737285485.4410884,13037,1737285485,434796432,base_link,286000.0,112999.99999999997,-289000.0,-1.0,0.0,0.0,0.0,0.0,0.0,0.0,0.0,0.0
1737285485.542809,13038,1737285485,535423552,base_link,290000.0,119999.99999999997,-264000.0,-1.0,0.0,0.0,0.0,0.0,0.0,0.0,0.0,0.0
1737285485.643588,13039,1737285485,635379552,base_link,290000.0,114999.99999999997,-277000.0,-1.0,0.0,0.0,0.0,0.0,0.0,0.0,0.0,0.0
1737285485.7420647,13040,1737285485,735776624,base_link,287000.0,103999.99999999997,-295000.0,-1.0,0.0,0.0,0.0,0.0,0.0,0.0,0.0,0.0
1737285485.8390398,13041,1737285485,834861624,base_link,273000.0,106999.99999999996,-298000.0,-1.0,0.0,0.0,0.0,0.0,0.0,0.0,0.0,0.0
1737285485.9407606,13042,1737285485,934905600,base_link,264000.0,103999.99999999996,-338000.0,-1.0,0.0,0.0,0.0,0.0,0.0,0.0,0.0,0.0
1737285486.0422218,13043,1737285486,35368856,base_link,264000.0,101999.99999999996,-324000.0,-1.0,0.0,0.0,0.0,0.0,0.0,0.0,0.0,0.0
1737285486.1423604,13044,1737285486,134857088,base_link,242000.0,96999.99999999996,-339000.0,-1.0,0.0,0.0,0.0,0.0,0.0,0.0,0.0,0.0
1737285486.2422633,13045,1737285486,234843344,base_link,236000.0,106999.99999999996,-324000.0,-1.0,0.0,0.0,0.0,0.0,0.0,0.0,0.0,0.0
1737285486.342165,13046,1737285486,334853320,base_link,227000.0,91999.99999999996,-346000.0,-1.0,0.0,0.0,0.0,0.0,0.0,0.0,0.0,0.0
1737285486.439439,13047,1737285486,434863576,base_link,213000.0,86999.99999999996,-385000.0,-1.0,0.0,0.0,0.0,0.0,0.0,0.0,0.0,0.0
1737285486.5408647,13048,1737285486,534823552,base_link,202000.0,75999.99999999996,-378000.0,-1.0,0.0,0.0,0.0,0.0,0.0,0.0,0.0,0.0
1737285486.6396332,13049,1737285486,634857552,base_link,195000.0,84999.99999999996,-370000.0,-1.0,0.0,0.0,0.0,0.0,0.0,0.0,0.0,0.0
1737285486.7416697,13050,1737285486,734822784,base_link,193000.0,77999.99999999996,-376000.0,-1.0,0.0,0.0,0.0,0.0,0.0,0.0,0.0,0.0
1737285486.8447516,13051,1737285486,834759296,base_link,196000.0,81999.99999999996,-390000.0,-1.0,0.0,0.0,0.0,0.0,0.0,0.0,0.0,0.0
1737285486.9403095,13052,1737285486,934858808,base_link,206000.0,50999.99999999995,-407000.0,-1.0,0.0,0.0,0.0,0.0,0.0,0.0,0.0,0.0
1737285487.0417638,13053,1737285487,34846320,base_link,205000.0,39999.99999999995,-415000.0,-1.0,0.0,0.0,0.0,0.0,0.0,0.0,0.0,0.0
1737285487.1400356,13054,1737285487,134846832,base_link,192000.0,27999.999999999953,-398000.0,-1.0,0.0,0.0,0.0,0.0,0.0,0.0,0.0,0.0
1737285487.241299,13055,1737285487,234861600,base_link,184000.0,44999.99999999995,-404000.0,-1.0,0.0,0.0,0.0,0.0,0.0,0.0,0.0,0.0
1737285487.340475,13056,1737285487,334858112,base_link,163000.0,79999.99999999996,-414000.0,-1.0,0.0,0.0,0.0,0.0,0.0,0.0,0.0,0.0
1737285487.4400527,13057,1737285487,434848624,base_link,148000.0,94999.99999999994,-507000.0,-1.0,0.0,0.0,0.0,0.0,0.0,0.0,0.0,0.0
1737285487.5399892,13058,1737285487,534876392,base_link,135000.0,146999.99999999994,-404000.0,-1.0,0.0,0.0,0.0,0.0,0.0,0.0,0.0,0.0
1737285487.640807,13059,1737285487,634850160,base_link,106000.0,178999.99999999994,-379000.0,-1.0,0.0,0.0,0.0,0.0,0.0,0.0,0.0,0.0
1737285487.7415776,13060,1737285487,734845904,base_link,86000.0,199999.99999999994,-389000.0,-1.0,0.0,0.0,0.0,0.0,0.0,0.0,0.0,0.0
1737285487.8397598,13061,1737285487,834857672,base_link,68000.0,224999.99999999997,-351000.0,-1.0,0.0,0.0,0.0,0.0,0.0,0.0,0.0,0.0
1737285487.9405634,13062,1737285487,934782160,base_link,44000.0,228999.99999999994,-368000.0,-1.0,0.0,0.0,0.0,0.0,0.0,0.0,0.0,0.0
1737285488.0401096,13063,1737285488,34869928,base_link,30000.0,236999.99999999994,-382000.0,-1.0,0.0,0.0,0.0,0.0,0.0,0.0,0.0,0.0
1737285488.141821,13064,1737285488,134838952,base_link,23000.0,236999.99999999994,-369000.0,-1.0,0.0,0.0,0.0,0.0,0.0,0.0,0.0,0.0
1737285488.2434146,13065,1737285488,234879720,base_link,20000.0,240999.99999999994,-362000.00000000006,-1.0,0.0,0.0,0.0,0.0,0.0,0.0,0.0,0.0
1737285488.3406398,13066,1737285488,334764208,base_link,20000.0,248999.99999999997,-355000.00000000006,-1.0,0.0,0.0,0.0,0.0,0.0,0.0,0.0,0.0
1737285488.440417,13067,1737285488,434780976,base_link,22000.0,254999.99999999997,-331000.00000000006,-1.0,0.0,0.0,0.0,0.0,0.0,0.0,0.0,0.0
1737285488.5402424,13068,1737285488,534827720,base_link,21000.0,270999.99999999994,-330000.00000000006,-1.0,0.0,0.0,0.0,0.0,0.0,0.0,0.0,0.0
1737285488.6401215,13069,1737285488,634771744,base_link,15000.0,264999.99999999994,-357000.00000000006,-1.0,0.0,0.0,0.0,0.0,0.0,0.0,0.0,0.0
1737285488.740973,13070,1737285488,734877488,base_link,11000.0,263999.99999999994,-351000.00000000006,-1.0,0.0,0.0,0.0,0.0,0.0,0.0,0.0,0.0
1737285488.8411744,13071,1737285488,834835512,base_link,0.0,271999.99999999994,-352000.00000000006,-1.0,0.0,0.0,0.0,0.0,0.0,0.0,0.0,0.0
1737285488.9412847,13072,1737285488,934854256,base_link,-9000.0,275999.99999999994,-365000.00000000006,-1.0,0.0,0.0,0.0,0.0,0.0,0.0,0.0,0.0
1737285489.0410671,13073,1737285489,34874280,base_link,-8000.0,277999.99999999994,-338000.00000000006,-1.0,0.0,0.0,0.0,0.0,0.0,0.0,0.0,0.0
1737285489.1396697,13074,1737285489,134786768,base_link,-30000.0,272999.99999999994,-360000.00000000006,-1.0,0.0,0.0,0.0,0.0,0.0,0.0,0.0,0.0
1737285489.2409484,13075,1737285489,234850792,base_link,-43000.0,287999.99999999994,-341000.00000000006,-1.0,0.0,0.0,0.0,0.0,0.0,0.0,0.0,0.0
1737285489.3390524,13076,1737285489,334788536,base_link,-58000.0,281999.99999999994,-352000.00000000006,-1.0,0.0,0.0,0.0,0.0,0.0,0.0,0.0,0.0
1737285489.441157,13077,1737285489,434849560,base_link,-91000.0,281999.99999999994,-356000.00000000006,-1.0,0.0,0.0,0.0,0.0,0.0,0.0,0.0,0.0
1737285489.5398016,13078,1737285489,534874096,base_link,-119000.0,283999.99999999994,-326000.00000000006,-1.0,0.0,0.0,0.0,0.0,0.0,0.0,0.0,0.0
1737285489.6414626,13079,1737285489,634859584,base_link,-155000.0,265999.99999999994,-350000.00000000006,-1.0,0.0,0.0,0.0,0.0,0.0,0.0,0.0,0.0
1737285489.7401252,13080,1737285489,734851328,base_link,-194000.0,256999.99999999997,-339000.00000000006,-1.0,0.0,0.0,0.0,0.0,0.0,0.0,0.0,0.0
1737285489.8424249,13081,1737285489,834867072,base_link,-212000.0,249999.99999999997,-315000.00000000006,-1.0,0.0,0.0,0.0,0.0,0.0,0.0,0.0,0.0
1737285489.940291,13082,1737285489,934898072,base_link,-225000.0,240999.99999999997,-321000.00000000006,-1.0,0.0,0.0,0.0,0.0,0.0,0.0,0.0,0.0
1737285490.0425072,13083,1737285490,34878816,base_link,-230000.0,242999.99999999997,-325000.00000000006,-1.0,0.0,0.0,0.0,0.0,0.0,0.0,0.0,0.0
1737285490.13993,13084,1737285490,134863352,base_link,-224000.0,248999.99999999997,-334000.00000000006,-1.0,0.0,0.0,0.0,0.0,0.0,0.0,0.0,0.0
1737285490.240096,13085,1737285490,234850096,base_link,-220000.0,250999.99999999997,-316000.00000000006,-1.0,0.0,0.0,0.0,0.0,0.0,0.0,0.0,0.0
1737285490.3387685,13086,1737285490,334773096,base_link,-208000.0,271999.99999999994,-308000.00000000006,-1.0,0.0,0.0,0.0,0.0,0.0,0.0,0.0,0.0
1737285490.4418972,13087,1737285490,434847840,base_link,-195000.0,273999.99999999994,-321000.00000000006,-1.0,0.0,0.0,0.0,0.0,0.0,0.0,0.0,0.0
1737285490.5384142,13088,1737285490,534865840,base_link,-173000.0,281999.99999999994,-315000.00000000006,-1.0,0.0,0.0,0.0,0.0,0.0,0.0,0.0,0.0
1737285490.641534,13089,1737285490,634862584,base_link,-162000.0,283999.99999999994,-303000.00000000006,-1.0,0.0,0.0,0.0,0.0,0.0,0.0,0.0,0.0
1737285490.7395804,13090,1737285490,734819584,base_link,-159000.0,286999.99999999994,-317000.00000000006,-1.0,0.0,0.0,0.0,0.0,0.0,0.0,0.0,0.0
1737285490.8406599,13091,1737285490,834876328,base_link,-149000.0,294999.99999999994,-329000.00000000006,-1.0,0.0,0.0,0.0,0.0,0.0,0.0,0.0,0.0
1737285490.9405286,13092,1737285490,934854328,base_link,-135000.0,285999.99999999994,-325000.00000000006,-1.0,0.0,0.0,0.0,0.0,0.0,0.0,0.0,0.0
1737285491.0408583,13093,1737285491,34874072,base_link,-136000.0,276999.99999999994,-334000.00000000006,-1.0,0.0,0.0,0.0,0.0,0.0,0.0,0.0,0.0
1737285491.1398096,13094,1737285491,134943328,base_link,-144000.0,276999.99999999994,-337000.00000000006,-1.0,0.0,0.0,0.0,0.0,0.0,0.0,0.0,0.0
1737285491.2410038,13095,1737285491,234857072,base_link,-133000.0,282999.99999999994,-313000.00000000006,-1.0,0.0,0.0,0.0,0.0,0.0,0.0,0.0,0.0
1737285491.340238,13096,1737285491,334870328,base_link,-135000.0,284999.99999999994,-334000.00000000006,-1.0,0.0,0.0,0.0,0.0,0.0,0.0,0.0,0.0
1737285491.440643,13097,1737285491,434839328,base_link,-138000.0,276999.99999999994,-357000.00000000006,-1.0,0.0,0.0,0.0,0.0,0.0,0.0,0.0,0.0
1737285491.540432,13098,1737285491,534867328,base_link,-148000.0,273999.99999999994,-341000.00000000006,-1.0,0.0,0.0,0.0,0.0,0.0,0.0,0.0,0.0
1737285491.6402874,13099,1737285491,634879328,base_link,-150000.0,265999.99999999994,-357000.00000000006,-1.0,0.0,0.0,0.0,0.0,0.0,0.0,0.0,0.0
1737285491.7409804,13100,1737285491,734862192,base_link,-149000.0,270999.99999999994,-341000.00000000006,-1.0,0.0,0.0,0.0,0.0,0.0,0.0,0.0,0.0
1737285491.8399699,13101,1737285491,834873192,base_link,-152000.0,269999.99999999994,-327000.00000000006,-1.0,0.0,0.0,0.0,0.0,0.0,0.0,0.0,0.0
1737285491.940109,13102,1737285491,934865192,base_link,-158000.0,264999.99999999994,-395000.00000000006,-1.0,0.0,0.0,0.0,0.0,0.0,0.0,0.0,0.0
1737285492.0404727,13103,1737285492,34902312,base_link,-156000.0,278999.99999999994,-332000.00000000006,-1.0,0.0,0.0,0.0,0.0,0.0,0.0,0.0,0.0
1737285492.14304,13104,1737285492,134859456,base_link,-154000.0,274999.99999999994,-320000.00000000006,-1.0,0.0,0.0,0.0,0.0,0.0,0.0,0.0,0.0
1737285492.2421067,13105,1737285492,234882456,base_link,-156000.0,283999.99999999994,-308000.00000000006,-1.0,0.0,0.0,0.0,0.0,0.0,0.0,0.0,0.0
1737285492.3407767,13106,1737285492,334884712,base_link,-150000.0,286999.99999999994,-303000.00000000006,-1.0,0.0,0.0,0.0,0.0,0.0,0.0,0.0,0.0
1737285492.4399736,13107,1737285492,434846968,base_link,-160000.0,291999.99999999994,-313000.00000000006,-1.0,0.0,0.0,0.0,0.0,0.0,0.0,0.0,0.0
1737285492.5399592,13108,1737285492,534852224,base_link,-161000.0,292999.99999999994,-311000.00000000006,-1.0,0.0,0.0,0.0,0.0,0.0,0.0,0.0,0.0
1737285492.6400237,13109,1737285492,634890344,base_link,-154000.0,286999.99999999994,-311000.00000000006,-1.0,0.0,0.0,0.0,0.0,0.0,0.0,0.0,0.0
1737285492.7414722,13110,1737285492,734911856,base_link,-158000.0,290999.99999999994,-319000.00000000006,-1.0,0.0,0.0,0.0,0.0,0.0,0.0,0.0,0.0
1737285492.840836,13111,1737285492,834884856,base_link,-167000.0,285999.99999999994,-333000.00000000006,-1.0,0.0,0.0,0.0,0.0,0.0,0.0,0.0,0.0
1737285492.9413993,13112,1737285492,934877232,base_link,-169000.0,270999.99999999994,-362000.00000000006,-1.0,0.0,0.0,0.0,0.0,0.0,0.0,0.0,0.0
1737285493.0412188,13113,1737285493,34883744,base_link,-161000.0,273999.99999999994,-328000.00000000006,-1.0,0.0,0.0,0.0,0.0,0.0,0.0,0.0,0.0
1737285493.1396601,13114,1737285493,134867256,base_link,-165000.0,271999.99999999994,-333000.00000000006,-1.0,0.0,0.0,0.0,0.0,0.0,0.0,0.0,0.0
1737285493.2426088,13115,1737285493,234896768,base_link,-169000.0,264999.99999999994,-341000.00000000006,-1.0,0.0,0.0,0.0,0.0,0.0,0.0,0.0,0.0
1737285493.3428214,13116,1737285493,334879608,base_link,-166000.0,268999.99999999994,-325000.00000000006,-1.0,0.0,0.0,0.0,0.0,0.0,0.0,0.0,0.0
1737285493.4431787,13117,1737285493,434908120,base_link,-159000.0,268999.99999999994,-350000.00000000006,-1.0,0.0,0.0,0.0,0.0,0.0,0.0,0.0,0.0
1737285493.5414412,13118,1737285493,534889096,base_link,-159000.0,268999.99999999994,-333000.00000000006,-1.0,0.0,0.0,0.0,0.0,0.0,0.0,0.0,0.0
1737285493.643285,13119,1737285493,634905608,base_link,-159000.0,280999.99999999994,-308000.00000000006,-1.0,0.0,0.0,0.0,0.0,0.0,0.0,0.0,0.0
1737285493.7428484,13120,1737285493,734900192,base_link,-158000.0,290999.99999999994,-325000.00000000006,-1.0,0.0,0.0,0.0,0.0,0.0,0.0,0.0,0.0
1737285493.845853,13121,1737285493,834909960,base_link,-159000.0,290999.99999999994,-314000.00000000006,-1.0,0.0,0.0,0.0,0.0,0.0,0.0,0.0,0.0
1737285493.9424274,13122,1737285493,934890192,base_link,-164000.0,288999.99999999994,-318000.00000000006,-1.0,0.0,0.0,0.0,0.0,0.0,0.0,0.0,0.0
1737285494.0404189,13123,1737285494,34889704,base_link,-167000.0,285999.99999999994,-348000.00000000006,-1.0,0.0,0.0,0.0,0.0,0.0,0.0,0.0,0.0
1737285494.146172,13124,1737285494,134886936,base_link,-167000.0,284999.99999999994,-340000.00000000006,-1.0,0.0,0.0,0.0,0.0,0.0,0.0,0.0,0.0
1737285494.2404528,13125,1737285494,234894032,base_link,-164000.0,261999.99999999997,-325000.00000000006,-1.0,0.0,0.0,0.0,0.0,0.0,0.0,0.0,0.0
1737285494.339643,13126,1737285494,334897520,base_link,-160000.0,268999.99999999994,-330000.00000000006,-1.0,0.0,0.0,0.0,0.0,0.0,0.0,0.0,0.0
1737285494.4396472,13127,1737285494,434910616,base_link,-157000.0,277999.99999999994,-318000.00000000006,-1.0,0.0,0.0,0.0,0.0,0.0,0.0,0.0,0.0
1737285494.539711,13128,1737285494,534916848,base_link,-157000.0,282999.99999999994,-317000.00000000006,-1.0,0.0,0.0,0.0,0.0,0.0,0.0,0.0,0.0
1737285494.6406596,13129,1737285494,634909944,base_link,-157000.0,282999.99999999994,-308000.00000000006,-1.0,0.0,0.0,0.0,0.0,0.0,0.0,0.0,0.0
1737285494.739785,13130,1737285494,734911040,base_link,-159000.0,289999.99999999994,-301000.00000000006,-1.0,0.0,0.0,0.0,0.0,0.0,0.0,0.0,0.0
1737285494.8405535,13131,1737285494,834915136,base_link,-168000.0,279999.99999999994,-351000.00000000006,-1.0,0.0,0.0,0.0,0.0,0.0,0.0,0.0,0.0
1737285494.939959,13132,1737285494,934830768,base_link,-170000.0,277999.99999999994,-323000.00000000006,-1.0,0.0,0.0,0.0,0.0,0.0,0.0,0.0,0.0
1737285495.0407934,13133,1737285495,34945536,base_link,-167000.0,270999.99999999994,-333000.00000000006,-1.0,0.0,0.0,0.0,0.0,0.0,0.0,0.0,0.0
1737285495.1398869,13134,1737285495,134836768,base_link,-161000.0,271999.99999999994,-336000.00000000006,-1.0,0.0,0.0,0.0,0.0,0.0,0.0,0.0,0.0
1737285495.2424426,13135,1737285495,234937536,base_link,-160000.0,274999.99999999994,-315000.00000000006,-1.0,0.0,0.0,0.0,0.0,0.0,0.0,0.0,0.0
1737285495.3421884,13136,1737285495,334932424,base_link,-164000.0,279999.99999999994,-324000.00000000006,-1.0,0.0,0.0,0.0,0.0,0.0,0.0,0.0,0.0
1737285495.4432852,13137,1737285495,434950448,base_link,-169000.0,279999.99999999994,-333000.00000000006,-1.0,0.0,0.0,0.0,0.0,0.0,0.0,0.0,0.0
1737285495.5431223,13138,1737285495,534942336,base_link,-165000.0,273999.99999999994,-316000.00000000006,-1.0,0.0,0.0,0.0,0.0,0.0,0.0,0.0,0.0
1737285495.6407657,13139,1737285495,634947688,base_link,-164000.0,273999.99999999994,-335000.00000000006,-1.0,0.0,0.0,0.0,0.0,0.0,0.0,0.0,0.0
1737285495.74075,13140,1737285495,734939712,base_link,-157000.0,284999.99999999994,-300000.00000000006,-1.0,0.0,0.0,0.0,0.0,0.0,0.0,0.0,0.0
1737285495.840222,13141,1737285495,834870064,base_link,-168000.0,285999.99999999994,-351000.00000000006,-1.0,0.0,0.0,0.0,0.0,0.0,0.0,0.0,0.0
1737285495.942881,13142,1737285495,934900416,base_link,-170000.0,266999.99999999994,-359000.00000000006,-1.0,0.0,0.0,0.0,0.0,0.0,0.0,0.0,0.0
1737285496.0426493,13143,1737285496,34943024,base_link,-163000.0,277999.99999999994,-322000.00000000006,-1.0,0.0,0.0,0.0,0.0,0.0,0.0,0.0,0.0
1737285496.1431806,13144,1737285496,134973048,base_link,-164000.0,275999.99999999994,-315000.00000000006,-1.0,0.0,0.0,0.0,0.0,0.0,0.0,0.0,0.0
1737285496.2432153,13145,1737285496,234922072,base_link,-173000.0,281999.99999999994,-355000.00000000006,-1.0,0.0,0.0,0.0,0.0,0.0,0.0,0.0,0.0
1737285496.340714,13146,1737285496,334992816,base_link,-171000.0,283999.99999999994,-333000.00000000006,-1.0,0.0,0.0,0.0,0.0,0.0,0.0,0.0,0.0
1737285496.4409022,13147,1737285496,434955840,base_link,-167000.0,269999.99999999994,-329000.00000000006,-1.0,0.0,0.0,0.0,0.0,0.0,0.0,0.0,0.0
1737285496.5399714,13148,1737285496,534968864,base_link,-165000.0,276999.99999999994,-351000.00000000006,-1.0,0.0,0.0,0.0,0.0,0.0,0.0,0.0,0.0
1737285496.640762,13149,1737285496,634934888,base_link,-172000.0,281999.99999999994,-334000.00000000006,-1.0,0.0,0.0,0.0,0.0,0.0,0.0,0.0,0.0
1737285496.73863,13150,1737285496,734926496,base_link,-168000.0,272999.99999999994,-315000.00000000006,-1.0,0.0,0.0,0.0,0.0,0.0,0.0,0.0,0.0
1737285496.8428178,13151,1737285496,834961776,base_link,-166000.0,282999.99999999994,-305000.00000000006,-1.0,0.0,0.0,0.0,0.0,0.0,0.0,0.0,0.0
1737285496.9433534,13152,1737285496,934985384,base_link,-175000.0,284999.99999999994,-329000.00000000006,-1.0,0.0,0.0,0.0,0.0,0.0,0.0,0.0,0.0
1737285497.0398023,13153,1737285497,34983128,base_link,-176000.0,277999.99999999994,-353000.00000000006,-1.0,0.0,0.0,0.0,0.0,0.0,0.0,0.0,0.0
1737285497.1414373,13154,1737285497,134947872,base_link,-168000.0,272999.99999999994,-325000.00000000006,-1.0,0.0,0.0,0.0,0.0,0.0,0.0,0.0,0.0
1737285497.2422252,13155,1737285497,234976736,base_link,-167000.0,280999.99999999994,-313000.00000000006,-1.0,0.0,0.0,0.0,0.0,0.0,0.0,0.0,0.0
1737285497.3401198,13156,1737285497,334964600,base_link,-175000.0,281999.99999999994,-329000.00000000006,-1.0,0.0,0.0,0.0,0.0,0.0,0.0,0.0,0.0
1737285497.4406633,13157,1737285497,434990344,base_link,-170000.0,277999.99999999994,-333000.00000000006,-1.0,0.0,0.0,0.0,0.0,0.0,0.0,0.0,0.0
1737285497.540748,13158,1737285497,534987344,base_link,-170000.0,267999.99999999994,-319000.00000000006,-1.0,0.0,0.0,0.0,0.0,0.0,0.0,0.0,0.0
1737285497.6420949,13159,1737285497,634963088,base_link,-168000.0,283999.99999999994,-308000.00000000006,-1.0,0.0,0.0,0.0,0.0,0.0,0.0,0.0,0.0
1737285497.7407146,13160,1737285497,734987088,base_link,-177000.0,288999.99999999994,-339000.00000000006,-1.0,0.0,0.0,0.0,0.0,0.0,0.0,0.0,0.0
1737285497.8389397,13161,1737285497,834970952,base_link,-174000.0,272999.99999999994,-339000.00000000006,-1.0,0.0,0.0,0.0,0.0,0.0,0.0,0.0,0.0
1737285497.9393976,13162,1737285497,934916816,base_link,-166000.0,271999.99999999994,-334000.00000000006,-1.0,0.0,0.0,0.0,0.0,0.0,0.0,0.0,0.0
1737285498.0400114,13163,1737285498,34996680,base_link,-171000.0,284999.99999999994,-303000.00000000006,-1.0,0.0,0.0,0.0,0.0,0.0,0.0,0.0,0.0
1737285498.1396425,13164,1737285498,134998544,base_link,-177000.0,277999.99999999994,-350000.00000000006,-1.0,0.0,0.0,0.0,0.0,0.0,0.0,0.0,0.0
1737285498.2407897,13165,1737285498,235017408,base_link,-171000.0,267999.99999999994,-356000.00000000006,-1.0,0.0,0.0,0.0,0.0,0.0,0.0,0.0,0.0
1737285498.3460286,13166,1737285498,334996272,base_link,-163000.0,269999.99999999994,-326000.00000000006,-1.0,0.0,0.0,0.0,0.0,0.0,0.0,0.0,0.0
1737285498.4399366,13167,1737285498,435016136,base_link,-164000.0,289999.99999999994,-315000.00000000006,-1.0,0.0,0.0,0.0,0.0,0.0,0.0,0.0,0.0
1737285498.540728,13168,1737285498,535024880,base_link,-170000.0,273999.99999999994,-332000.00000000006,-1.0,0.0,0.0,0.0,0.0,0.0,0.0,0.0,0.0
1737285498.6409855,13169,1737285498,634995744,base_link,-165000.0,273999.99999999994,-328000.00000000006,-1.0,0.0,0.0,0.0,0.0,0.0,0.0,0.0,0.0
1737285498.7409,13170,1737285498,735018608,base_link,-172000.0,281999.99999999994,-322000.00000000006,-1.0,0.0,0.0,0.0,0.0,0.0,0.0,0.0,0.0
1737285498.8408117,13171,1737285498,835038472,base_link,-175000.0,285999.99999999994,-335000.00000000006,-1.0,0.0,0.0,0.0,0.0,0.0,0.0,0.0,0.0
1737285498.9396048,13172,1737285498,934956592,base_link,-170000.0,273999.99999999994,-348000.00000000006,-1.0,0.0,0.0,0.0,0.0,0.0,0.0,0.0,0.0
1737285499.0410876,13173,1737285499,35036712,base_link,-163000.0,268999.99999999994,-325000.00000000006,-1.0,0.0,0.0,0.0,0.0,0.0,0.0,0.0,0.0
1737285499.1407323,13174,1737285499,135040088,base_link,-166000.0,281999.99999999994,-305000.00000000006,-1.0,0.0,0.0,0.0,0.0,0.0,0.0,0.0,0.0
1737285499.2396545,13175,1737285499,235129208,base_link,-172000.0,276999.99999999994,-339000.00000000006,-1.0,0.0,0.0,0.0,0.0,0.0,0.0,0.0,0.0
1737285499.3406723,13176,1737285499,335049328,base_link,-164000.0,267999.99999999994,-340000.00000000006,-1.0,0.0,0.0,0.0,0.0,0.0,0.0,0.0,0.0
1737285499.440688,13177,1737285499,434972704,base_link,-163000.0,280999.99999999994,-302000.00000000006,-1.0,0.0,0.0,0.0,0.0,0.0,0.0,0.0,0.0
1737285499.540912,13178,1737285499,535067080,base_link,-171000.0,287999.99999999994,-327000.00000000006,-1.0,0.0,0.0,0.0,0.0,0.0,0.0,0.0,0.0
1737285499.6407125,13179,1737285499,635055456,base_link,-169000.0,281999.99999999994,-314000.00000000006,-1.0,0.0,0.0,0.0,0.0,0.0,0.0,0.0,0.0
1737285499.7468057,13180,1737285499,735083576,base_link,-160000.0,273999.99999999994,-330000.00000000006,-1.0,0.0,0.0,0.0,0.0,0.0,0.0,0.0,0.0
1737285499.840039,13181,1737285499,835070952,base_link,-161000.0,283999.99999999994,-294000.00000000006,-1.0,0.0,0.0,0.0,0.0,0.0,0.0,0.0,0.0
1737285499.945357,13182,1737285499,935083328,base_link,-169000.0,284999.99999999994,-324000.00000000006,-1.0,0.0,0.0,0.0,0.0,0.0,0.0,0.0,0.0
1737285500.0402257,13183,1737285500,35010704,base_link,-171000.0,258999.99999999994,-357000.00000000006,-1.0,0.0,0.0,0.0,0.0,0.0,0.0,0.0,0.0
1737285500.140396,13184,1737285500,135017704,base_link,-165000.0,267999.99999999994,-331000.00000000006,-1.0,0.0,0.0,0.0,0.0,0.0,0.0,0.0,0.0
1737285500.240959,13185,1737285500,235086544,base_link,-164000.0,273999.99999999994,-320000.00000000006,-1.0,0.0,0.0,0.0,0.0,0.0,0.0,0.0,0.0
1737285500.342238,13186,1737285500,335105800,base_link,-170000.0,268999.99999999994,-342000.00000000006,-1.0,0.0,0.0,0.0,0.0,0.0,0.0,0.0,0.0
1737285500.4421947,13187,1737285500,435105640,base_link,-165000.0,258999.99999999997,-336000.00000000006,-1.0,0.0,0.0,0.0,0.0,0.0,0.0,0.0,0.0
1737285500.5484905,13188,1737285500,535098760,base_link,-160000.0,260999.99999999997,-320000.00000000006,-1.0,0.0,0.0,0.0,0.0,0.0,0.0,0.0,0.0
1737285500.6422505,13189,1737285500,635117600,base_link,-156000.0,255999.99999999997,-320000.00000000006,-1.0,0.0,0.0,0.0,0.0,0.0,0.0,0.0,0.0
1737285500.741839,13190,1737285500,735120184,base_link,-159000.0,254999.99999999997,-328000.00000000006,-1.0,0.0,0.0,0.0,0.0,0.0,0.0,0.0,0.0
1737285500.8423991,13191,1737285500,835127440,base_link,-160000.0,267999.99999999994,-341000.00000000006,-1.0,0.0,0.0,0.0,0.0,0.0,0.0,0.0,0.0
1737285500.9428596,13192,1737285500,935117696,base_link,-157000.0,281999.99999999994,-315000.00000000006,-1.0,0.0,0.0,0.0,0.0,0.0,0.0,0.0,0.0
1737285501.0455976,13193,1737285501,35118208,base_link,-162000.0,274999.99999999994,-337000.00000000006,-1.0,0.0,0.0,0.0,0.0,0.0,0.0,0.0,0.0
1737285501.142991,13194,1737285501,135109464,base_link,-159000.0,279999.99999999994,-341000.00000000006,-1.0,0.0,0.0,0.0,0.0,0.0,0.0,0.0,0.0
1737285501.2415946,13195,1737285501,235027976,base_link,-165000.0,290999.99999999994,-332000.00000000006,-1.0,0.0,0.0,0.0,0.0,0.0,0.0,0.0,0.0
1737285501.3409123,13196,1737285501,335064488,base_link,-171000.0,284999.99999999994,-335000.00000000006,-1.0,0.0,0.0,0.0,0.0,0.0,0.0,0.0,0.0
1737285501.4455478,13197,1737285501,435169328,base_link,-171000.0,288999.99999999994,-339000.00000000006,-1.0,0.0,0.0,0.0,0.0,0.0,0.0,0.0,0.0
1737285501.5414715,13198,1737285501,535127168,base_link,-168000.0,278999.99999999994,-340000.00000000006,-1.0,0.0,0.0,0.0,0.0,0.0,0.0,0.0,0.0
1737285501.6464233,13199,1737285501,635136008,base_link,-162000.0,270999.99999999994,-326000.00000000006,-1.0,0.0,0.0,0.0,0.0,0.0,0.0,0.0,0.0
1737285501.740227,13200,1737285501,735102848,base_link,-166000.0,280999.99999999994,-319000.00000000006,-1.0,0.0,0.0,0.0,0.0,0.0,0.0,0.0,0.0
1737285501.8411741,13201,1737285501,835139360,base_link,-170000.0,267999.99999999994,-371000.00000000006,-1.0,0.0,0.0,0.0,0.0,0.0,0.0,0.0,0.0
1737285501.9422345,13202,1737285501,935097456,base_link,-169000.0,269999.99999999994,-311000.00000000006,-1.0,0.0,0.0,0.0,0.0,0.0,0.0,0.0,0.0
1737285502.041003,13203,1737285502,35134552,base_link,-167000.0,274999.99999999994,-312000.00000000006,-1.0,0.0,0.0,0.0,0.0,0.0,0.0,0.0,0.0
1737285502.1407537,13204,1737285502,135109904,base_link,-172000.0,274999.99999999994,-340000.00000000006,-1.0,0.0,0.0,0.0,0.0,0.0,0.0,0.0,0.0
1737285502.2410297,13205,1737285502,235097256,base_link,-168000.0,268999.99999999994,-324000.00000000006,-1.0,0.0,0.0,0.0,0.0,0.0,0.0,0.0,0.0
1737285502.3421838,13206,1737285502,335125608,base_link,-166000.0,286999.99999999994,-317000.00000000006,-1.0,0.0,0.0,0.0,0.0,0.0,0.0,0.0,0.0
1737285502.4395838,13207,1737285502,435100960,base_link,-167000.0,274999.99999999994,-349000.00000000006,-1.0,0.0,0.0,0.0,0.0,0.0,0.0,0.0,0.0
1737285502.5401037,13208,1737285502,535123728,base_link,-160000.0,277999.99999999994,-306000.00000000006,-1.0,0.0,0.0,0.0,0.0,0.0,0.0,0.0,0.0
1737285502.6428363,13209,1737285502,635179336,base_link,-168000.0,277999.99999999994,-317000.00000000006,-1.0,0.0,0.0,0.0,0.0,0.0,0.0,0.0,0.0
1737285502.7421916,13210,1737285502,735180688,base_link,-171000.0,279999.99999999994,-333000.00000000006,-1.0,0.0,0.0,0.0,0.0,0.0,0.0,0.0,0.0
1737285502.8433542,13211,1737285502,835177296,base_link,-164000.0,264999.99999999994,-327000.00000000006,-1.0,0.0,0.0,0.0,0.0,0.0,0.0,0.0,0.0
1737285502.942234,13212,1737285502,935093648,base_link,-158000.0,275999.99999999994,-319000.00000000006,-1.0,0.0,0.0,0.0,0.0,0.0,0.0,0.0,0.0
1737285503.0427704,13213,1737285503,35191000,base_link,-162000.0,276999.99999999994,-331000.00000000006,-1.0,0.0,0.0,0.0,0.0,0.0,0.0,0.0,0.0
1737285503.1416407,13214,1737285503,135178512,base_link,-164000.0,267999.99999999994,-363000.00000000006,-1.0,0.0,0.0,0.0,0.0,0.0,0.0,0.0,0.0
1737285503.2417276,13215,1737285503,235154608,base_link,-161000.0,265999.99999999994,-335000.00000000006,-1.0,0.0,0.0,0.0,0.0,0.0,0.0,0.0,0.0
1737285503.3476503,13216,1737285503,335166632,base_link,-161000.0,266999.99999999994,-335000.00000000006,-1.0,0.0,0.0,0.0,0.0,0.0,0.0,0.0,0.0
1737285503.4419181,13217,1737285503,435157984,base_link,-158000.0,281999.99999999994,-310000.00000000006,-1.0,0.0,0.0,0.0,0.0,0.0,0.0,0.0,0.0
1737285503.541671,13218,1737285503,535192872,base_link,-168000.0,278999.99999999994,-336000.00000000006,-1.0,0.0,0.0,0.0,0.0,0.0,0.0,0.0,0.0
1737285503.6413128,13219,1737285503,635197896,base_link,-166000.0,266999.99999999994,-339000.00000000006,-1.0,0.0,0.0,0.0,0.0,0.0,0.0,0.0,0.0
1737285503.7441263,13220,1737285503,735224248,base_link,-161000.0,279999.99999999994,-304000.00000000006,-1.0,0.0,0.0,0.0,0.0,0.0,0.0,0.0,0.0
1737285503.841526,13221,1737285503,835166600,base_link,-168000.0,280999.99999999994,-327000.00000000006,-1.0,0.0,0.0,0.0,0.0,0.0,0.0,0.0,0.0
1737285503.9419944,13222,1737285503,935195208,base_link,-172000.0,275999.99999999994,-332000.00000000006,-1.0,0.0,0.0,0.0,0.0,0.0,0.0,0.0,0.0
1737285504.0421686,13223,1737285504,35196816,base_link,-165000.0,275999.99999999994,-324000.00000000006,-1.0,0.0,0.0,0.0,0.0,0.0,0.0,0.0,0.0
1737285504.1418746,13224,1737285504,135204584,base_link,-160000.0,282999.99999999994,-306000.00000000006,-1.0,0.0,0.0,0.0,0.0,0.0,0.0,0.0,0.0
1737285504.2394423,13225,1737285504,235142192,base_link,-167000.0,279999.99999999994,-347000.00000000006,-1.0,0.0,0.0,0.0,0.0,0.0,0.0,0.0,0.0
1737285504.3404129,13226,1737285504,335219544,base_link,-161000.0,268999.99999999994,-328000.00000000006,-1.0,0.0,0.0,0.0,0.0,0.0,0.0,0.0,0.0
1737285504.4449787,13227,1737285504,435239152,base_link,-156000.0,269999.99999999994,-322000.00000000006,-1.0,0.0,0.0,0.0,0.0,0.0,0.0,0.0,0.0
1737285504.5476031,13228,1737285504,535229760,base_link,-159000.0,276999.99999999994,-330000.00000000006,-1.0,0.0,0.0,0.0,0.0,0.0,0.0,0.0,0.0
1737285504.6398482,13229,1737285504,635165368,base_link,-162000.0,284999.99999999994,-336000.00000000006,-1.0,0.0,0.0,0.0,0.0,0.0,0.0,0.0,0.0
1737285504.743139,13230,1737285504,735240976,base_link,-165000.0,269999.99999999994,-332000.00000000006,-1.0,0.0,0.0,0.0,0.0,0.0,0.0,0.0,0.0
1737285504.8384364,13231,1737285504,835166936,base_link,-165000.0,264999.99999999994,-335000.00000000006,-1.0,0.0,0.0,0.0,0.0,0.0,0.0,0.0,0.0
1737285504.940862,13232,1737285504,935246056,base_link,-165000.0,276999.99999999994,-325000.00000000006,-1.0,0.0,0.0,0.0,0.0,0.0,0.0,0.0,0.0
1737285505.0408325,13233,1737285505,35251920,base_link,-169000.0,268999.99999999994,-354000.00000000006,-1.0,0.0,0.0,0.0,0.0,0.0,0.0,0.0,0.0
1737285505.1407228,13234,1737285505,135262664,base_link,-165000.0,267999.99999999994,-338000.00000000006,-1.0,0.0,0.0,0.0,0.0,0.0,0.0,0.0,0.0
1737285505.2407453,13235,1737285505,235254784,base_link,-161000.0,271999.99999999994,-325000.00000000006,-1.0,0.0,0.0,0.0,0.0,0.0,0.0,0.0,0.0
1737285505.3403091,13236,1737285505,335278648,base_link,-166000.0,279999.99999999994,-328000.00000000006,-1.0,0.0,0.0,0.0,0.0,0.0,0.0,0.0,0.0
1737285505.4397216,13237,1737285505,435269512,base_link,-169000.0,272999.99999999994,-343000.00000000006,-1.0,0.0,0.0,0.0,0.0,0.0,0.0,0.0,0.0
1737285505.5405347,13238,1737285505,535283376,base_link,-163000.0,271999.99999999994,-333000.00000000006,-1.0,0.0,0.0,0.0,0.0,0.0,0.0,0.0,0.0
1737285505.6398695,13239,1737285505,635279240,base_link,-162000.0,274999.99999999994,-325000.00000000006,-1.0,0.0,0.0,0.0,0.0,0.0,0.0,0.0,0.0
1737285505.7423496,13240,1737285505,735300104,base_link,-158000.0,279999.99999999994,-310000.00000000006,-1.0,0.0,0.0,0.0,0.0,0.0,0.0,0.0,0.0
1737285505.8414397,13241,1737285505,835294968,base_link,-157000.0,290999.99999999994,-309000.00000000006,-1.0,0.0,0.0,0.0,0.0,0.0,0.0,0.0,0.0
