Time,header.seq,header.stamp.secs,header.stamp.nsecs,header.frame_id,child_frame_id,pose.pose.position.x,pose.pose.position.y,pose.pose.position.z,pose.pose.orientation.x,pose.pose.orientation.y,pose.pose.orientation.z,pose.pose.orientation.w,pose.covariance,twist.twist.linear.x,twist.twist.linear.y,twist.twist.linear.z,twist.twist.angular.x,twist.twist.angular.y,twist.twist.angular.z,twist.covariance
1737285472.7277935,12809,1737285462,733673152,map,base_link,-0.6030919214466978,3.283378637082196,1.26,-0.009021195688192884,0.01227750276610378,-0.986228386981294,-0.16468591216755218,"(0.4802489999999999, 0.0, 0.0, 0.0, 0.0, 0.0, 0.0, 0.4802489999999999, 0.0, 0.0, 0.0, 0.0, 0.0, 0.0, 0.9235209999999999, 0.0, 0.0, 0.0, 0.0, 0.0, 0.0, 99999.0, 0.0, 0.0, 0.0, 0.0, 0.0, 0.0, 99999.0, 0.0, 0.0, 0.0, 0.0, 0.0, 0.0, 99999.0)",-0.01,-0.07,0.01,0.0,0.0,0.0,"(-1.0, 0.0, 0.0, 0.0, 0.0, 0.0, 0.0, 0.0, 0.0, 0.0, 0.0, 0.0, 0.0, 0.0, 0.0, 0.0, 0.0, 0.0, 0.0, 0.0, 0.0, 0.0, 0.0, 0.0, 0.0, 0.0, 0.0, 0.0, 0.0, 0.0, 0.0, 0.0, 0.0, 0.0, 0.0, 0.0)"
1737285472.7279494,12810,1737285462,833673408,map,base_link,-0.603091920581229,3.2833786321332017,1.258,-0.0062184484525263746,0.01157737038187155,-0.9865418217136737,-0.16298015033662988,"(0.48163599999999995, 0.0, 0.0, 0.0, 0.0, 0.0, 0.0, 0.48163599999999995, 0.0, 0.0, 0.0, 0.0, 0.0, 0.0, 0.9254439999999999, 0.0, 0.0, 0.0, 0.0, 0.0, 0.0, 99999.0, 0.0, 0.0, 0.0, 0.0, 0.0, 0.0, 99999.0, 0.0, 0.0, 0.0, 0.0, 0.0, 0.0, 99999.0)",0.0,-0.07,0.01,0.0,0.0,0.0,"(-1.0, 0.0, 0.0, 0.0, 0.0, 0.0, 0.0, 0.0, 0.0, 0.0, 0.0, 0.0, 0.0, 0.0, 0.0, 0.0, 0.0, 0.0, 0.0, 0.0, 0.0, 0.0, 0.0, 0.0, 0.0, 0.0, 0.0, 0.0, 0.0, 0.0, 0.0, 0.0, 0.0, 0.0, 0.0, 0.0)"
1737285472.728033,12811,1737285462,933672384,map,base_link,-0.6030919215114428,3.272286137945881,1.257,-0.005686453108616514,0.011074481337083872,-0.9871058789560478,-0.15958384581331092,"(0.48163599999999995, 0.0, 0.0, 0.0, 0.0, 0.0, 0.0, 0.48163599999999995, 0.0, 0.0, 0.0, 0.0, 0.0, 0.0, 0.9254439999999999, 0.0, 0.0, 0.0, 0.0, 0.0, 0.0, 99999.0, 0.0, 0.0, 0.0, 0.0, 0.0, 0.0, 99999.0, 0.0, 0.0, 0.0, 0.0, 0.0, 0.0, 99999.0)",0.0,-0.06,0.01,0.0,0.0,0.0,"(-1.0, 0.0, 0.0, 0.0, 0.0, 0.0, 0.0, 0.0, 0.0, 0.0, 0.0, 0.0, 0.0, 0.0, 0.0, 0.0, 0.0, 0.0, 0.0, 0.0, 0.0, 0.0, 0.0, 0.0, 0.0, 0.0, 0.0, 0.0, 0.0, 0.0, 0.0, 0.0, 0.0, 0.0, 0.0, 0.0)"
1737285472.728147,12812,1737285463,33672640,map,base_link,-0.6030919215114428,3.272286137945881,1.257,-0.0038075970435537828,0.01253807718478669,-0.9878483421543862,-0.15486752961190076,"(0.4830249999999999, 0.0, 0.0, 0.0, 0.0, 0.0, 0.0, 0.4830249999999999, 0.0, 0.0, 0.0, 0.0, 0.0, 0.0, 0.9273689999999999, 0.0, 0.0, 0.0, 0.0, 0.0, 0.0, 99999.0, 0.0, 0.0, 0.0, 0.0, 0.0, 0.0, 99999.0, 0.0, 0.0, 0.0, 0.0, 0.0, 0.0, 99999.0)",0.0,-0.06,0.0,0.0,0.0,0.0,"(-1.0, 0.0, 0.0, 0.0, 0.0, 0.0, 0.0, 0.0, 0.0, 0.0, 0.0, 0.0, 0.0, 0.0, 0.0, 0.0, 0.0, 0.0, 0.0, 0.0, 0.0, 0.0, 0.0, 0.0, 0.0, 0.0, 0.0, 0.0, 0.0, 0.0, 0.0, 0.0, 0.0, 0.0, 0.0, 0.0)"
1737285472.728286,12813,1737285463,133673152,map,base_link,-0.6030919218967997,3.261193641608838,1.256,-0.0013795517653282083,0.014497337249867964,-0.9888469938069984,-0.14822127677379027,"(0.4830249999999999, 0.0, 0.0, 0.0, 0.0, 0.0, 0.0, 0.4830249999999999, 0.0, 0.0, 0.0, 0.0, 0.0, 0.0, 0.9273689999999999, 0.0, 0.0, 0.0, 0.0, 0.0, 0.0, 99999.0, 0.0, 0.0, 0.0, 0.0, 0.0, 0.0, 99999.0, 0.0, 0.0, 0.0, 0.0, 0.0, 0.0, 99999.0)",0.0,-0.06,0.0,0.0,0.0,0.0,"(-1.0, 0.0, 0.0, 0.0, 0.0, 0.0, 0.0, 0.0, 0.0, 0.0, 0.0, 0.0, 0.0, 0.0, 0.0, 0.0, 0.0, 0.0, 0.0, 0.0, 0.0, 0.0, 0.0, 0.0, 0.0, 0.0, 0.0, 0.0, 0.0, 0.0, 0.0, 0.0, 0.0, 0.0, 0.0, 0.0)"
1737285472.728365,12814,1737285463,233673408,map,base_link,-0.5938135843583467,3.2611936419446756,1.256,-0.0040454678129178,0.01414368533339486,-0.9895894664931566,-0.14316521281775801,"(0.48580899999999994, 0.0, 0.0, 0.0, 0.0, 0.0, 0.0, 0.48580899999999994, 0.0, 0.0, 0.0, 0.0, 0.0, 0.0, 0.9292959999999999, 0.0, 0.0, 0.0, 0.0, 0.0, 0.0, 99999.0, 0.0, 0.0, 0.0, 0.0, 0.0, 0.0, 99999.0, 0.0, 0.0, 0.0, 0.0, 0.0, 0.0, 99999.0)",0.0,-0.07,0.0,0.0,0.0,0.0,"(-1.0, 0.0, 0.0, 0.0, 0.0, 0.0, 0.0, 0.0, 0.0, 0.0, 0.0, 0.0, 0.0, 0.0, 0.0, 0.0, 0.0, 0.0, 0.0, 0.0, 0.0, 0.0, 0.0, 0.0, 0.0, 0.0, 0.0, 0.0, 0.0, 0.0, 0.0, 0.0, 0.0, 0.0, 0.0, 0.0)"
1737285472.728465,12815,1737285463,333672384,map,base_link,-0.5938135846939221,3.250101145464275,1.255,-0.00646533948103105,0.014601979324944168,-0.9902244241959228,-0.13856612613132469,"(0.48580899999999994, 0.0, 0.0, 0.0, 0.0, 0.0, 0.0, 0.48580899999999994, 0.0, 0.0, 0.0, 0.0, 0.0, 0.0, 0.9292959999999999, 0.0, 0.0, 0.0, 0.0, 0.0, 0.0, 99999.0, 0.0, 0.0, 0.0, 0.0, 0.0, 0.0, 99999.0, 0.0, 0.0, 0.0, 0.0, 0.0, 0.0, 99999.0)",0.01,-0.06,0.01,0.0,0.0,0.0,"(-1.0, 0.0, 0.0, 0.0, 0.0, 0.0, 0.0, 0.0, 0.0, 0.0, 0.0, 0.0, 0.0, 0.0, 0.0, 0.0, 0.0, 0.0, 0.0, 0.0, 0.0, 0.0, 0.0, 0.0, 0.0, 0.0, 0.0, 0.0, 0.0, 0.0, 0.0, 0.0, 0.0, 0.0, 0.0, 0.0)"
1737285472.7285435,12816,1737285463,433672384,map,base_link,-0.603091922554585,3.2501011461528098,1.253,-0.007059650311222066,0.015285429880347081,-0.9910220195823656,-0.1326343608336314,"(0.4872039999999999, 0.0, 0.0, 0.0, 0.0, 0.0, 0.0, 0.4872039999999999, 0.0, 0.0, 0.0, 0.0, 0.0, 0.0, 0.9292959999999999, 0.0, 0.0, 0.0, 0.0, 0.0, 0.0, 99999.0, 0.0, 0.0, 0.0, 0.0, 0.0, 0.0, 99999.0, 0.0, 0.0, 0.0, 0.0, 0.0, 0.0, 99999.0)",0.04,-0.04,0.01,0.0,0.0,0.0,"(-1.0, 0.0, 0.0, 0.0, 0.0, 0.0, 0.0, 0.0, 0.0, 0.0, 0.0, 0.0, 0.0, 0.0, 0.0, 0.0, 0.0, 0.0, 0.0, 0.0, 0.0, 0.0, 0.0, 0.0, 0.0, 0.0, 0.0, 0.0, 0.0, 0.0, 0.0, 0.0, 0.0, 0.0, 0.0, 0.0)"
1737285472.728614,12817,1737285463,533672384,map,base_link,-0.6030919234847987,3.2390086511901046,1.252,-0.008172125297484229,0.01485476759263603,-0.9919495649300889,-0.12549347745161293,"(0.4872039999999999, 0.0, 0.0, 0.0, 0.0, 0.0, 0.0, 0.4872039999999999, 0.0, 0.0, 0.0, 0.0, 0.0, 0.0, 0.9292959999999999, 0.0, 0.0, 0.0, 0.0, 0.0, 0.0, 99999.0, 0.0, 0.0, 0.0, 0.0, 0.0, 0.0, 99999.0, 0.0, 0.0, 0.0, 0.0, 0.0, 0.0, 99999.0)",0.03,-0.06,0.0,0.0,0.0,0.0,"(-1.0, 0.0, 0.0, 0.0, 0.0, 0.0, 0.0, 0.0, 0.0, 0.0, 0.0, 0.0, 0.0, 0.0, 0.0, 0.0, 0.0, 0.0, 0.0, 0.0, 0.0, 0.0, 0.0, 0.0, 0.0, 0.0, 0.0, 0.0, 0.0, 0.0, 0.0, 0.0, 0.0, 0.0, 0.0, 0.0)"
1737285472.72867,12818,1737285463,633672640,map,base_link,-0.5938135863317029,3.227916155188899,1.253,-0.0059462128557673626,0.016440888208308357,-0.9924915409347754,-0.1210573455867543,"(0.48999999999999994, 0.0, 0.0, 0.0, 0.0, 0.0, 0.0, 0.48999999999999994, 0.0, 0.0, 0.0, 0.0, 0.0, 0.0, 0.931225, 0.0, 0.0, 0.0, 0.0, 0.0, 0.0, 99999.0, 0.0, 0.0, 0.0, 0.0, 0.0, 0.0, 99999.0, 0.0, 0.0, 0.0, 0.0, 0.0, 0.0, 99999.0)",0.05,-0.05,0.01,0.0,0.0,0.0,"(-1.0, 0.0, 0.0, 0.0, 0.0, 0.0, 0.0, 0.0, 0.0, 0.0, 0.0, 0.0, 0.0, 0.0, 0.0, 0.0, 0.0, 0.0, 0.0, 0.0, 0.0, 0.0, 0.0, 0.0, 0.0, 0.0, 0.0, 0.0, 0.0, 0.0, 0.0, 0.0, 0.0, 0.0, 0.0, 0.0)"
1737285472.7287705,12819,1737285463,733672128,map,base_link,-0.5845352493616266,3.227916154349458,1.253,-0.005176518905781004,0.016164030026096215,-0.9933840260811625,-0.11357862700400051,"(0.48999999999999994, 0.0, 0.0, 0.0, 0.0, 0.0, 0.0, 0.48999999999999994, 0.0, 0.0, 0.0, 0.0, 0.0, 0.0, 0.931225, 0.0, 0.0, 0.0, 0.0, 0.0, 0.0, 99999.0, 0.0, 0.0, 0.0, 0.0, 0.0, 0.0, 99999.0, 0.0, 0.0, 0.0, 0.0, 0.0, 0.0, 99999.0)",0.05,-0.07,0.0,0.0,0.0,0.0,"(-1.0, 0.0, 0.0, 0.0, 0.0, 0.0, 0.0, 0.0, 0.0, 0.0, 0.0, 0.0, 0.0, 0.0, 0.0, 0.0, 0.0, 0.0, 0.0, 0.0, 0.0, 0.0, 0.0, 0.0, 0.0, 0.0, 0.0, 0.0, 0.0, 0.0, 0.0, 0.0, 0.0, 0.0, 0.0, 0.0)"
1737285472.7288196,12820,1737285463,833672128,map,base_link,-0.5845352502420587,3.216823659243396,1.253,-0.005366973084313019,0.017877271585432966,-0.9938006598733636,-0.10959857296443143,"(0.4914009999999999, 0.0, 0.0, 0.0, 0.0, 0.0, 0.0, 0.4914009999999999, 0.0, 0.0, 0.0, 0.0, 0.0, 0.0, 0.933156, 0.0, 0.0, 0.0, 0.0, 0.0, 0.0, 99999.0, 0.0, 0.0, 0.0, 0.0, 0.0, 0.0, 99999.0, 0.0, 0.0, 0.0, 0.0, 0.0, 0.0, 99999.0)",0.07,-0.05,0.01,0.0,0.0,0.0,"(-1.0, 0.0, 0.0, 0.0, 0.0, 0.0, 0.0, 0.0, 0.0, 0.0, 0.0, 0.0, 0.0, 0.0, 0.0, 0.0, 0.0, 0.0, 0.0, 0.0, 0.0, 0.0, 0.0, 0.0, 0.0, 0.0, 0.0, 0.0, 0.0, 0.0, 0.0, 0.0, 0.0, 0.0, 0.0, 0.0)"
1737285472.728922,12821,1737285463,933671360,map,base_link,-0.5752569141524142,3.2057311629102,1.254,-0.0027034601708999005,0.017089824558140496,-0.994217972963397,-0.10597759874723695,"(0.4914009999999999, 0.0, 0.0, 0.0, 0.0, 0.0, 0.0, 0.4914009999999999, 0.0, 0.0, 0.0, 0.0, 0.0, 0.0, 0.933156, 0.0, 0.0, 0.0, 0.0, 0.0, 0.0, 99999.0, 0.0, 0.0, 0.0, 0.0, 0.0, 0.0, 99999.0, 0.0, 0.0, 0.0, 0.0, 0.0, 0.0, 99999.0)",0.06,-0.08,0.0,0.0,0.0,0.0,"(-1.0, 0.0, 0.0, 0.0, 0.0, 0.0, 0.0, 0.0, 0.0, 0.0, 0.0, 0.0, 0.0, 0.0, 0.0, 0.0, 0.0, 0.0, 0.0, 0.0, 0.0, 0.0, 0.0, 0.0, 0.0, 0.0, 0.0, 0.0, 0.0, 0.0, 0.0, 0.0, 0.0, 0.0, 0.0, 0.0)"
1737285472.7290018,12822,1737285464,33671616,map,base_link,-0.5659785768264534,3.1946386682531553,1.256,0.0029812975431580415,0.015291135675722692,-0.9946120232334631,-0.10249007890592632,"(0.49280399999999996, 0.0, 0.0, 0.0, 0.0, 0.0, 0.0, 0.49280399999999996, 0.0, 0.0, 0.0, 0.0, 0.0, 0.0, 0.935089, 0.0, 0.0, 0.0, 0.0, 0.0, 0.0, 99999.0, 0.0, 0.0, 0.0, 0.0, 0.0, 0.0, 99999.0, 0.0, 0.0, 0.0, 0.0, 0.0, 0.0, 99999.0)",0.04,-0.09,0.0,0.0,0.0,0.0,"(-1.0, 0.0, 0.0, 0.0, 0.0, 0.0, 0.0, 0.0, 0.0, 0.0, 0.0, 0.0, 0.0, 0.0, 0.0, 0.0, 0.0, 0.0, 0.0, 0.0, 0.0, 0.0, 0.0, 0.0, 0.0, 0.0, 0.0, 0.0, 0.0, 0.0, 0.0, 0.0, 0.0, 0.0, 0.0, 0.0)"
1737285472.7291012,12823,1737285464,133671104,map,base_link,-0.5659785773846753,3.183546171347336,1.258,0.005500984776509541,0.011422569891246983,-0.9947125386127658,-0.10191285291912627,"(0.49280399999999996, 0.0, 0.0, 0.0, 0.0, 0.0, 0.0, 0.49280399999999996, 0.0, 0.0, 0.0, 0.0, 0.0, 0.0, 0.935089, 0.0, 0.0, 0.0, 0.0, 0.0, 0.0, 99999.0, 0.0, 0.0, 0.0, 0.0, 0.0, 0.0, 99999.0, 0.0, 0.0, 0.0, 0.0, 0.0, 0.0, 99999.0)",0.04,-0.07,-0.01,0.0,0.0,0.0,"(-1.0, 0.0, 0.0, 0.0, 0.0, 0.0, 0.0, 0.0, 0.0, 0.0, 0.0, 0.0, 0.0, 0.0, 0.0, 0.0, 0.0, 0.0, 0.0, 0.0, 0.0, 0.0, 0.0, 0.0, 0.0, 0.0, 0.0, 0.0, 0.0, 0.0, 0.0, 0.0, 0.0, 0.0, 0.0, 0.0)"
1737285472.7291744,12824,1737285464,233671360,map,base_link,-0.5567002408995193,3.172453676008335,1.258,0.0018339553944420144,0.008004390013598395,-0.9946572654368981,-0.10290525089475805,"(0.49420899999999995, 0.0, 0.0, 0.0, 0.0, 0.0, 0.0, 0.49420899999999995, 0.0, 0.0, 0.0, 0.0, 0.0, 0.0, 0.935089, 0.0, 0.0, 0.0, 0.0, 0.0, 0.0, 99999.0, 0.0, 0.0, 0.0, 0.0, 0.0, 0.0, 99999.0, 0.0, 0.0, 0.0, 0.0, 0.0, 0.0, 99999.0)",0.06,-0.04,0.01,0.0,0.0,0.0,"(-1.0, 0.0, 0.0, 0.0, 0.0, 0.0, 0.0, 0.0, 0.0, 0.0, 0.0, 0.0, 0.0, 0.0, 0.0, 0.0, 0.0, 0.0, 0.0, 0.0, 0.0, 0.0, 0.0, 0.0, 0.0, 0.0, 0.0, 0.0, 0.0, 0.0, 0.0, 0.0, 0.0, 0.0, 0.0, 0.0)"
1737285472.729297,12825,1737285464,333670592,map,base_link,-0.5567002424725551,3.1613611852569656,1.261,-0.0020458640730310956,0.004762064592162608,-0.9945402116913815,-0.10422525850232567,"(0.49420899999999995, 0.0, 0.0, 0.0, 0.0, 0.0, 0.0, 0.49420899999999995, 0.0, 0.0, 0.0, 0.0, 0.0, 0.0, 0.935089, 0.0, 0.0, 0.0, 0.0, 0.0, 0.0, 99999.0, 0.0, 0.0, 0.0, 0.0, 0.0, 0.0, 99999.0, 0.0, 0.0, 0.0, 0.0, 0.0, 0.0, 99999.0)",0.03,-0.05,0.0,0.0,0.0,0.0,"(-1.0, 0.0, 0.0, 0.0, 0.0, 0.0, 0.0, 0.0, 0.0, 0.0, 0.0, 0.0, 0.0, 0.0, 0.0, 0.0, 0.0, 0.0, 0.0, 0.0, 0.0, 0.0, 0.0, 0.0, 0.0, 0.0, 0.0, 0.0, 0.0, 0.0, 0.0, 0.0, 0.0, 0.0, 0.0, 0.0)"
1737285472.729434,12826,1737285464,433670848,map,base_link,-0.5567002431303406,3.150268690576323,1.264,0.00015778886409108654,0.00863370340202847,-0.9944947787025757,-0.10442973427886837,"(0.49561599999999995, 0.0, 0.0, 0.0, 0.0, 0.0, 0.0, 0.49561599999999995, 0.0, 0.0, 0.0, 0.0, 0.0, 0.0, 0.935089, 0.0, 0.0, 0.0, 0.0, 0.0, 0.0, 99999.0, 0.0, 0.0, 0.0, 0.0, 0.0, 0.0, 99999.0, 0.0, 0.0, 0.0, 0.0, 0.0, 0.0, 99999.0)",0.01,-0.05,-0.01,0.0,0.0,0.0,"(-1.0, 0.0, 0.0, 0.0, 0.0, 0.0, 0.0, 0.0, 0.0, 0.0, 0.0, 0.0, 0.0, 0.0, 0.0, 0.0, 0.0, 0.0, 0.0, 0.0, 0.0, 0.0, 0.0, 0.0, 0.0, 0.0, 0.0, 0.0, 0.0, 0.0, 0.0, 0.0, 0.0, 0.0, 0.0, 0.0)"
1737285472.7294838,12827,1737285464,533670080,map,base_link,-0.5474219049972493,3.1502686897821572,1.269,0.003827301033112227,0.011224552123552754,-0.9945918531042616,-0.10318142727767593,"(0.49561599999999995, 0.0, 0.0, 0.0, 0.0, 0.0, 0.0, 0.49561599999999995, 0.0, 0.0, 0.0, 0.0, 0.0, 0.0, 0.935089, 0.0, 0.0, 0.0, 0.0, 0.0, 0.0, 99999.0, 0.0, 0.0, 0.0, 0.0, 0.0, 0.0, 99999.0, 0.0, 0.0, 0.0, 0.0, 0.0, 0.0, 99999.0)",0.01,-0.04,0.0,0.0,0.0,0.0,"(-1.0, 0.0, 0.0, 0.0, 0.0, 0.0, 0.0, 0.0, 0.0, 0.0, 0.0, 0.0, 0.0, 0.0, 0.0, 0.0, 0.0, 0.0, 0.0, 0.0, 0.0, 0.0, 0.0, 0.0, 0.0, 0.0, 0.0, 0.0, 0.0, 0.0, 0.0, 0.0, 0.0, 0.0, 0.0, 0.0)"
1737285472.7296064,12828,1737285464,633670592,map,base_link,-0.5474219066200667,3.139176199174145,1.272,0.005838170738429519,0.01393028434494529,-0.994698531565002,-0.10171870153972018,"(0.49843599999999993, 0.0, 0.0, 0.0, 0.0, 0.0, 0.0, 0.49843599999999993, 0.0, 0.0, 0.0, 0.0, 0.0, 0.0, 0.937024, 0.0, 0.0, 0.0, 0.0, 0.0, 0.0, 99999.0, 0.0, 0.0, 0.0, 0.0, 0.0, 0.0, 99999.0, 0.0, 0.0, 0.0, 0.0, 0.0, 0.0, 99999.0)",0.02,-0.02,0.0,0.0,0.0,0.0,"(-1.0, 0.0, 0.0, 0.0, 0.0, 0.0, 0.0, 0.0, 0.0, 0.0, 0.0, 0.0, 0.0, 0.0, 0.0, 0.0, 0.0, 0.0, 0.0, 0.0, 0.0, 0.0, 0.0, 0.0, 0.0, 0.0, 0.0, 0.0, 0.0, 0.0, 0.0, 0.0, 0.0, 0.0, 0.0, 0.0)"
1737285472.7297294,12829,1737285464,733671104,map,base_link,-0.5474219066200667,3.139176199174145,1.276,0.005652250408024072,0.012251650936825413,-0.9947294317805699,-0.10164303549260784,"(0.49843599999999993, 0.0, 0.0, 0.0, 0.0, 0.0, 0.0, 0.49843599999999993, 0.0, 0.0, 0.0, 0.0, 0.0, 0.0, 0.937024, 0.0, 0.0, 0.0, 0.0, 0.0, 0.0, 99999.0, 0.0, 0.0, 0.0, 0.0, 0.0, 0.0, 99999.0, 0.0, 0.0, 0.0, 0.0, 0.0, 0.0, 99999.0)",0.02,0.0,0.0,0.0,0.0,0.0,"(-1.0, 0.0, 0.0, 0.0, 0.0, 0.0, 0.0, 0.0, 0.0, 0.0, 0.0, 0.0, 0.0, 0.0, 0.0, 0.0, 0.0, 0.0, 0.0, 0.0, 0.0, 0.0, 0.0, 0.0, 0.0, 0.0, 0.0, 0.0, 0.0, 0.0, 0.0, 0.0, 0.0, 0.0, 0.0, 0.0)"
1737285472.7298255,12830,1737285464,833671616,map,base_link,-0.5474219075353173,3.1391762042664966,1.28,0.0037807713828623877,0.010285079442653205,-0.9947517639319243,-0.10172930287254245,"(0.5012639999999999, 0.0, 0.0, 0.0, 0.0, 0.0, 0.0, 0.5012639999999999, 0.0, 0.0, 0.0, 0.0, 0.0, 0.0, 0.937024, 0.0, 0.0, 0.0, 0.0, 0.0, 0.0, 99999.0, 0.0, 0.0, 0.0, 0.0, 0.0, 0.0, 99999.0, 0.0, 0.0, 0.0, 0.0, 0.0, 0.0, 99999.0)",0.0,0.0,0.0,0.0,0.0,0.0,"(-1.0, 0.0, 0.0, 0.0, 0.0, 0.0, 0.0, 0.0, 0.0, 0.0, 0.0, 0.0, 0.0, 0.0, 0.0, 0.0, 0.0, 0.0, 0.0, 0.0, 0.0, 0.0, 0.0, 0.0, 0.0, 0.0, 0.0, 0.0, 0.0, 0.0, 0.0, 0.0, 0.0, 0.0, 0.0, 0.0)"
1737285472.729962,12831,1737285464,933670848,map,base_link,-0.5474219075353173,3.1391762042664966,1.282,0.003901709708423101,0.009164991335697708,-0.9948151379104788,-0.10121077501591902,"(0.5012639999999999, 0.0, 0.0, 0.0, 0.0, 0.0, 0.0, 0.5012639999999999, 0.0, 0.0, 0.0, 0.0, 0.0, 0.0, 0.937024, 0.0, 0.0, 0.0, 0.0, 0.0, 0.0, 99999.0, 0.0, 0.0, 0.0, 0.0, 0.0, 0.0, 99999.0, 0.0, 0.0, 0.0, 0.0, 0.0, 0.0, 99999.0)",-0.02,-0.01,-0.01,0.0,0.0,0.0,"(-1.0, 0.0, 0.0, 0.0, 0.0, 0.0, 0.0, 0.0, 0.0, 0.0, 0.0, 0.0, 0.0, 0.0, 0.0, 0.0, 0.0, 0.0, 0.0, 0.0, 0.0, 0.0, 0.0, 0.0, 0.0, 0.0, 0.0, 0.0, 0.0, 0.0, 0.0, 0.0, 0.0, 0.0, 0.0, 0.0)"
1737285472.7300394,12832,1737285465,33671360,map,base_link,-0.5474219075353173,3.1391762042664966,1.282,0.002946671439768282,0.011985728772933068,-0.99468072164169,-0.102263979130359,"(0.5026809999999999, 0.0, 0.0, 0.0, 0.0, 0.0, 0.0, 0.5026809999999999, 0.0, 0.0, 0.0, 0.0, 0.0, 0.0, 0.937024, 0.0, 0.0, 0.0, 0.0, 0.0, 0.0, 99999.0, 0.0, 0.0, 0.0, 0.0, 0.0, 0.0, 99999.0, 0.0, 0.0, 0.0, 0.0, 0.0, 0.0, 99999.0)",-0.01,0.01,0.0,0.0,0.0,0.0,"(-1.0, 0.0, 0.0, 0.0, 0.0, 0.0, 0.0, 0.0, 0.0, 0.0, 0.0, 0.0, 0.0, 0.0, 0.0, 0.0, 0.0, 0.0, 0.0, 0.0, 0.0, 0.0, 0.0, 0.0, 0.0, 0.0, 0.0, 0.0, 0.0, 0.0, 0.0, 0.0, 0.0, 0.0, 0.0, 0.0)"
1737285472.7301128,12833,1737285465,133670848,map,base_link,-0.5474219075353173,3.1391762042664966,1.28,-0.0009058669470099923,0.012130101877395704,-0.9944154438557586,-0.10483303417660517,"(0.5026809999999999, 0.0, 0.0, 0.0, 0.0, 0.0, 0.0, 0.5026809999999999, 0.0, 0.0, 0.0, 0.0, 0.0, 0.0, 0.937024, 0.0, 0.0, 0.0, 0.0, 0.0, 0.0, 99999.0, 0.0, 0.0, 0.0, 0.0, 0.0, 0.0, 99999.0, 0.0, 0.0, 0.0, 0.0, 0.0, 0.0, 99999.0)",-0.01,0.03,0.03,0.0,0.0,0.0,"(-1.0, 0.0, 0.0, 0.0, 0.0, 0.0, 0.0, 0.0, 0.0, 0.0, 0.0, 0.0, 0.0, 0.0, 0.0, 0.0, 0.0, 0.0, 0.0, 0.0, 0.0, 0.0, 0.0, 0.0, 0.0, 0.0, 0.0, 0.0, 0.0, 0.0, 0.0, 0.0, 0.0, 0.0, 0.0, 0.0)"
1737285472.7302117,12834,1737285465,233671360,map,base_link,-0.5474219066200667,3.139176199174145,1.279,-0.0014493134982849463,0.010740383661344876,-0.9942913540594066,-0.10614728866957673,"(0.505521, 0.0, 0.0, 0.0, 0.0, 0.0, 0.0, 0.505521, 0.0, 0.0, 0.0, 0.0, 0.0, 0.0, 0.937024, 0.0, 0.0, 0.0, 0.0, 0.0, 0.0, 99999.0, 0.0, 0.0, 0.0, 0.0, 0.0, 0.0, 99999.0, 0.0, 0.0, 0.0, 0.0, 0.0, 0.0, 99999.0)",-0.02,0.02,0.03,0.0,0.0,0.0,"(-1.0, 0.0, 0.0, 0.0, 0.0, 0.0, 0.0, 0.0, 0.0, 0.0, 0.0, 0.0, 0.0, 0.0, 0.0, 0.0, 0.0, 0.0, 0.0, 0.0, 0.0, 0.0, 0.0, 0.0, 0.0, 0.0, 0.0, 0.0, 0.0, 0.0, 0.0, 0.0, 0.0, 0.0, 0.0, 0.0)"
1737285472.7304204,12835,1737285465,333670848,map,base_link,-0.5474219066200667,3.139176199174145,1.278,0.0021930709254272627,0.014657137000212008,-0.994181645513434,-0.10669214825409323,"(0.505521, 0.0, 0.0, 0.0, 0.0, 0.0, 0.0, 0.505521, 0.0, 0.0, 0.0, 0.0, 0.0, 0.0, 0.937024, 0.0, 0.0, 0.0, 0.0, 0.0, 0.0, 99999.0, 0.0, 0.0, 0.0, 0.0, 0.0, 0.0, 99999.0, 0.0, 0.0, 0.0, 0.0, 0.0, 0.0, 99999.0)",-0.03,0.03,0.01,0.0,0.0,0.0,"(-1.0, 0.0, 0.0, 0.0, 0.0, 0.0, 0.0, 0.0, 0.0, 0.0, 0.0, 0.0, 0.0, 0.0, 0.0, 0.0, 0.0, 0.0, 0.0, 0.0, 0.0, 0.0, 0.0, 0.0, 0.0, 0.0, 0.0, 0.0, 0.0, 0.0, 0.0, 0.0, 0.0, 0.0, 0.0, 0.0)"
1737285472.730498,12836,1737285465,433671616,map,base_link,-0.5381435696499905,3.139176198334704,1.277,0.0010877987575234442,0.014728816838931612,-0.9938885768900958,-0.10939549979669455,"(0.506944, 0.0, 0.0, 0.0, 0.0, 0.0, 0.0, 0.506944, 0.0, 0.0, 0.0, 0.0, 0.0, 0.0, 0.937024, 0.0, 0.0, 0.0, 0.0, 0.0, 0.0, 99999.0, 0.0, 0.0, 0.0, 0.0, 0.0, 0.0, 99999.0, 0.0, 0.0, 0.0, 0.0, 0.0, 0.0, 99999.0)",0.0,0.05,0.04,0.0,0.0,0.0,"(-1.0, 0.0, 0.0, 0.0, 0.0, 0.0, 0.0, 0.0, 0.0, 0.0, 0.0, 0.0, 0.0, 0.0, 0.0, 0.0, 0.0, 0.0, 0.0, 0.0, 0.0, 0.0, 0.0, 0.0, 0.0, 0.0, 0.0, 0.0, 0.0, 0.0, 0.0, 0.0, 0.0, 0.0, 0.0, 0.0)"
1737285472.730621,12837,1737285465,533671360,map,base_link,-0.5381435696499905,3.139176198334704,1.275,-0.001659709180160675,0.010590696099947412,-0.993819595491072,-0.11048843441518075,"(0.506944, 0.0, 0.0, 0.0, 0.0, 0.0, 0.0, 0.506944, 0.0, 0.0, 0.0, 0.0, 0.0, 0.0, 0.937024, 0.0, 0.0, 0.0, 0.0, 0.0, 0.0, 99999.0, 0.0, 0.0, 0.0, 0.0, 0.0, 0.0, 99999.0, 0.0, 0.0, 0.0, 0.0, 0.0, 0.0, 99999.0)",-0.03,0.02,0.02,0.0,0.0,0.0,"(-1.0, 0.0, 0.0, 0.0, 0.0, 0.0, 0.0, 0.0, 0.0, 0.0, 0.0, 0.0, 0.0, 0.0, 0.0, 0.0, 0.0, 0.0, 0.0, 0.0, 0.0, 0.0, 0.0, 0.0, 0.0, 0.0, 0.0, 0.0, 0.0, 0.0, 0.0, 0.0, 0.0, 0.0, 0.0, 0.0)"
1737285472.7306893,12838,1737285465,633671872,map,base_link,-0.5474219066200667,3.139176199174145,1.273,-0.001483728222422963,0.011887827791022107,-0.9938219681157447,-0.11033754479559738,"(0.508369, 0.0, 0.0, 0.0, 0.0, 0.0, 0.0, 0.508369, 0.0, 0.0, 0.0, 0.0, 0.0, 0.0, 0.937024, 0.0, 0.0, 0.0, 0.0, 0.0, 0.0, 99999.0, 0.0, 0.0, 0.0, 0.0, 0.0, 0.0, 99999.0, 0.0, 0.0, 0.0, 0.0, 0.0, 0.0, 99999.0)",-0.02,0.03,0.02,0.0,0.0,0.0,"(-1.0, 0.0, 0.0, 0.0, 0.0, 0.0, 0.0, 0.0, 0.0, 0.0, 0.0, 0.0, 0.0, 0.0, 0.0, 0.0, 0.0, 0.0, 0.0, 0.0, 0.0, 0.0, 0.0, 0.0, 0.0, 0.0, 0.0, 0.0, 0.0, 0.0, 0.0, 0.0, 0.0, 0.0, 0.0, 0.0)"
1737285472.7307417,12839,1737285465,733671360,map,base_link,-0.5474219066200667,3.139176199174145,1.273,-0.001680004749842965,0.013518157382698138,-0.9936636555155692,-0.11156601952410883,"(0.508369, 0.0, 0.0, 0.0, 0.0, 0.0, 0.0, 0.508369, 0.0, 0.0, 0.0, 0.0, 0.0, 0.0, 0.937024, 0.0, 0.0, 0.0, 0.0, 0.0, 0.0, 99999.0, 0.0, 0.0, 0.0, 0.0, 0.0, 0.0, 99999.0, 0.0, 0.0, 0.0, 0.0, 0.0, 0.0, 99999.0)",0.0,0.06,0.04,0.0,0.0,0.0,"(-1.0, 0.0, 0.0, 0.0, 0.0, 0.0, 0.0, 0.0, 0.0, 0.0, 0.0, 0.0, 0.0, 0.0, 0.0, 0.0, 0.0, 0.0, 0.0, 0.0, 0.0, 0.0, 0.0, 0.0, 0.0, 0.0, 0.0, 0.0, 0.0, 0.0, 0.0, 0.0, 0.0, 0.0, 0.0, 0.0)"
1737285472.7308002,12840,1737285465,833672128,map,base_link,-0.5474219066200667,3.139176199174145,1.272,-0.002901372810872552,0.009738362454981738,-0.9935433875703523,-0.11299682892779062,"(0.5097959999999999, 0.0, 0.0, 0.0, 0.0, 0.0, 0.0, 0.5097959999999999, 0.0, 0.0, 0.0, 0.0, 0.0, 0.0, 0.937024, 0.0, 0.0, 0.0, 0.0, 0.0, 0.0, 99999.0, 0.0, 0.0, 0.0, 0.0, 0.0, 0.0, 99999.0, 0.0, 0.0, 0.0, 0.0, 0.0, 0.0, 99999.0)",0.0,0.06,0.04,0.0,0.0,0.0,"(-1.0, 0.0, 0.0, 0.0, 0.0, 0.0, 0.0, 0.0, 0.0, 0.0, 0.0, 0.0, 0.0, 0.0, 0.0, 0.0, 0.0, 0.0, 0.0, 0.0, 0.0, 0.0, 0.0, 0.0, 0.0, 0.0, 0.0, 0.0, 0.0, 0.0, 0.0, 0.0, 0.0, 0.0, 0.0, 0.0)"
1737285472.730854,12841,1737285465,933671872,map,base_link,-0.5474219066200667,3.139176199174145,1.271,-0.001987104903669154,0.009724076887891214,-0.993660611481952,-0.11198251172434714,"(0.5097959999999999, 0.0, 0.0, 0.0, 0.0, 0.0, 0.0, 0.5097959999999999, 0.0, 0.0, 0.0, 0.0, 0.0, 0.0, 0.937024, 0.0, 0.0, 0.0, 0.0, 0.0, 0.0, 99999.0, 0.0, 0.0, 0.0, 0.0, 0.0, 0.0, 99999.0, 0.0, 0.0, 0.0, 0.0, 0.0, 0.0, 99999.0)",-0.02,0.05,0.01,0.0,0.0,0.0,"(-1.0, 0.0, 0.0, 0.0, 0.0, 0.0, 0.0, 0.0, 0.0, 0.0, 0.0, 0.0, 0.0, 0.0, 0.0, 0.0, 0.0, 0.0, 0.0, 0.0, 0.0, 0.0, 0.0, 0.0, 0.0, 0.0, 0.0, 0.0, 0.0, 0.0, 0.0, 0.0, 0.0, 0.0, 0.0, 0.0)"
1737285472.730939,12842,1737285466,33672640,map,base_link,-0.5474219061351463,3.150268695224474,1.271,-9.6688131268053e-05,0.012737450535939299,-0.9936696731119419,-0.11161688377148044,"(0.5097959999999999, 0.0, 0.0, 0.0, 0.0, 0.0, 0.0, 0.5097959999999999, 0.0, 0.0, 0.0, 0.0, 0.0, 0.0, 0.937024, 0.0, 0.0, 0.0, 0.0, 0.0, 0.0, 99999.0, 0.0, 0.0, 0.0, 0.0, 0.0, 0.0, 99999.0, 0.0, 0.0, 0.0, 0.0, 0.0, 0.0, 99999.0)",0.0,0.07,0.01,0.0,0.0,0.0,"(-1.0, 0.0, 0.0, 0.0, 0.0, 0.0, 0.0, 0.0, 0.0, 0.0, 0.0, 0.0, 0.0, 0.0, 0.0, 0.0, 0.0, 0.0, 0.0, 0.0, 0.0, 0.0, 0.0, 0.0, 0.0, 0.0, 0.0, 0.0, 0.0, 0.0, 0.0, 0.0, 0.0, 0.0, 0.0, 0.0)"
1737285472.7310088,12843,1737285466,133673408,map,base_link,-0.5474219061351463,3.150268695224474,1.271,-0.0032176225270246677,0.011754092316333517,-0.9934783067084211,-0.11336817154237361,"(0.5097959999999999, 0.0, 0.0, 0.0, 0.0, 0.0, 0.0, 0.5097959999999999, 0.0, 0.0, 0.0, 0.0, 0.0, 0.0, 0.937024, 0.0, 0.0, 0.0, 0.0, 0.0, 0.0, 99999.0, 0.0, 0.0, 0.0, 0.0, 0.0, 0.0, 99999.0, 0.0, 0.0, 0.0, 0.0, 0.0, 0.0, 99999.0)",0.01,0.09,0.03,0.0,0.0,0.0,"(-1.0, 0.0, 0.0, 0.0, 0.0, 0.0, 0.0, 0.0, 0.0, 0.0, 0.0, 0.0, 0.0, 0.0, 0.0, 0.0, 0.0, 0.0, 0.0, 0.0, 0.0, 0.0, 0.0, 0.0, 0.0, 0.0, 0.0, 0.0, 0.0, 0.0, 0.0, 0.0, 0.0, 0.0, 0.0, 0.0)"
1737285472.7310903,12844,1737285466,233674176,map,base_link,-0.5381435685570664,3.161361189596726,1.273,-0.00132146975571099,0.01167246448524653,-0.9935883655922046,-0.11244628517802235,"(0.5112249999999999, 0.0, 0.0, 0.0, 0.0, 0.0, 0.0, 0.5112249999999999, 0.0, 0.0, 0.0, 0.0, 0.0, 0.0, 0.937024, 0.0, 0.0, 0.0, 0.0, 0.0, 0.0, 99999.0, 0.0, 0.0, 0.0, 0.0, 0.0, 0.0, 99999.0, 0.0, 0.0, 0.0, 0.0, 0.0, 0.0, 99999.0)",-0.01,0.07,0.02,0.0,0.0,0.0,"(-1.0, 0.0, 0.0, 0.0, 0.0, 0.0, 0.0, 0.0, 0.0, 0.0, 0.0, 0.0, 0.0, 0.0, 0.0, 0.0, 0.0, 0.0, 0.0, 0.0, 0.0, 0.0, 0.0, 0.0, 0.0, 0.0, 0.0, 0.0, 0.0, 0.0, 0.0, 0.0, 0.0, 0.0, 0.0, 0.0)"
1737285472.7311203,12845,1737285466,333673664,map,base_link,-0.5381435677997175,3.17245368476604,1.275,0.001971039407307056,0.015860739592063657,-0.9937189921454723,-0.11075701599733628,"(0.5112249999999999, 0.0, 0.0, 0.0, 0.0, 0.0, 0.0, 0.5112249999999999, 0.0, 0.0, 0.0, 0.0, 0.0, 0.0, 0.937024, 0.0, 0.0, 0.0, 0.0, 0.0, 0.0, 99999.0, 0.0, 0.0, 0.0, 0.0, 0.0, 0.0, 99999.0, 0.0, 0.0, 0.0, 0.0, 0.0, 0.0, 99999.0)",0.0,0.08,0.01,0.0,0.0,0.0,"(-1.0, 0.0, 0.0, 0.0, 0.0, 0.0, 0.0, 0.0, 0.0, 0.0, 0.0, 0.0, 0.0, 0.0, 0.0, 0.0, 0.0, 0.0, 0.0, 0.0, 0.0, 0.0, 0.0, 0.0, 0.0, 0.0, 0.0, 0.0, 0.0, 0.0, 0.0, 0.0, 0.0, 0.0, 0.0, 0.0)"
1737285472.7312179,12846,1737285466,433674688,map,base_link,-0.5381435674143606,3.1835461803276988,1.276,0.0015058276611870603,0.019674972119851537,-0.9936683488963923,-0.11060669218747748,"(0.512656, 0.0, 0.0, 0.0, 0.0, 0.0, 0.0, 0.512656, 0.0, 0.0, 0.0, 0.0, 0.0, 0.0, 0.937024, 0.0, 0.0, 0.0, 0.0, 0.0, 0.0, 99999.0, 0.0, 0.0, 0.0, 0.0, 0.0, 0.0, 99999.0, 0.0, 0.0, 0.0, 0.0, 0.0, 0.0, 99999.0)",0.01,0.1,0.02,0.0,0.0,0.0,"(-1.0, 0.0, 0.0, 0.0, 0.0, 0.0, 0.0, 0.0, 0.0, 0.0, 0.0, 0.0, 0.0, 0.0, 0.0, 0.0, 0.0, 0.0, 0.0, 0.0, 0.0, 0.0, 0.0, 0.0, 0.0, 0.0, 0.0, 0.0, 0.0, 0.0, 0.0, 0.0, 0.0, 0.0, 0.0, 0.0)"
1737285472.7312946,12847,1737285466,533674432,map,base_link,-0.5381435674143606,3.1835461803276988,1.276,0.0008004037839118476,0.018568465739961213,-0.9936833910702129,-0.11067018453517108,"(0.512656, 0.0, 0.0, 0.0, 0.0, 0.0, 0.0, 0.512656, 0.0, 0.0, 0.0, 0.0, 0.0, 0.0, 0.937024, 0.0, 0.0, 0.0, 0.0, 0.0, 0.0, 99999.0, 0.0, 0.0, 0.0, 0.0, 0.0, 0.0, 99999.0, 0.0, 0.0, 0.0, 0.0, 0.0, 0.0, 99999.0)",0.0,0.08,0.03,0.0,0.0,0.0,"(-1.0, 0.0, 0.0, 0.0, 0.0, 0.0, 0.0, 0.0, 0.0, 0.0, 0.0, 0.0, 0.0, 0.0, 0.0, 0.0, 0.0, 0.0, 0.0, 0.0, 0.0, 0.0, 0.0, 0.0, 0.0, 0.0, 0.0, 0.0, 0.0, 0.0, 0.0, 0.0, 0.0, 0.0, 0.0, 0.0)"
1737285472.731375,12848,1737285466,634675456,map,base_link,-0.5288652297864989,3.1946386753319778,1.275,0.004073261574090361,0.019497503716716904,-0.9938055490611446,-0.10933337342386484,"(0.512656, 0.0, 0.0, 0.0, 0.0, 0.0, 0.0, 0.512656, 0.0, 0.0, 0.0, 0.0, 0.0, 0.0, 0.937024, 0.0, 0.0, 0.0, 0.0, 0.0, 0.0, 99999.0, 0.0, 0.0, 0.0, 0.0, 0.0, 0.0, 99999.0, 0.0, 0.0, 0.0, 0.0, 0.0, 0.0, 99999.0)",-0.02,0.06,0.02,0.0,0.0,0.0,"(-1.0, 0.0, 0.0, 0.0, 0.0, 0.0, 0.0, 0.0, 0.0, 0.0, 0.0, 0.0, 0.0, 0.0, 0.0, 0.0, 0.0, 0.0, 0.0, 0.0, 0.0, 0.0, 0.0, 0.0, 0.0, 0.0, 0.0, 0.0, 0.0, 0.0, 0.0, 0.0, 0.0, 0.0, 0.0, 0.0)"
1737285472.7315488,12849,1737285466,733675200,map,base_link,-0.5288652290789319,3.2057311702569566,1.275,0.004245605853945678,0.01917463302522264,-0.9938772779001152,-0.10873023844882473,"(0.512656, 0.0, 0.0, 0.0, 0.0, 0.0, 0.0, 0.512656, 0.0, 0.0, 0.0, 0.0, 0.0, 0.0, 0.937024, 0.0, 0.0, 0.0, 0.0, 0.0, 0.0, 99999.0, 0.0, 0.0, 0.0, 0.0, 0.0, 0.0, 99999.0, 0.0, 0.0, 0.0, 0.0, 0.0, 0.0, 99999.0)",-0.02,0.06,0.01,0.0,0.0,0.0,"(-1.0, 0.0, 0.0, 0.0, 0.0, 0.0, 0.0, 0.0, 0.0, 0.0, 0.0, 0.0, 0.0, 0.0, 0.0, 0.0, 0.0, 0.0, 0.0, 0.0, 0.0, 0.0, 0.0, 0.0, 0.0, 0.0, 0.0, 0.0, 0.0, 0.0, 0.0, 0.0, 0.0, 0.0, 0.0, 0.0)"
1737285472.7316432,12850,1737285466,833675968,map,base_link,-0.5288652290789319,3.2057311702569566,1.274,0.0026207437435260797,0.021287781001302682,-0.9937850602200258,-0.10923010649885323,"(0.5140889999999999, 0.0, 0.0, 0.0, 0.0, 0.0, 0.0, 0.5140889999999999, 0.0, 0.0, 0.0, 0.0, 0.0, 0.0, 0.937024, 0.0, 0.0, 0.0, 0.0, 0.0, 0.0, 99999.0, 0.0, 0.0, 0.0, 0.0, 0.0, 0.0, 99999.0, 0.0, 0.0, 0.0, 0.0, 0.0, 0.0, 99999.0)",0.0,0.07,0.02,0.0,0.0,0.0,"(-1.0, 0.0, 0.0, 0.0, 0.0, 0.0, 0.0, 0.0, 0.0, 0.0, 0.0, 0.0, 0.0, 0.0, 0.0, 0.0, 0.0, 0.0, 0.0, 0.0, 0.0, 0.0, 0.0, 0.0, 0.0, 0.0, 0.0, 0.0, 0.0, 0.0, 0.0, 0.0, 0.0, 0.0, 0.0, 0.0)"
1737285472.731729,12851,1737285466,933675968,map,base_link,-0.5288652286437932,3.2168236656752582,1.274,0.0008984340869357442,0.020743901281589313,-0.9935794393931126,-0.11121502142732104,"(0.5140889999999999, 0.0, 0.0, 0.0, 0.0, 0.0, 0.0, 0.5140889999999999, 0.0, 0.0, 0.0, 0.0, 0.0, 0.0, 0.937024, 0.0, 0.0, 0.0, 0.0, 0.0, 0.0, 99999.0, 0.0, 0.0, 0.0, 0.0, 0.0, 0.0, 99999.0, 0.0, 0.0, 0.0, 0.0, 0.0, 0.0, 99999.0)",-0.01,0.06,0.04,0.0,0.0,0.0,"(-1.0, 0.0, 0.0, 0.0, 0.0, 0.0, 0.0, 0.0, 0.0, 0.0, 0.0, 0.0, 0.0, 0.0, 0.0, 0.0, 0.0, 0.0, 0.0, 0.0, 0.0, 0.0, 0.0, 0.0, 0.0, 0.0, 0.0, 0.0, 0.0, 0.0, 0.0, 0.0, 0.0, 0.0, 0.0, 0.0)"
1737285472.7317817,12852,1737285467,33676992,map,base_link,-0.5288652286437932,3.2168236656752582,1.274,0.0008332700018212946,0.01841432008308687,-0.9934509788547079,-0.11276245425496961,"(0.5140889999999999, 0.0, 0.0, 0.0, 0.0, 0.0, 0.0, 0.5140889999999999, 0.0, 0.0, 0.0, 0.0, 0.0, 0.0, 0.937024, 0.0, 0.0, 0.0, 0.0, 0.0, 0.0, 99999.0, 0.0, 0.0, 0.0, 0.0, 0.0, 0.0, 99999.0, 0.0, 0.0, 0.0, 0.0, 0.0, 0.0, 99999.0)",-0.02,0.04,0.03,0.0,0.0,0.0,"(-1.0, 0.0, 0.0, 0.0, 0.0, 0.0, 0.0, 0.0, 0.0, 0.0, 0.0, 0.0, 0.0, 0.0, 0.0, 0.0, 0.0, 0.0, 0.0, 0.0, 0.0, 0.0, 0.0, 0.0, 0.0, 0.0, 0.0, 0.0, 0.0, 0.0, 0.0, 0.0, 0.0, 0.0, 0.0, 0.0)"
1737285472.7318082,12853,1737285467,133677760,map,base_link,-0.5288652279860078,3.2279161615189786,1.275,0.0016484559347498566,0.01796652759760025,-0.9933639659678366,-0.1135892494726779,"(0.5140889999999999, 0.0, 0.0, 0.0, 0.0, 0.0, 0.0, 0.5140889999999999, 0.0, 0.0, 0.0, 0.0, 0.0, 0.0, 0.937024, 0.0, 0.0, 0.0, 0.0, 0.0, 0.0, 99999.0, 0.0, 0.0, 0.0, 0.0, 0.0, 0.0, 99999.0, 0.0, 0.0, 0.0, 0.0, 0.0, 0.0, 99999.0)",-0.05,0.02,0.01,0.0,0.0,0.0,"(-1.0, 0.0, 0.0, 0.0, 0.0, 0.0, 0.0, 0.0, 0.0, 0.0, 0.0, 0.0, 0.0, 0.0, 0.0, 0.0, 0.0, 0.0, 0.0, 0.0, 0.0, 0.0, 0.0, 0.0, 0.0, 0.0, 0.0, 0.0, 0.0, 0.0, 0.0, 0.0, 0.0, 0.0, 0.0, 0.0)"
1737285472.731865,12854,1737285467,233678784,map,base_link,-0.5381435649560841,3.2279161619707275,1.277,0.002723599686846586,0.019933834529918593,-0.9932170220124384,-0.11452148894606201,"(0.515524, 0.0, 0.0, 0.0, 0.0, 0.0, 0.0, 0.515524, 0.0, 0.0, 0.0, 0.0, 0.0, 0.0, 0.937024, 0.0, 0.0, 0.0, 0.0, 0.0, 0.0, 99999.0, 0.0, 0.0, 0.0, 0.0, 0.0, 0.0, 99999.0, 0.0, 0.0, 0.0, 0.0, 0.0, 0.0, 99999.0)",-0.04,0.01,0.01,0.0,0.0,0.0,"(-1.0, 0.0, 0.0, 0.0, 0.0, 0.0, 0.0, 0.0, 0.0, 0.0, 0.0, 0.0, 0.0, 0.0, 0.0, 0.0, 0.0, 0.0, 0.0, 0.0, 0.0, 0.0, 0.0, 0.0, 0.0, 0.0, 0.0, 0.0, 0.0, 0.0, 0.0, 0.0, 0.0, 0.0, 0.0, 0.0)"
1737285472.7319143,12855,1737285467,333679808,map,base_link,-0.5381435649560841,3.2279161619707275,1.278,0.002302689502435771,0.02085718770465437,-0.9931052927515236,-0.11533235821320281,"(0.515524, 0.0, 0.0, 0.0, 0.0, 0.0, 0.0, 0.515524, 0.0, 0.0, 0.0, 0.0, 0.0, 0.0, 0.937024, 0.0, 0.0, 0.0, 0.0, 0.0, 0.0, 99999.0, 0.0, 0.0, 0.0, 0.0, 0.0, 0.0, 99999.0, 0.0, 0.0, 0.0, 0.0, 0.0, 0.0, 99999.0)",-0.03,0.03,0.02,0.0,0.0,0.0,"(-1.0, 0.0, 0.0, 0.0, 0.0, 0.0, 0.0, 0.0, 0.0, 0.0, 0.0, 0.0, 0.0, 0.0, 0.0, 0.0, 0.0, 0.0, 0.0, 0.0, 0.0, 0.0, 0.0, 0.0, 0.0, 0.0, 0.0, 0.0, 0.0, 0.0, 0.0, 0.0, 0.0, 0.0, 0.0, 0.0)"
1737285472.7325945,12856,1737285467,433680832,map,base_link,-0.5381435649560841,3.2279161619707275,1.279,-0.00025824318686318195,0.018387463892283795,-0.9930935178686808,-0.11587536083773137,"(0.516961, 0.0, 0.0, 0.0, 0.0, 0.0, 0.0, 0.516961, 0.0, 0.0, 0.0, 0.0, 0.0, 0.0, 0.937024, 0.0, 0.0, 0.0, 0.0, 0.0, 0.0, 99999.0, 0.0, 0.0, 0.0, 0.0, 0.0, 0.0, 99999.0, 0.0, 0.0, 0.0, 0.0, 0.0, 0.0, 99999.0)",-0.03,0.02,0.03,0.0,0.0,0.0,"(-1.0, 0.0, 0.0, 0.0, 0.0, 0.0, 0.0, 0.0, 0.0, 0.0, 0.0, 0.0, 0.0, 0.0, 0.0, 0.0, 0.0, 0.0, 0.0, 0.0, 0.0, 0.0, 0.0, 0.0, 0.0, 0.0, 0.0, 0.0, 0.0, 0.0, 0.0, 0.0, 0.0, 0.0, 0.0, 0.0)"
1737285472.7328558,12857,1737285467,534680832,map,base_link,-0.5381435655989062,3.227916166957448,1.28,-0.0019109993734888232,0.016196191915597274,-0.993336173520899,-0.11409328562052196,"(0.516961, 0.0, 0.0, 0.0, 0.0, 0.0, 0.0, 0.516961, 0.0, 0.0, 0.0, 0.0, 0.0, 0.0, 0.937024, 0.0, 0.0, 0.0, 0.0, 0.0, 0.0, 99999.0, 0.0, 0.0, 0.0, 0.0, 0.0, 0.0, 99999.0, 0.0, 0.0, 0.0, 0.0, 0.0, 0.0, 99999.0)",-0.07,0.0,0.02,0.0,0.0,0.0,"(-1.0, 0.0, 0.0, 0.0, 0.0, 0.0, 0.0, 0.0, 0.0, 0.0, 0.0, 0.0, 0.0, 0.0, 0.0, 0.0, 0.0, 0.0, 0.0, 0.0, 0.0, 0.0, 0.0, 0.0, 0.0, 0.0, 0.0, 0.0, 0.0, 0.0, 0.0, 0.0, 0.0, 0.0, 0.0, 0.0)"
1737285472.7329361,12858,1737285467,633681856,map,base_link,-0.5474219017035138,3.2279161628478947,1.279,-0.0007042093949536668,0.019560809459073257,-0.9934560249174215,-0.112525576549109,"(0.5184, 0.0, 0.0, 0.0, 0.0, 0.0, 0.0, 0.5184, 0.0, 0.0, 0.0, 0.0, 0.0, 0.0, 0.9389609999999999, 0.0, 0.0, 0.0, 0.0, 0.0, 0.0, 99999.0, 0.0, 0.0, 0.0, 0.0, 0.0, 0.0, 99999.0, 0.0, 0.0, 0.0, 0.0, 0.0, 0.0, 99999.0)",-0.06,0.0,0.03,0.0,0.0,0.0,"(-1.0, 0.0, 0.0, 0.0, 0.0, 0.0, 0.0, 0.0, 0.0, 0.0, 0.0, 0.0, 0.0, 0.0, 0.0, 0.0, 0.0, 0.0, 0.0, 0.0, 0.0, 0.0, 0.0, 0.0, 0.0, 0.0, 0.0, 0.0, 0.0, 0.0, 0.0, 0.0, 0.0, 0.0, 0.0, 0.0)"
1737285472.733018,12859,1737285467,733681600,map,base_link,-0.5474219017035138,3.2279161628478947,1.278,0.0009081548270578272,0.020492806385504492,-0.9934620607647079,-0.11230473704344018,"(0.5184, 0.0, 0.0, 0.0, 0.0, 0.0, 0.0, 0.5184, 0.0, 0.0, 0.0, 0.0, 0.0, 0.0, 0.9389609999999999, 0.0, 0.0, 0.0, 0.0, 0.0, 0.0, 99999.0, 0.0, 0.0, 0.0, 0.0, 0.0, 0.0, 99999.0, 0.0, 0.0, 0.0, 0.0, 0.0, 0.0, 99999.0)",-0.04,0.01,0.03,0.0,0.0,0.0,"(-1.0, 0.0, 0.0, 0.0, 0.0, 0.0, 0.0, 0.0, 0.0, 0.0, 0.0, 0.0, 0.0, 0.0, 0.0, 0.0, 0.0, 0.0, 0.0, 0.0, 0.0, 0.0, 0.0, 0.0, 0.0, 0.0, 0.0, 0.0, 0.0, 0.0, 0.0, 0.0, 0.0, 0.0, 0.0, 0.0)"
1737285472.7342093,12860,1737285467,834682880,map,base_link,-0.5567002392917484,3.2279161626554145,1.278,-0.00047547853695014455,0.01774508993287687,-0.9934155111233081,-0.11318351453746317,"(0.521284, 0.0, 0.0, 0.0, 0.0, 0.0, 0.0, 0.521284, 0.0, 0.0, 0.0, 0.0, 0.0, 0.0, 0.9389609999999999, 0.0, 0.0, 0.0, 0.0, 0.0, 0.0, 99999.0, 0.0, 0.0, 0.0, 0.0, 0.0, 0.0, 99999.0, 0.0, 0.0, 0.0, 0.0, 0.0, 0.0, 99999.0)",-0.04,0.0,0.03,0.0,0.0,0.0,"(-1.0, 0.0, 0.0, 0.0, 0.0, 0.0, 0.0, 0.0, 0.0, 0.0, 0.0, 0.0, 0.0, 0.0, 0.0, 0.0, 0.0, 0.0, 0.0, 0.0, 0.0, 0.0, 0.0, 0.0, 0.0, 0.0, 0.0, 0.0, 0.0, 0.0, 0.0, 0.0, 0.0, 0.0, 0.0, 0.0)"
1737285472.750678,12861,1737285467,933682624,map,base_link,-0.5659785764844714,3.2279161634571287,1.277,-0.002572043481093216,0.015462921199602924,-0.9934468654641314,-0.11321487605345065,"(0.521284, 0.0, 0.0, 0.0, 0.0, 0.0, 0.0, 0.521284, 0.0, 0.0, 0.0, 0.0, 0.0, 0.0, 0.9389609999999999, 0.0, 0.0, 0.0, 0.0, 0.0, 0.0, 99999.0, 0.0, 0.0, 0.0, 0.0, 0.0, 0.0, 99999.0, 0.0, 0.0, 0.0, 0.0, 0.0, 0.0, 99999.0)",-0.06,-0.01,0.02,0.0,0.0,0.0,"(-1.0, 0.0, 0.0, 0.0, 0.0, 0.0, 0.0, 0.0, 0.0, 0.0, 0.0, 0.0, 0.0, 0.0, 0.0, 0.0, 0.0, 0.0, 0.0, 0.0, 0.0, 0.0, 0.0, 0.0, 0.0, 0.0, 0.0, 0.0, 0.0, 0.0, 0.0, 0.0, 0.0, 0.0, 0.0, 0.0)"
1737285472.7508056,12862,1737285468,33682112,map,base_link,-0.5659785764844714,3.2279161634571287,1.276,-0.0023069358786192064,0.01602355425585534,-0.9934631892586445,-0.11299918293467615,"(0.522729, 0.0, 0.0, 0.0, 0.0, 0.0, 0.0, 0.522729, 0.0, 0.0, 0.0, 0.0, 0.0, 0.0, 0.9389609999999999, 0.0, 0.0, 0.0, 0.0, 0.0, 0.0, 99999.0, 0.0, 0.0, 0.0, 0.0, 0.0, 0.0, 99999.0, 0.0, 0.0, 0.0, 0.0, 0.0, 0.0, 99999.0)",-0.07,-0.01,0.0,0.0,0.0,0.0,"(-1.0, 0.0, 0.0, 0.0, 0.0, 0.0, 0.0, 0.0, 0.0, 0.0, 0.0, 0.0, 0.0, 0.0, 0.0, 0.0, 0.0, 0.0, 0.0, 0.0, 0.0, 0.0, 0.0, 0.0, 0.0, 0.0, 0.0, 0.0, 0.0, 0.0, 0.0, 0.0, 0.0, 0.0, 0.0, 0.0)"
1737285472.7510436,12863,1737285468,133682368,map,base_link,-0.5752569143949161,3.227916164289021,1.275,-0.002032307311080217,0.016769680707163153,-0.9934637839895938,-0.11289090945267072,"(0.522729, 0.0, 0.0, 0.0, 0.0, 0.0, 0.0, 0.522729, 0.0, 0.0, 0.0, 0.0, 0.0, 0.0, 0.9389609999999999, 0.0, 0.0, 0.0, 0.0, 0.0, 0.0, 99999.0, 0.0, 0.0, 0.0, 0.0, 0.0, 0.0, 99999.0, 0.0, 0.0, 0.0, 0.0, 0.0, 0.0, 99999.0)",-0.06,0.0,0.0,0.0,0.0,0.0,"(-1.0, 0.0, 0.0, 0.0, 0.0, 0.0, 0.0, 0.0, 0.0, 0.0, 0.0, 0.0, 0.0, 0.0, 0.0, 0.0, 0.0, 0.0, 0.0, 0.0, 0.0, 0.0, 0.0, 0.0, 0.0, 0.0, 0.0, 0.0, 0.0, 0.0, 0.0, 0.0, 0.0, 0.0, 0.0, 0.0)"
1737285472.7511597,12864,1737285468,233682112,map,base_link,-0.5845352513152107,3.227916164597412,1.276,-0.004337336740291471,0.013729341526392816,-0.9934045289490014,-0.11375471223147249,"(0.525625, 0.0, 0.0, 0.0, 0.0, 0.0, 0.0, 0.525625, 0.0, 0.0, 0.0, 0.0, 0.0, 0.0, 0.9409, 0.0, 0.0, 0.0, 0.0, 0.0, 0.0, 99999.0, 0.0, 0.0, 0.0, 0.0, 0.0, 0.0, 99999.0, 0.0, 0.0, 0.0, 0.0, 0.0, 0.0, 99999.0)",-0.03,0.0,0.03,0.0,0.0,0.0,"(-1.0, 0.0, 0.0, 0.0, 0.0, 0.0, 0.0, 0.0, 0.0, 0.0, 0.0, 0.0, 0.0, 0.0, 0.0, 0.0, 0.0, 0.0, 0.0, 0.0, 0.0, 0.0, 0.0, 0.0, 0.0, 0.0, 0.0, 0.0, 0.0, 0.0, 0.0, 0.0, 0.0, 0.0, 0.0, 0.0)"
1737285472.7513013,12865,1737285468,333681856,map,base_link,-0.5845352513152107,3.227916164597412,1.273,-0.004898669304100034,0.013182695433908253,-0.9935350793638886,-0.11265107923822737,"(0.525625, 0.0, 0.0, 0.0, 0.0, 0.0, 0.0, 0.525625, 0.0, 0.0, 0.0, 0.0, 0.0, 0.0, 0.9409, 0.0, 0.0, 0.0, 0.0, 0.0, 0.0, 99999.0, 0.0, 0.0, 0.0, 0.0, 0.0, 0.0, 99999.0, 0.0, 0.0, 0.0, 0.0, 0.0, 0.0, 99999.0)",-0.04,-0.01,0.02,0.0,0.0,0.0,"(-1.0, 0.0, 0.0, 0.0, 0.0, 0.0, 0.0, 0.0, 0.0, 0.0, 0.0, 0.0, 0.0, 0.0, 0.0, 0.0, 0.0, 0.0, 0.0, 0.0, 0.0, 0.0, 0.0, 0.0, 0.0, 0.0, 0.0, 0.0, 0.0, 0.0, 0.0, 0.0, 0.0, 0.0, 0.0, 0.0)"
1737285472.751568,12866,1737285468,434681344,map,base_link,-0.5938135881124221,3.2279161656179367,1.271,-0.0045196480727534,0.01627993589325939,-0.9936974882587648,-0.11081443180755679,"(0.527076, 0.0, 0.0, 0.0, 0.0, 0.0, 0.0, 0.527076, 0.0, 0.0, 0.0, 0.0, 0.0, 0.0, 0.9409, 0.0, 0.0, 0.0, 0.0, 0.0, 0.0, 99999.0, 0.0, 0.0, 0.0, 0.0, 0.0, 0.0, 99999.0, 0.0, 0.0, 0.0, 0.0, 0.0, 0.0, 99999.0)",-0.05,-0.01,0.0,0.0,0.0,0.0,"(-1.0, 0.0, 0.0, 0.0, 0.0, 0.0, 0.0, 0.0, 0.0, 0.0, 0.0, 0.0, 0.0, 0.0, 0.0, 0.0, 0.0, 0.0, 0.0, 0.0, 0.0, 0.0, 0.0, 0.0, 0.0, 0.0, 0.0, 0.0, 0.0, 0.0, 0.0, 0.0, 0.0, 0.0, 0.0, 0.0)"
1737285472.7522852,12867,1737285468,533681088,map,base_link,-0.593813586974525,3.2279161601756194,1.267,-0.0041180026542705864,0.019406084922515734,-0.9937900026578923,-0.10948916174373469,"(0.527076, 0.0, 0.0, 0.0, 0.0, 0.0, 0.0, 0.527076, 0.0, 0.0, 0.0, 0.0, 0.0, 0.0, 0.9409, 0.0, 0.0, 0.0, 0.0, 0.0, 0.0, 99999.0, 0.0, 0.0, 0.0, 0.0, 0.0, 0.0, 99999.0, 0.0, 0.0, 0.0, 0.0, 0.0, 0.0, 99999.0)",-0.01,0.0,0.02,0.0,0.0,0.0,"(-1.0, 0.0, 0.0, 0.0, 0.0, 0.0, 0.0, 0.0, 0.0, 0.0, 0.0, 0.0, 0.0, 0.0, 0.0, 0.0, 0.0, 0.0, 0.0, 0.0, 0.0, 0.0, 0.0, 0.0, 0.0, 0.0, 0.0, 0.0, 0.0, 0.0, 0.0, 0.0, 0.0, 0.0, 0.0, 0.0)"
1737285472.7523918,12868,1737285468,633680832,map,base_link,-0.593813586974525,3.2279161601756194,1.262,-0.004520937302595432,0.017807103188337853,-0.9937666374883871,-0.10995607494345289,"(0.5285289999999999, 0.0, 0.0, 0.0, 0.0, 0.0, 0.0, 0.5285289999999999, 0.0, 0.0, 0.0, 0.0, 0.0, 0.0, 0.9409, 0.0, 0.0, 0.0, 0.0, 0.0, 0.0, 99999.0, 0.0, 0.0, 0.0, 0.0, 0.0, 0.0, 99999.0, 0.0, 0.0, 0.0, 0.0, 0.0, 0.0, 99999.0)",-0.01,0.01,0.03,0.0,0.0,0.0,"(-1.0, 0.0, 0.0, 0.0, 0.0, 0.0, 0.0, 0.0, 0.0, 0.0, 0.0, 0.0, 0.0, 0.0, 0.0, 0.0, 0.0, 0.0, 0.0, 0.0, 0.0, 0.0, 0.0, 0.0, 0.0, 0.0, 0.0, 0.0, 0.0, 0.0, 0.0, 0.0, 0.0, 0.0, 0.0, 0.0)"
1737285472.7524762,12869,1737285468,733680576,map,base_link,-0.6030919241923659,3.2279161554897415,1.259,-0.0050006243307412004,0.01594788429517392,-0.9938293773102218,-0.10965321490037239,"(0.5285289999999999, 0.0, 0.0, 0.0, 0.0, 0.0, 0.0, 0.5285289999999999, 0.0, 0.0, 0.0, 0.0, 0.0, 0.0, 0.9409, 0.0, 0.0, 0.0, 0.0, 0.0, 0.0, 99999.0, 0.0, 0.0, 0.0, 0.0, 0.0, 0.0, 99999.0, 0.0, 0.0, 0.0, 0.0, 0.0, 0.0, 99999.0)",-0.02,-0.02,0.01,0.0,0.0,0.0,"(-1.0, 0.0, 0.0, 0.0, 0.0, 0.0, 0.0, 0.0, 0.0, 0.0, 0.0, 0.0, 0.0, 0.0, 0.0, 0.0, 0.0, 0.0, 0.0, 0.0, 0.0, 0.0, 0.0, 0.0, 0.0, 0.0, 0.0, 0.0, 0.0, 0.0, 0.0, 0.0, 0.0, 0.0, 0.0, 0.0)"
1737285472.7525995,12870,1737285468,833680576,map,base_link,-0.6030919241923659,3.2279161554897415,1.257,-0.0050774256900581495,0.016055167424292072,-0.9939002612362764,-0.10898955024130247,"(0.529984, 0.0, 0.0, 0.0, 0.0, 0.0, 0.0, 0.529984, 0.0, 0.0, 0.0, 0.0, 0.0, 0.0, 0.9428409999999999, 0.0, 0.0, 0.0, 0.0, 0.0, 0.0, 99999.0, 0.0, 0.0, 0.0, 0.0, 0.0, 0.0, 99999.0, 0.0, 0.0, 0.0, 0.0, 0.0, 0.0, 99999.0)",-0.01,-0.02,0.0,0.0,0.0,0.0,"(-1.0, 0.0, 0.0, 0.0, 0.0, 0.0, 0.0, 0.0, 0.0, 0.0, 0.0, 0.0, 0.0, 0.0, 0.0, 0.0, 0.0, 0.0, 0.0, 0.0, 0.0, 0.0, 0.0, 0.0, 0.0, 0.0, 0.0, 0.0, 0.0, 0.0, 0.0, 0.0, 0.0, 0.0, 0.0, 0.0)"
1737285472.7526257,12871,1737285468,933680320,map,base_link,-0.6030919241923659,3.2279161554897415,1.256,-0.0021563759437524337,0.018696638214258703,-0.9938957499968435,-0.10870613552365005,"(0.529984, 0.0, 0.0, 0.0, 0.0, 0.0, 0.0, 0.529984, 0.0, 0.0, 0.0, 0.0, 0.0, 0.0, 0.9428409999999999, 0.0, 0.0, 0.0, 0.0, 0.0, 0.0, 99999.0, 0.0, 0.0, 0.0, 0.0, 0.0, 0.0, 99999.0, 0.0, 0.0, 0.0, 0.0, 0.0, 0.0, 99999.0)",-0.01,-0.02,0.0,0.0,0.0,0.0,"(-1.0, 0.0, 0.0, 0.0, 0.0, 0.0, 0.0, 0.0, 0.0, 0.0, 0.0, 0.0, 0.0, 0.0, 0.0, 0.0, 0.0, 0.0, 0.0, 0.0, 0.0, 0.0, 0.0, 0.0, 0.0, 0.0, 0.0, 0.0, 0.0, 0.0, 0.0, 0.0, 0.0, 0.0, 0.0, 0.0)"
1737285472.7527604,12872,1737285469,33680064,map,base_link,-0.6030919241923659,3.2279161554897415,1.255,-0.00027497391090638203,0.020063076915650895,-0.9938152786520482,-0.1092180811577309,"(0.529984, 0.0, 0.0, 0.0, 0.0, 0.0, 0.0, 0.529984, 0.0, 0.0, 0.0, 0.0, 0.0, 0.0, 0.9428409999999999, 0.0, 0.0, 0.0, 0.0, 0.0, 0.0, 99999.0, 0.0, 0.0, 0.0, 0.0, 0.0, 0.0, 99999.0, 0.0, 0.0, 0.0, 0.0, 0.0, 0.0, 99999.0)",0.0,0.0,0.01,0.0,0.0,0.0,"(-1.0, 0.0, 0.0, 0.0, 0.0, 0.0, 0.0, 0.0, 0.0, 0.0, 0.0, 0.0, 0.0, 0.0, 0.0, 0.0, 0.0, 0.0, 0.0, 0.0, 0.0, 0.0, 0.0, 0.0, 0.0, 0.0, 0.0, 0.0, 0.0, 0.0, 0.0, 0.0, 0.0, 0.0, 0.0, 0.0)"
1737285472.752835,12873,1737285469,133680064,map,base_link,-0.6030919241923659,3.2279161554897415,1.255,-0.0019056631627017212,0.01796639408935906,-0.9937517618778169,-0.1101408774981884,"(0.529984, 0.0, 0.0, 0.0, 0.0, 0.0, 0.0, 0.529984, 0.0, 0.0, 0.0, 0.0, 0.0, 0.0, 0.9428409999999999, 0.0, 0.0, 0.0, 0.0, 0.0, 0.0, 99999.0, 0.0, 0.0, 0.0, 0.0, 0.0, 0.0, 99999.0, 0.0, 0.0, 0.0, 0.0, 0.0, 0.0, 99999.0)",0.01,0.0,0.01,0.0,0.0,0.0,"(-1.0, 0.0, 0.0, 0.0, 0.0, 0.0, 0.0, 0.0, 0.0, 0.0, 0.0, 0.0, 0.0, 0.0, 0.0, 0.0, 0.0, 0.0, 0.0, 0.0, 0.0, 0.0, 0.0, 0.0, 0.0, 0.0, 0.0, 0.0, 0.0, 0.0, 0.0, 0.0, 0.0, 0.0, 0.0, 0.0)"
1737285472.75297,12874,1737285469,233679808,map,base_link,-0.6030919241923659,3.2279161554897415,1.256,-0.0027954924668733344,0.015130613153714752,-0.9938002192890989,-0.11011073475551492,"(0.5314409999999999, 0.0, 0.0, 0.0, 0.0, 0.0, 0.0, 0.5314409999999999, 0.0, 0.0, 0.0, 0.0, 0.0, 0.0, 0.9428409999999999, 0.0, 0.0, 0.0, 0.0, 0.0, 0.0, 99999.0, 0.0, 0.0, 0.0, 0.0, 0.0, 0.0, 99999.0, 0.0, 0.0, 0.0, 0.0, 0.0, 0.0, 99999.0)",-0.01,-0.02,0.0,0.0,0.0,0.0,"(-1.0, 0.0, 0.0, 0.0, 0.0, 0.0, 0.0, 0.0, 0.0, 0.0, 0.0, 0.0, 0.0, 0.0, 0.0, 0.0, 0.0, 0.0, 0.0, 0.0, 0.0, 0.0, 0.0, 0.0, 0.0, 0.0, 0.0, 0.0, 0.0, 0.0, 0.0, 0.0, 0.0, 0.0, 0.0, 0.0)"
1737285472.7530937,12875,1737285469,333680064,map,base_link,-0.6030919241923659,3.2279161554897415,1.258,-0.004099526193399925,0.015163186777642824,-0.9937879613767229,-0.1101760385675265,"(0.5314409999999999, 0.0, 0.0, 0.0, 0.0, 0.0, 0.0, 0.5314409999999999, 0.0, 0.0, 0.0, 0.0, 0.0, 0.0, 0.9428409999999999, 0.0, 0.0, 0.0, 0.0, 0.0, 0.0, 99999.0, 0.0, 0.0, 0.0, 0.0, 0.0, 0.0, 99999.0, 0.0, 0.0, 0.0, 0.0, 0.0, 0.0, 99999.0)",-0.01,-0.03,0.0,0.0,0.0,0.0,"(-1.0, 0.0, 0.0, 0.0, 0.0, 0.0, 0.0, 0.0, 0.0, 0.0, 0.0, 0.0, 0.0, 0.0, 0.0, 0.0, 0.0, 0.0, 0.0, 0.0, 0.0, 0.0, 0.0, 0.0, 0.0, 0.0, 0.0, 0.0, 0.0, 0.0, 0.0, 0.0, 0.0, 0.0, 0.0, 0.0)"
1737285472.753192,12876,1737285469,433679808,map,base_link,-0.6123702622505577,3.22791616124045,1.26,-0.0017047844225040855,0.017691026009231628,-0.9937323750954656,-0.11036343595565712,"(0.5314409999999999, 0.0, 0.0, 0.0, 0.0, 0.0, 0.0, 0.5314409999999999, 0.0, 0.0, 0.0, 0.0, 0.0, 0.0, 0.9428409999999999, 0.0, 0.0, 0.0, 0.0, 0.0, 0.0, 99999.0, 0.0, 0.0, 0.0, 0.0, 0.0, 0.0, 99999.0, 0.0, 0.0, 0.0, 0.0, 0.0, 0.0, 99999.0)",0.0,0.0,0.01,0.0,0.0,0.0,"(-1.0, 0.0, 0.0, 0.0, 0.0, 0.0, 0.0, 0.0, 0.0, 0.0, 0.0, 0.0, 0.0, 0.0, 0.0, 0.0, 0.0, 0.0, 0.0, 0.0, 0.0, 0.0, 0.0, 0.0, 0.0, 0.0, 0.0, 0.0, 0.0, 0.0, 0.0, 0.0, 0.0, 0.0, 0.0, 0.0)"
1737285472.7533243,12877,1737285469,533680064,map,base_link,-0.6123702622505577,3.22791616124045,1.26,-0.002350739908874193,0.01614975988821309,-0.993546499927622,-0.11224531954164463,"(0.5314409999999999, 0.0, 0.0, 0.0, 0.0, 0.0, 0.0, 0.5314409999999999, 0.0, 0.0, 0.0, 0.0, 0.0, 0.0, 0.9428409999999999, 0.0, 0.0, 0.0, 0.0, 0.0, 0.0, 99999.0, 0.0, 0.0, 0.0, 0.0, 0.0, 0.0, 99999.0, 0.0, 0.0, 0.0, 0.0, 0.0, 0.0, 99999.0)",0.01,0.0,0.01,0.0,0.0,0.0,"(-1.0, 0.0, 0.0, 0.0, 0.0, 0.0, 0.0, 0.0, 0.0, 0.0, 0.0, 0.0, 0.0, 0.0, 0.0, 0.0, 0.0, 0.0, 0.0, 0.0, 0.0, 0.0, 0.0, 0.0, 0.0, 0.0, 0.0, 0.0, 0.0, 0.0, 0.0, 0.0, 0.0, 0.0, 0.0, 0.0)"
1737285472.7543056,12878,1737285469,633680064,map,base_link,-0.6123702622505577,3.22791616124045,1.26,-0.004141873597625865,0.014203643910870435,-0.9934780620067587,-0.1130594608781128,"(0.5328999999999999, 0.0, 0.0, 0.0, 0.0, 0.0, 0.0, 0.5328999999999999, 0.0, 0.0, 0.0, 0.0, 0.0, 0.0, 0.9428409999999999, 0.0, 0.0, 0.0, 0.0, 0.0, 0.0, 99999.0, 0.0, 0.0, 0.0, 0.0, 0.0, 0.0, 99999.0, 0.0, 0.0, 0.0, 0.0, 0.0, 0.0, 99999.0)",0.0,-0.01,0.01,0.0,0.0,0.0,"(-1.0, 0.0, 0.0, 0.0, 0.0, 0.0, 0.0, 0.0, 0.0, 0.0, 0.0, 0.0, 0.0, 0.0, 0.0, 0.0, 0.0, 0.0, 0.0, 0.0, 0.0, 0.0, 0.0, 0.0, 0.0, 0.0, 0.0, 0.0, 0.0, 0.0, 0.0, 0.0, 0.0, 0.0, 0.0, 0.0)"
1737285472.7577653,12879,1737285469,733680064,map,base_link,-0.6123702611126605,3.2279161557981326,1.258,-0.0024395061445573766,0.016714155335438765,-0.9935033876280541,-0.11254201256763519,"(0.5328999999999999, 0.0, 0.0, 0.0, 0.0, 0.0, 0.0, 0.5328999999999999, 0.0, 0.0, 0.0, 0.0, 0.0, 0.0, 0.9428409999999999, 0.0, 0.0, 0.0, 0.0, 0.0, 0.0, 99999.0, 0.0, 0.0, 0.0, 0.0, 0.0, 0.0, 99999.0, 0.0, 0.0, 0.0, 0.0, 0.0, 0.0, 99999.0)",0.0,-0.02,0.0,0.0,0.0,0.0,"(-1.0, 0.0, 0.0, 0.0, 0.0, 0.0, 0.0, 0.0, 0.0, 0.0, 0.0, 0.0, 0.0, 0.0, 0.0, 0.0, 0.0, 0.0, 0.0, 0.0, 0.0, 0.0, 0.0, 0.0, 0.0, 0.0, 0.0, 0.0, 0.0, 0.0, 0.0, 0.0, 0.0, 0.0, 0.0, 0.0)"
1737285472.7621927,12880,1737285469,833680064,map,base_link,-0.6123702611126605,3.2279161557981326,1.258,-0.0005286896636382309,0.018254992807183103,-0.9933179876153394,-0.11395547904625597,"(0.5328999999999999, 0.0, 0.0, 0.0, 0.0, 0.0, 0.0, 0.5328999999999999, 0.0, 0.0, 0.0, 0.0, 0.0, 0.0, 0.9428409999999999, 0.0, 0.0, 0.0, 0.0, 0.0, 0.0, 99999.0, 0.0, 0.0, 0.0, 0.0, 0.0, 0.0, 99999.0, 0.0, 0.0, 0.0, 0.0, 0.0, 0.0, 99999.0)",0.01,0.0,0.0,0.0,0.0,0.0,"(-1.0, 0.0, 0.0, 0.0, 0.0, 0.0, 0.0, 0.0, 0.0, 0.0, 0.0, 0.0, 0.0, 0.0, 0.0, 0.0, 0.0, 0.0, 0.0, 0.0, 0.0, 0.0, 0.0, 0.0, 0.0, 0.0, 0.0, 0.0, 0.0, 0.0, 0.0, 0.0, 0.0, 0.0, 0.0, 0.0)"
1737285472.7622836,12881,1737285469,933680320,map,base_link,-0.6123702611126605,3.2279161557981326,1.256,-0.001580798126566131,0.017478208663883107,-0.9931210146335792,-0.11576987342290312,"(0.5328999999999999, 0.0, 0.0, 0.0, 0.0, 0.0, 0.0, 0.5328999999999999, 0.0, 0.0, 0.0, 0.0, 0.0, 0.0, 0.9428409999999999, 0.0, 0.0, 0.0, 0.0, 0.0, 0.0, 99999.0, 0.0, 0.0, 0.0, 0.0, 0.0, 0.0, 99999.0, 0.0, 0.0, 0.0, 0.0, 0.0, 0.0, 99999.0)",0.02,0.01,0.02,0.0,0.0,0.0,"(-1.0, 0.0, 0.0, 0.0, 0.0, 0.0, 0.0, 0.0, 0.0, 0.0, 0.0, 0.0, 0.0, 0.0, 0.0, 0.0, 0.0, 0.0, 0.0, 0.0, 0.0, 0.0, 0.0, 0.0, 0.0, 0.0, 0.0, 0.0, 0.0, 0.0, 0.0, 0.0, 0.0, 0.0, 0.0, 0.0)"
1737285472.762351,12882,1737285470,33680320,map,base_link,-0.6030919241923659,3.2279161554897415,1.255,-0.0008875894691133645,0.013814608856767713,-0.9931334468049228,-0.11616507910918111,"(0.5328999999999999, 0.0, 0.0, 0.0, 0.0, 0.0, 0.0, 0.5328999999999999, 0.0, 0.0, 0.0, 0.0, 0.0, 0.0, 0.9428409999999999, 0.0, 0.0, 0.0, 0.0, 0.0, 0.0, 99999.0, 0.0, 0.0, 0.0, 0.0, 0.0, 0.0, 99999.0, 0.0, 0.0, 0.0, 0.0, 0.0, 0.0, 99999.0)",0.0,-0.01,0.01,0.0,0.0,0.0,"(-1.0, 0.0, 0.0, 0.0, 0.0, 0.0, 0.0, 0.0, 0.0, 0.0, 0.0, 0.0, 0.0, 0.0, 0.0, 0.0, 0.0, 0.0, 0.0, 0.0, 0.0, 0.0, 0.0, 0.0, 0.0, 0.0, 0.0, 0.0, 0.0, 0.0, 0.0, 0.0, 0.0, 0.0, 0.0, 0.0)"
1737285472.7624307,12883,1737285470,133680320,map,base_link,-0.6030919241923659,3.2279161554897415,1.25,0.0020649524050255262,0.017867394083858484,-0.9932082687137407,-0.11495141216562282,"(0.5328999999999999, 0.0, 0.0, 0.0, 0.0, 0.0, 0.0, 0.5328999999999999, 0.0, 0.0, 0.0, 0.0, 0.0, 0.0, 0.9428409999999999, 0.0, 0.0, 0.0, 0.0, 0.0, 0.0, 99999.0, 0.0, 0.0, 0.0, 0.0, 0.0, 0.0, 99999.0, 0.0, 0.0, 0.0, 0.0, 0.0, 0.0, 99999.0)",0.0,-0.01,0.0,0.0,0.0,0.0,"(-1.0, 0.0, 0.0, 0.0, 0.0, 0.0, 0.0, 0.0, 0.0, 0.0, 0.0, 0.0, 0.0, 0.0, 0.0, 0.0, 0.0, 0.0, 0.0, 0.0, 0.0, 0.0, 0.0, 0.0, 0.0, 0.0, 0.0, 0.0, 0.0, 0.0, 0.0, 0.0, 0.0, 0.0, 0.0, 0.0)"
1737285472.7625735,12884,1737285470,234673664,map,base_link,-0.6030919226193301,3.2390086458534184,1.248,0.008184587318184737,0.02192477280008814,-0.9929544717024191,-0.11616253266120208,"(0.5328999999999999, 0.0, 0.0, 0.0, 0.0, 0.0, 0.0, 0.5328999999999999, 0.0, 0.0, 0.0, 0.0, 0.0, 0.0, 0.9428409999999999, 0.0, 0.0, 0.0, 0.0, 0.0, 0.0, 99999.0, 0.0, 0.0, 0.0, 0.0, 0.0, 0.0, 99999.0, 0.0, 0.0, 0.0, 0.0, 0.0, 0.0, 99999.0)",0.0,0.0,-0.01,0.0,0.0,0.0,"(-1.0, 0.0, 0.0, 0.0, 0.0, 0.0, 0.0, 0.0, 0.0, 0.0, 0.0, 0.0, 0.0, 0.0, 0.0, 0.0, 0.0, 0.0, 0.0, 0.0, 0.0, 0.0, 0.0, 0.0, 0.0, 0.0, 0.0, 0.0, 0.0, 0.0, 0.0, 0.0, 0.0, 0.0, 0.0, 0.0)"
1737285472.7626324,12885,1737285470,334673664,map,base_link,-0.6030919234847987,3.2390086511901046,1.251,0.015515110318089597,0.03489859836787705,-0.9922103822265029,-0.1185745612925137,"(0.5328999999999999, 0.0, 0.0, 0.0, 0.0, 0.0, 0.0, 0.5328999999999999, 0.0, 0.0, 0.0, 0.0, 0.0, 0.0, 0.9428409999999999, 0.0, 0.0, 0.0, 0.0, 0.0, 0.0, 99999.0, 0.0, 0.0, 0.0, 0.0, 0.0, 0.0, 99999.0, 0.0, 0.0, 0.0, 0.0, 0.0, 0.0, 99999.0)",-0.02,-0.02,-0.08,0.0,0.0,0.0,"(-1.0, 0.0, 0.0, 0.0, 0.0, 0.0, 0.0, 0.0, 0.0, 0.0, 0.0, 0.0, 0.0, 0.0, 0.0, 0.0, 0.0, 0.0, 0.0, 0.0, 0.0, 0.0, 0.0, 0.0, 0.0, 0.0, 0.0, 0.0, 0.0, 0.0, 0.0, 0.0, 0.0, 0.0, 0.0, 0.0)"
1737285472.7627366,12886,1737285470,433667008,map,base_link,-0.6030919243502676,3.2390086561390987,1.263,0.03081321036344393,0.05665865547328545,-0.9903541396615138,-0.12263368575705674,"(0.5328999999999999, 0.0, 0.0, 0.0, 0.0, 0.0, 0.0, 0.5328999999999999, 0.0, 0.0, 0.0, 0.0, 0.0, 0.0, 0.9428409999999999, 0.0, 0.0, 0.0, 0.0, 0.0, 0.0, 99999.0, 0.0, 0.0, 0.0, 0.0, 0.0, 0.0, 99999.0, 0.0, 0.0, 0.0, 0.0, 0.0, 0.0, 99999.0)",-0.12,-0.1,-0.19,0.0,0.0,0.0,"(-1.0, 0.0, 0.0, 0.0, 0.0, 0.0, 0.0, 0.0, 0.0, 0.0, 0.0, 0.0, 0.0, 0.0, 0.0, 0.0, 0.0, 0.0, 0.0, 0.0, 0.0, 0.0, 0.0, 0.0, 0.0, 0.0, 0.0, 0.0, 0.0, 0.0, 0.0, 0.0, 0.0, 0.0, 0.0, 0.0)"
1737285472.762807,12887,1737285470,533665728,map,base_link,-0.6123702642041418,3.2279161714884035,1.284,0.039053489658421627,0.06512118165956252,-0.9892312801610146,-0.1251220643841941,"(0.5328999999999999, 0.0, 0.0, 0.0, 0.0, 0.0, 0.0, 0.5328999999999999, 0.0, 0.0, 0.0, 0.0, 0.0, 0.0, 0.9428409999999999, 0.0, 0.0, 0.0, 0.0, 0.0, 0.0, 99999.0, 0.0, 0.0, 0.0, 0.0, 0.0, 0.0, 99999.0, 0.0, 0.0, 0.0, 0.0, 0.0, 0.0, 99999.0)",-0.19,-0.16,-0.3,0.0,0.0,0.0,"(-1.0, 0.0, 0.0, 0.0, 0.0, 0.0, 0.0, 0.0, 0.0, 0.0, 0.0, 0.0, 0.0, 0.0, 0.0, 0.0, 0.0, 0.0, 0.0, 0.0, 0.0, 0.0, 0.0, 0.0, 0.0, 0.0, 0.0, 0.0, 0.0, 0.0, 0.0, 0.0, 0.0, 0.0, 0.0, 0.0)"
1737285472.7628856,12888,1737285470,633665728,map,base_link,-0.6309269425615012,3.216823692125271,1.318,0.03278784863499525,0.05580567028101763,-0.9909104484558318,-0.11792865337752861,"(0.5328999999999999, 0.0, 0.0, 0.0, 0.0, 0.0, 0.0, 0.5328999999999999, 0.0, 0.0, 0.0, 0.0, 0.0, 0.0, 0.944784, 0.0, 0.0, 0.0, 0.0, 0.0, 0.0, 99999.0, 0.0, 0.0, 0.0, 0.0, 0.0, 0.0, 99999.0, 0.0, 0.0, 0.0, 0.0, 0.0, 0.0, 99999.0)",-0.27,-0.24,-0.4,0.0,0.0,0.0,"(-1.0, 0.0, 0.0, 0.0, 0.0, 0.0, 0.0, 0.0, 0.0, 0.0, 0.0, 0.0, 0.0, 0.0, 0.0, 0.0, 0.0, 0.0, 0.0, 0.0, 0.0, 0.0, 0.0, 0.0, 0.0, 0.0, 0.0, 0.0, 0.0, 0.0, 0.0, 0.0, 0.0, 0.0, 0.0, 0.0)"
1737285472.7629724,12889,1737285470,733664960,map,base_link,-0.6587619609953815,3.1946387288491023,1.365,0.02214705075097504,0.03114586005103895,-0.994638176634254,-0.0960954792193755,"(0.5328999999999999, 0.0, 0.0, 0.0, 0.0, 0.0, 0.0, 0.5328999999999999, 0.0, 0.0, 0.0, 0.0, 0.0, 0.0, 0.944784, 0.0, 0.0, 0.0, 0.0, 0.0, 0.0, 99999.0, 0.0, 0.0, 0.0, 0.0, 0.0, 0.0, 99999.0, 0.0, 0.0, 0.0, 0.0, 0.0, 0.0, 99999.0)",-0.32,-0.25,-0.51,0.0,0.0,0.0,"(-1.0, 0.0, 0.0, 0.0, 0.0, 0.0, 0.0, 0.0, 0.0, 0.0, 0.0, 0.0, 0.0, 0.0, 0.0, 0.0, 0.0, 0.0, 0.0, 0.0, 0.0, 0.0, 0.0, 0.0, 0.0, 0.0, 0.0, 0.0, 0.0, 0.0, 0.0, 0.0, 0.0, 0.0, 0.0, 0.0)"
1737285472.7630649,12890,1737285470,833665216,map,base_link,-0.6865969819131936,3.1835462649686614,1.423,0.005863284237700067,-0.006290736641164588,-0.9980530466022386,-0.06177511390883289,"(0.5328999999999999, 0.0, 0.0, 0.0, 0.0, 0.0, 0.0, 0.5328999999999999, 0.0, 0.0, 0.0, 0.0, 0.0, 0.0, 0.944784, 0.0, 0.0, 0.0, 0.0, 0.0, 0.0, 99999.0, 0.0, 0.0, 0.0, 0.0, 0.0, 0.0, 99999.0, 0.0, 0.0, 0.0, 0.0, 0.0, 0.0, 99999.0)",-0.35,-0.22,-0.62,0.0,0.0,0.0,"(-1.0, 0.0, 0.0, 0.0, 0.0, 0.0, 0.0, 0.0, 0.0, 0.0, 0.0, 0.0, 0.0, 0.0, 0.0, 0.0, 0.0, 0.0, 0.0, 0.0, 0.0, 0.0, 0.0, 0.0, 0.0, 0.0, 0.0, 0.0, 0.0, 0.0, 0.0, 0.0, 0.0, 0.0, 0.0, 0.0)"
1737285472.7696044,12891,1737285470,933665728,map,base_link,-0.714432001875674,3.1835463019262114,1.49,-0.01479887066840624,-0.038590151715894916,-0.998940010328458,-0.020264485743883454,"(0.5328999999999999, 0.0, 0.0, 0.0, 0.0, 0.0, 0.0, 0.5328999999999999, 0.0, 0.0, 0.0, 0.0, 0.0, 0.0, 0.944784, 0.0, 0.0, 0.0, 0.0, 0.0, 0.0, 99999.0, 0.0, 0.0, 0.0, 0.0, 0.0, 0.0, 99999.0, 0.0, 0.0, 0.0, 0.0, 0.0, 0.0, 99999.0)",-0.34,-0.15,-0.73,0.0,0.0,0.0,"(-1.0, 0.0, 0.0, 0.0, 0.0, 0.0, 0.0, 0.0, 0.0, 0.0, 0.0, 0.0, 0.0, 0.0, 0.0, 0.0, 0.0, 0.0, 0.0, 0.0, 0.0, 0.0, 0.0, 0.0, 0.0, 0.0, 0.0, 0.0, 0.0, 0.0, 0.0, 0.0, 0.0, 0.0, 0.0, 0.0)"
1737285472.769668,12892,1737285471,33665984,map,base_link,-0.7422670229513878,3.1835463386951277,1.568,-0.034452855100299856,-0.053597773061870316,-0.9977349217551545,0.021570938980064788,"(0.5328999999999999, 0.0, 0.0, 0.0, 0.0, 0.0, 0.0, 0.5328999999999999, 0.0, 0.0, 0.0, 0.0, 0.0, 0.0, 0.9428409999999999, 0.0, 0.0, 0.0, 0.0, 0.0, 0.0, 99999.0, 0.0, 0.0, 0.0, 0.0, 0.0, 0.0, 99999.0, 0.0, 0.0, 0.0, 0.0, 0.0, 0.0, 99999.0)",-0.28,0.02,-0.84,0.0,0.0,0.0,"(-1.0, 0.0, 0.0, 0.0, 0.0, 0.0, 0.0, 0.0, 0.0, 0.0, 0.0, 0.0, 0.0, 0.0, 0.0, 0.0, 0.0, 0.0, 0.0, 0.0, 0.0, 0.0, 0.0, 0.0, 0.0, 0.0, 0.0, 0.0, 0.0, 0.0, 0.0, 0.0, 0.0, 0.0, 0.0, 0.0)"
1737285472.7697926,12893,1737285471,133665984,map,base_link,-0.7608237077946018,3.2057313776220973,1.659,-0.051550157285735004,-0.06701764347271837,-0.9949555727590247,0.053987266859332084,"(0.5328999999999999, 0.0, 0.0, 0.0, 0.0, 0.0, 0.0, 0.5328999999999999, 0.0, 0.0, 0.0, 0.0, 0.0, 0.0, 0.9428409999999999, 0.0, 0.0, 0.0, 0.0, 0.0, 0.0, 99999.0, 0.0, 0.0, 0.0, 0.0, 0.0, 0.0, 99999.0, 0.0, 0.0, 0.0, 0.0, 0.0, 0.0, 99999.0)",-0.19,0.2,-0.97,0.0,0.0,0.0,"(-1.0, 0.0, 0.0, 0.0, 0.0, 0.0, 0.0, 0.0, 0.0, 0.0, 0.0, 0.0, 0.0, 0.0, 0.0, 0.0, 0.0, 0.0, 0.0, 0.0, 0.0, 0.0, 0.0, 0.0, 0.0, 0.0, 0.0, 0.0, 0.0, 0.0, 0.0, 0.0, 0.0, 0.0, 0.0, 0.0)"
1737285472.7699695,12894,1737285471,233666240,map,base_link,-0.7701020558503054,3.2390089227653176,1.766,-0.06365631936854448,-0.07862679330339092,-0.9925461378385042,0.0679548720927684,"(0.5328999999999999, 0.0, 0.0, 0.0, 0.0, 0.0, 0.0, 0.5328999999999999, 0.0, 0.0, 0.0, 0.0, 0.0, 0.0, 0.9428409999999999, 0.0, 0.0, 0.0, 0.0, 0.0, 0.0, 99999.0, 0.0, 0.0, 0.0, 0.0, 0.0, 0.0, 99999.0, 0.0, 0.0, 0.0, 0.0, 0.0, 0.0, 99999.0)",-0.08,0.41,-1.13,0.0,0.0,0.0,"(-1.0, 0.0, 0.0, 0.0, 0.0, 0.0, 0.0, 0.0, 0.0, 0.0, 0.0, 0.0, 0.0, 0.0, 0.0, 0.0, 0.0, 0.0, 0.0, 0.0, 0.0, 0.0, 0.0, 0.0, 0.0, 0.0, 0.0, 0.0, 0.0, 0.0, 0.0, 0.0, 0.0, 0.0, 0.0, 0.0)"
1737285472.7700949,12895,1737285471,333667264,map,base_link,-0.7515453895383428,3.3055639612859244,1.886,-0.06599633782550406,-0.08901136529991632,-0.9920557815210675,0.05955490401042212,"(0.5328999999999999, 0.0, 0.0, 0.0, 0.0, 0.0, 0.0, 0.5328999999999999, 0.0, 0.0, 0.0, 0.0, 0.0, 0.0, 0.9428409999999999, 0.0, 0.0, 0.0, 0.0, 0.0, 0.0, 99999.0, 0.0, 0.0, 0.0, 0.0, 0.0, 0.0, 99999.0, 0.0, 0.0, 0.0, 0.0, 0.0, 0.0, 99999.0)",0.03,0.65,-1.26,0.0,0.0,0.0,"(-1.0, 0.0, 0.0, 0.0, 0.0, 0.0, 0.0, 0.0, 0.0, 0.0, 0.0, 0.0, 0.0, 0.0, 0.0, 0.0, 0.0, 0.0, 0.0, 0.0, 0.0, 0.0, 0.0, 0.0, 0.0, 0.0, 0.0, 0.0, 0.0, 0.0, 0.0, 0.0, 0.0, 0.0, 0.0, 0.0)"
1737285472.7701855,12896,1737285471,433667776,map,base_link,-0.7329887211444501,3.3943040010517738,2.015,-0.05604932719443879,-0.09072806230818554,-0.9938534267805343,0.029702823223415494,"(0.5314409999999999, 0.0, 0.0, 0.0, 0.0, 0.0, 0.0, 0.5314409999999999, 0.0, 0.0, 0.0, 0.0, 0.0, 0.0, 0.9428409999999999, 0.0, 0.0, 0.0, 0.0, 0.0, 0.0, 99999.0, 0.0, 0.0, 0.0, 0.0, 0.0, 0.0, 99999.0, 0.0, 0.0, 0.0, 0.0, 0.0, 0.0, 99999.0)",0.15,0.88,-1.33,0.0,0.0,0.0,"(-1.0, 0.0, 0.0, 0.0, 0.0, 0.0, 0.0, 0.0, 0.0, 0.0, 0.0, 0.0, 0.0, 0.0, 0.0, 0.0, 0.0, 0.0, 0.0, 0.0, 0.0, 0.0, 0.0, 0.0, 0.0, 0.0, 0.0, 0.0, 0.0, 0.0, 0.0, 0.0, 0.0, 0.0, 0.0, 0.0)"
1737285472.7733305,12897,1737285471,533667008,map,base_link,-0.7144320524546093,3.4830440440369936,2.147,-0.0419263010357606,-0.0936231593098251,-0.9945826773925042,-0.01679842710088975,"(0.5314409999999999, 0.0, 0.0, 0.0, 0.0, 0.0, 0.0, 0.5314409999999999, 0.0, 0.0, 0.0, 0.0, 0.0, 0.0, 0.9428409999999999, 0.0, 0.0, 0.0, 0.0, 0.0, 0.0, 99999.0, 0.0, 0.0, 0.0, 0.0, 0.0, 0.0, 99999.0, 0.0, 0.0, 0.0, 0.0, 0.0, 0.0, 99999.0)",0.25,1.08,-1.35,0.0,0.0,0.0,"(-1.0, 0.0, 0.0, 0.0, 0.0, 0.0, 0.0, 0.0, 0.0, 0.0, 0.0, 0.0, 0.0, 0.0, 0.0, 0.0, 0.0, 0.0, 0.0, 0.0, 0.0, 0.0, 0.0, 0.0, 0.0, 0.0, 0.0, 0.0, 0.0, 0.0, 0.0, 0.0, 0.0, 0.0, 0.0, 0.0)"
1737285472.7733915,12898,1737285471,633667520,map,base_link,-0.6680403666670044,3.5939690835912144,2.278,-0.025015943328616095,-0.09205549033862004,-0.9926223123837624,-0.07483938960071673,"(0.529984, 0.0, 0.0, 0.0, 0.0, 0.0, 0.0, 0.529984, 0.0, 0.0, 0.0, 0.0, 0.0, 0.0, 0.944784, 0.0, 0.0, 0.0, 0.0, 0.0, 0.0, 99999.0, 0.0, 0.0, 0.0, 0.0, 0.0, 0.0, 99999.0, 0.0, 0.0, 0.0, 0.0, 0.0, 0.0, 99999.0)",0.34,1.27,-1.32,0.0,0.0,0.0,"(-1.0, 0.0, 0.0, 0.0, 0.0, 0.0, 0.0, 0.0, 0.0, 0.0, 0.0, 0.0, 0.0, 0.0, 0.0, 0.0, 0.0, 0.0, 0.0, 0.0, 0.0, 0.0, 0.0, 0.0, 0.0, 0.0, 0.0, 0.0, 0.0, 0.0, 0.0, 0.0, 0.0, 0.0, 0.0, 0.0)"
1737285472.773572,12899,1737285471,733670848,map,base_link,-0.6216486797143179,3.7270791280958235,2.411,-0.009004773586506684,-0.0793593365006881,-0.98672842929964,-0.1413789820825268,"(0.529984, 0.0, 0.0, 0.0, 0.0, 0.0, 0.0, 0.529984, 0.0, 0.0, 0.0, 0.0, 0.0, 0.0, 0.944784, 0.0, 0.0, 0.0, 0.0, 0.0, 0.0, 99999.0, 0.0, 0.0, 0.0, 0.0, 0.0, 0.0, 99999.0, 0.0, 0.0, 0.0, 0.0, 0.0, 0.0, 99999.0)",0.4,1.42,-1.3,0.0,0.0,0.0,"(-1.0, 0.0, 0.0, 0.0, 0.0, 0.0, 0.0, 0.0, 0.0, 0.0, 0.0, 0.0, 0.0, 0.0, 0.0, 0.0, 0.0, 0.0, 0.0, 0.0, 0.0, 0.0, 0.0, 0.0, 0.0, 0.0, 0.0, 0.0, 0.0, 0.0, 0.0, 0.0, 0.0, 0.0, 0.0, 0.0)"
1737285472.77364,12900,1737285471,833671360,map,base_link,-0.5659786503618227,3.8712816641727668,2.539,0.004862756562452044,-0.057827063501069094,-0.9757112663044814,-0.2112342517963483,"(0.5285289999999999, 0.0, 0.0, 0.0, 0.0, 0.0, 0.0, 0.5285289999999999, 0.0, 0.0, 0.0, 0.0, 0.0, 0.0, 0.944784, 0.0, 0.0, 0.0, 0.0, 0.0, 0.0, 99999.0, 0.0, 0.0, 0.0, 0.0, 0.0, 0.0, 99999.0, 0.0, 0.0, 0.0, 0.0, 0.0, 0.0, 99999.0)",0.42,1.54,-1.25,0.0,0.0,0.0,"(-1.0, 0.0, 0.0, 0.0, 0.0, 0.0, 0.0, 0.0, 0.0, 0.0, 0.0, 0.0, 0.0, 0.0, 0.0, 0.0, 0.0, 0.0, 0.0, 0.0, 0.0, 0.0, 0.0, 0.0, 0.0, 0.0, 0.0, 0.0, 0.0, 0.0, 0.0, 0.0, 0.0, 0.0, 0.0, 0.0)"
1737285472.7737262,12901,1737285471,933671872,map,base_link,-0.501030282927162,4.015484210105623,2.66,0.011837163089430745,-0.030218850198298713,-0.9590181017130754,-0.2814799872980955,"(0.5285289999999999, 0.0, 0.0, 0.0, 0.0, 0.0, 0.0, 0.5285289999999999, 0.0, 0.0, 0.0, 0.0, 0.0, 0.0, 0.944784, 0.0, 0.0, 0.0, 0.0, 0.0, 0.0, 99999.0, 0.0, 0.0, 0.0, 0.0, 0.0, 0.0, 99999.0, 0.0, 0.0, 0.0, 0.0, 0.0, 0.0, 99999.0)",0.45,1.62,-1.18,0.0,0.0,0.0,"(-1.0, 0.0, 0.0, 0.0, 0.0, 0.0, 0.0, 0.0, 0.0, 0.0, 0.0, 0.0, 0.0, 0.0, 0.0, 0.0, 0.0, 0.0, 0.0, 0.0, 0.0, 0.0, 0.0, 0.0, 0.0, 0.0, 0.0, 0.0, 0.0, 0.0, 0.0, 0.0, 0.0, 0.0, 0.0, 0.0)"
1737285472.777392,12902,1737285472,33672384,map,base_link,-0.4360819131563024,4.1707792489209305,2.772,0.014852311491200596,-0.0013267966684332097,-0.9343355354612302,-0.3560825123877121,"(0.5285289999999999, 0.0, 0.0, 0.0, 0.0, 0.0, 0.0, 0.5285289999999999, 0.0, 0.0, 0.0, 0.0, 0.0, 0.0, 0.944784, 0.0, 0.0, 0.0, 0.0, 0.0, 0.0, 99999.0, 0.0, 0.0, 0.0, 0.0, 0.0, 0.0, 99999.0, 0.0, 0.0, 0.0, 0.0, 0.0, 0.0, 99999.0)",0.46,1.63,-1.09,0.0,0.0,0.0,"(-1.0, 0.0, 0.0, 0.0, 0.0, 0.0, 0.0, 0.0, 0.0, 0.0, 0.0, 0.0, 0.0, 0.0, 0.0, 0.0, 0.0, 0.0, 0.0, 0.0, 0.0, 0.0, 0.0, 0.0, 0.0, 0.0, 0.0, 0.0, 0.0, 0.0, 0.0, 0.0, 0.0, 0.0, 0.0, 0.0)"
1737285472.7792842,12903,1737285472,133671616,map,base_link,-0.37113354347485156,4.3149817934554875,2.88,0.011135203444110347,0.028737397133960493,-0.8947391936578007,-0.4455243479124478,"(0.5285289999999999, 0.0, 0.0, 0.0, 0.0, 0.0, 0.0, 0.5285289999999999, 0.0, 0.0, 0.0, 0.0, 0.0, 0.0, 0.944784, 0.0, 0.0, 0.0, 0.0, 0.0, 0.0, 99999.0, 0.0, 0.0, 0.0, 0.0, 0.0, 0.0, 99999.0, 0.0, 0.0, 0.0, 0.0, 0.0, 0.0, 99999.0)",0.45,1.6,-1.01,0.0,0.0,0.0,"(-1.0, 0.0, 0.0, 0.0, 0.0, 0.0, 0.0, 0.0, 0.0, 0.0, 0.0, 0.0, 0.0, 0.0, 0.0, 0.0, 0.0, 0.0, 0.0, 0.0, 0.0, 0.0, 0.0, 0.0, 0.0, 0.0, 0.0, 0.0, 0.0, 0.0, 0.0, 0.0, 0.0, 0.0, 0.0, 0.0)"
