Time,header.seq,header.stamp.secs,header.stamp.nsecs,header.frame_id,status.status,status.service,latitude,longitude,altitude,position_covariance_0,position_covariance_1,position_covariance_2,position_covariance_3,position_covariance_4,position_covariance_5,position_covariance_6,position_covariance_7,position_covariance_8,position_covariance_type
1729690889.2921283,1577,1729690888,967279936,base_link,0,1,33.6371294,72.991273,500.966141656156,1.0424409999999997,0.0,0.0,0.0,1.0424409999999997,0.0,0.0,0.0,2.022084,2
1729690889.2922626,1578,1729690889,67276352,base_link,0,1,33.6371293,72.9912731,501.1061414403755,1.0424409999999997,0.0,0.0,0.0,1.0424409999999997,0.0,0.0,0.0,2.0164,2
1729690889.2924323,1579,1729690889,167272256,base_link,0,1,33.6371293,72.9912732,501.24614183756006,1.0424409999999997,0.0,0.0,0.0,1.0424409999999997,0.0,0.0,0.0,2.0164,2
1729690889.292684,1580,1729690889,267268416,base_link,0,1,33.6371293,72.9912734,501.3961426319293,1.0424409999999997,0.0,0.0,0.0,1.0424409999999997,0.0,0.0,0.0,2.0107239999999997,2
1729690889.36664,1581,1729690889,365264832,base_link,0,1,33.6371293,72.9912736,501.5161434262987,1.0424409999999997,0.0,0.0,0.0,1.0424409999999997,0.0,0.0,0.0,2.0107239999999997,2
1729690889.4664216,1582,1729690889,465257920,base_link,0,1,33.6371293,72.9912738,501.63614422066814,1.0404,0.0,0.0,0.0,1.0404,0.0,0.0,0.0,2.007889,2
1729690889.566794,1583,1729690889,565254080,base_link,0,1,33.6371293,72.9912739,501.74614461785285,1.0404,0.0,0.0,0.0,1.0404,0.0,0.0,0.0,2.007889,2
1729690889.6668043,1584,1729690889,665248704,base_link,0,1,33.6371292,72.9912741,501.8461447992571,1.0424409999999997,0.0,0.0,0.0,1.0424409999999997,0.0,0.0,0.0,2.007889,2
1729690889.7683578,1585,1729690889,766244352,base_link,0,1,33.6371291,72.9912742,501.93614458347656,1.0424409999999997,0.0,0.0,0.0,1.0424409999999997,0.0,0.0,0.0,2.007889,2
1729690889.8682535,1586,1729690889,866238976,base_link,0,1,33.637129,72.9912743,502.0261443676961,1.0424409999999997,0.0,0.0,0.0,1.0424409999999997,0.0,0.0,0.0,2.002225,2
1729690889.969384,1587,1729690889,966233856,base_link,0,1,33.637129,72.9912745,502.1061451620656,1.0424409999999997,0.0,0.0,0.0,1.0424409999999997,0.0,0.0,0.0,2.002225,2
1729690890.0684142,1588,1729690890,66228992,base_link,0,1,33.637129,72.9912746,502.18614555925035,1.0404,0.0,0.0,0.0,1.0404,0.0,0.0,0.0,1.9993959999999997,2
1729690890.1698287,1589,1729690890,166223872,base_link,0,1,33.6371289,72.9912748,502.2361457406547,1.0404,0.0,0.0,0.0,1.0404,0.0,0.0,0.0,1.9993959999999997,2
1729690890.2677934,1590,1729690890,266218752,base_link,0,1,33.6371288,72.991275,502.2961459220588,1.0404,0.0,0.0,0.0,1.0404,0.0,0.0,0.0,1.996569,2
1729690890.3676865,1591,1729690890,366212096,base_link,0,1,33.6371289,72.991275,502.34614653502433,1.0404,0.0,0.0,0.0,1.0404,0.0,0.0,0.0,1.996569,2
1729690890.4678326,1592,1729690890,466206976,base_link,0,1,33.637129,72.9912751,502.38614754517465,1.0404,0.0,0.0,0.0,1.0404,0.0,0.0,0.0,1.9937439999999997,2
1729690890.5678477,1593,1729690890,566198784,base_link,0,1,33.6371292,72.9912752,502.4361491682909,1.0404,0.0,0.0,0.0,1.0404,0.0,0.0,0.0,1.9937439999999997,2
1729690890.6677134,1594,1729690890,666195200,base_link,0,1,33.6371294,72.9912752,502.4761503942228,1.0404,0.0,0.0,0.0,1.0404,0.0,0.0,0.0,1.9909210000000002,2
1729690890.7694209,1595,1729690890,767191616,base_link,0,1,33.6371296,72.9912752,502.5061516201549,1.0404,0.0,0.0,0.0,1.0404,0.0,0.0,0.0,1.9909210000000002,2
1729690890.8693821,1596,1729690890,867188032,base_link,0,1,33.6371297,72.9912753,502.5361526303064,1.0383609999999999,0.0,0.0,0.0,1.0383609999999999,0.0,0.0,0.0,1.9880999999999998,2
1729690890.9699152,1597,1729690890,967183424,base_link,0,1,33.6371299,72.9912754,502.56615425342443,1.0383609999999999,0.0,0.0,0.0,1.0383609999999999,0.0,0.0,0.0,1.9880999999999998,2
1729690891.069741,1598,1729690891,68178816,base_link,0,1,33.6371301,72.9912756,502.59615627372864,1.0383609999999999,0.0,0.0,0.0,1.0383609999999999,0.0,0.0,0.0,1.985281,2
1729690891.1668963,1599,1729690891,165175488,base_link,0,1,33.6371303,72.9912757,502.616157896848,1.0383609999999999,0.0,0.0,0.0,1.0383609999999999,0.0,0.0,0.0,1.985281,2
1729690891.266701,1600,1729690891,265168064,base_link,0,1,33.6371306,72.9912757,502.61615973574936,1.036324,0.0,0.0,0.0,1.036324,0.0,0.0,0.0,1.9824639999999998,2
1729690891.3676534,1601,1729690891,366160384,base_link,0,1,33.6371308,72.9912758,502.61616135886993,1.036324,0.0,0.0,0.0,1.036324,0.0,0.0,0.0,1.9824639999999998,2
1729690891.4679637,1602,1729690891,466156032,base_link,0,1,33.6371311,72.9912757,502.60616280058673,1.0342889999999998,0.0,0.0,0.0,1.0342889999999998,0.0,0.0,0.0,1.979649,2
1729690891.568636,1603,1729690891,566151168,base_link,0,1,33.6371314,72.9912756,502.6061642423042,1.0342889999999998,0.0,0.0,0.0,1.0342889999999998,0.0,0.0,0.0,1.979649,2
1729690891.668799,1604,1729690891,666149888,base_link,0,1,33.6371317,72.9912754,502.5961652868361,1.0342889999999998,0.0,0.0,0.0,1.0342889999999998,0.0,0.0,0.0,1.9740250000000001,2
1729690891.770898,1605,1729690891,769144000,base_link,0,1,33.6371319,72.9912752,502.5961657184,1.0342889999999998,0.0,0.0,0.0,1.0342889999999998,0.0,0.0,0.0,1.9740250000000001,2
1729690891.86933,1606,1729690891,867138112,base_link,0,1,33.6371322,72.991275,502.59616676293246,1.032256,0.0,0.0,0.0,1.032256,0.0,0.0,0.0,1.9712159999999999,2
1729690891.9668088,1607,1729690891,965135296,base_link,0,1,33.6371324,72.9912748,502.5961671944967,1.032256,0.0,0.0,0.0,1.032256,0.0,0.0,0.0,1.9712159999999999,2
1729690892.0669885,1608,1729690892,65130944,base_link,0,1,33.6371326,72.9912745,502.59616722887466,1.0302249999999997,0.0,0.0,0.0,1.0302249999999997,0.0,0.0,0.0,1.968409,2
1729690892.167587,1609,1729690892,165128640,base_link,0,1,33.6371328,72.9912743,502.5961676604391,1.0302249999999997,0.0,0.0,0.0,1.0302249999999997,0.0,0.0,0.0,1.968409,2
1729690892.2670205,1610,1729690892,265122240,base_link,0,1,33.6371329,72.991274,502.59616708184853,1.0302249999999997,0.0,0.0,0.0,1.0302249999999997,0.0,0.0,0.0,1.9656039999999997,2
1729690892.3682435,1611,1729690892,366119168,base_link,0,1,33.6371331,72.9912737,502.5961671162266,1.0302249999999997,0.0,0.0,0.0,1.0302249999999997,0.0,0.0,0.0,1.9656039999999997,2
1729690892.4679859,1612,1729690892,466114560,base_link,0,1,33.6371332,72.9912734,502.5961665376361,1.028196,0.0,0.0,0.0,1.028196,0.0,0.0,0.0,1.962801,2
1729690892.5680063,1613,1729690892,566110208,base_link,0,1,33.6371332,72.9912731,502.5961653460772,1.028196,0.0,0.0,0.0,1.028196,0.0,0.0,0.0,1.962801,2
1729690892.668066,1614,1729690892,666104064,base_link,0,1,33.6371332,72.9912727,502.5961637573323,1.028196,0.0,0.0,0.0,1.028196,0.0,0.0,0.0,1.9599999999999997,2
1729690892.767917,1615,1729690892,766099456,base_link,0,1,33.6371332,72.9912724,502.59616256577385,1.028196,0.0,0.0,0.0,1.028196,0.0,0.0,0.0,1.9599999999999997,2
1729690892.8678896,1616,1729690892,866096384,base_link,0,1,33.6371331,72.9912721,502.5961607612477,1.028196,0.0,0.0,0.0,1.028196,0.0,0.0,0.0,1.9544039999999998,2
1729690892.9680657,1617,1729690892,967096384,base_link,0,1,33.637133,72.9912718,502.59615895672204,1.028196,0.0,0.0,0.0,1.028196,0.0,0.0,0.0,1.9544039999999998,2
1729690893.0679917,1618,1729690893,66089216,base_link,0,1,33.6371328,72.9912714,502.58615614204365,1.0261689999999999,0.0,0.0,0.0,1.0261689999999999,0.0,0.0,0.0,1.9488159999999997,2
1729690893.1689944,1619,1729690893,167083584,base_link,0,1,33.6371326,72.9912711,502.5761537245524,1.0261689999999999,0.0,0.0,0.0,1.0261689999999999,0.0,0.0,0.0,1.9488159999999997,2
1729690893.2690253,1620,1729690893,267080000,base_link,0,1,33.6371324,72.9912708,502.57615130706216,1.024144,0.0,0.0,0.0,1.024144,0.0,0.0,0.0,1.9432359999999997,2
1729690893.367109,1621,1729690893,365072576,base_link,0,1,33.6371322,72.9912705,502.5661488895731,1.024144,0.0,0.0,0.0,1.024144,0.0,0.0,0.0,1.9432359999999997,2
1729690893.4670281,1622,1729690893,465068992,base_link,0,1,33.6371319,72.9912703,502.55614625630403,1.024144,0.0,0.0,0.0,1.024144,0.0,0.0,0.0,1.940449,2
1729690893.5669549,1623,1729690893,565060800,base_link,0,1,33.6371317,72.9912703,502.556145030372,1.024144,0.0,0.0,0.0,1.024144,0.0,0.0,0.0,1.940449,2
1729690893.6671207,1624,1729690893,666052608,base_link,0,1,33.6371314,72.9912701,502.5661423971051,1.0221209999999998,0.0,0.0,0.0,1.0221209999999998,0.0,0.0,0.0,1.9376639999999998,2
1729690893.7670143,1625,1729690893,766043904,base_link,0,1,33.6371311,72.99127,502.5761401610242,1.0221209999999998,0.0,0.0,0.0,1.0221209999999998,0.0,0.0,0.0,1.9376639999999998,2
1729690893.8679771,1626,1729690893,866035968,base_link,0,1,33.6371307,72.9912699,502.5861373119796,1.0221209999999998,0.0,0.0,0.0,1.0221209999999998,0.0,0.0,0.0,1.934881,2
1729690893.9680645,1627,1729690893,967027776,base_link,0,1,33.6371304,72.9912699,502.6061354730856,1.0221209999999998,0.0,0.0,0.0,1.0221209999999998,0.0,0.0,0.0,1.934881,2
1729690894.0660532,1628,1729690894,65019840,base_link,0,1,33.63713,72.9912698,502.6161326240439,1.0201,0.0,0.0,0.0,1.0201,0.0,0.0,0.0,1.9320999999999997,2
1729690894.1673455,1629,1729690894,165017536,base_link,0,1,33.6371297,72.9912698,502.6261307851519,1.0201,0.0,0.0,0.0,1.0201,0.0,0.0,0.0,1.9320999999999997,2
1729690894.268398,1630,1729690894,266014208,base_link,0,1,33.6371294,72.9912698,502.63612894626056,1.0180809999999998,0.0,0.0,0.0,1.0180809999999998,0.0,0.0,0.0,1.929321,2
1729690894.36608,1631,1729690894,365010880,base_link,0,1,33.637129,72.9912698,502.64612649440676,1.0180809999999998,0.0,0.0,0.0,1.0180809999999998,0.0,0.0,0.0,1.929321,2
1729690894.4683723,1632,1729690894,467004736,base_link,0,1,33.6371288,72.9912699,502.656125665664,1.016064,0.0,0.0,0.0,1.016064,0.0,0.0,0.0,1.923769,2
1729690894.5682108,1633,1729690894,566001920,base_link,0,1,33.6371285,72.99127,502.6561242239585,1.016064,0.0,0.0,0.0,1.016064,0.0,0.0,0.0,1.923769,2
1729690894.666127,1634,1729690894,665000128,base_link,0,1,33.6371282,72.9912701,502.6561227822535,1.012036,0.0,0.0,0.0,1.012036,0.0,0.0,0.0,1.9209959999999997,2
1729690894.7676327,1635,1729690894,765997056,base_link,0,1,33.637128,72.9912703,502.646122350695,1.012036,0.0,0.0,0.0,1.012036,0.0,0.0,0.0,1.9209959999999997,2
1729690894.8685956,1636,1729690894,866993728,base_link,0,1,33.6371278,72.9912704,502.6461215219533,1.012036,0.0,0.0,0.0,1.012036,0.0,0.0,0.0,1.918225,2
1729690894.967737,1637,1729690894,965993216,base_link,0,1,33.6371276,72.9912704,502.63612029602854,1.012036,0.0,0.0,0.0,1.012036,0.0,0.0,0.0,1.918225,2
1729690895.069806,1638,1729690895,66989632,base_link,0,1,33.6371275,72.9912706,502.62612047743266,1.0100249999999997,0.0,0.0,0.0,1.0100249999999997,0.0,0.0,0.0,1.9154559999999998,2
1729690895.1707306,1639,1729690895,168985024,base_link,0,1,33.6371274,72.9912707,502.6261202616536,1.0100249999999997,0.0,0.0,0.0,1.0100249999999997,0.0,0.0,0.0,1.9154559999999998,2
1729690895.268183,1640,1729690895,266979904,base_link,0,1,33.6371274,72.9912708,502.62612065883684,1.008016,0.0,0.0,0.0,1.008016,0.0,0.0,0.0,1.912689,2
1729690895.3703523,1641,1729690895,367977856,base_link,0,1,33.6371274,72.991271,502.6361214532033,1.008016,0.0,0.0,0.0,1.008016,0.0,0.0,0.0,1.912689,2
1729690895.4664624,1642,1729690895,464972224,base_link,0,1,33.6371274,72.9912711,502.63612185038664,1.0060089999999997,0.0,0.0,0.0,1.0060089999999997,0.0,0.0,0.0,1.9099239999999997,2
1729690895.5685818,1643,1729690895,565967360,base_link,0,1,33.6371276,72.9912712,502.656123473495,1.0060089999999997,0.0,0.0,0.0,1.0060089999999997,0.0,0.0,0.0,1.9099239999999997,2
1729690895.6664634,1644,1729690895,664959680,base_link,0,1,33.6371278,72.9912714,502.66612549378743,1.0060089999999997,0.0,0.0,0.0,1.0060089999999997,0.0,0.0,0.0,1.9099239999999997,2
1729690895.768554,1645,1729690895,766954560,base_link,0,1,33.637128,72.9912715,502.69612711689706,1.0060089999999997,0.0,0.0,0.0,1.0060089999999997,0.0,0.0,0.0,1.9099239999999997,2
1729690895.867407,1646,1729690895,865952256,base_link,0,1,33.6371283,72.9912716,502.7261293529707,1.0060089999999997,0.0,0.0,0.0,1.0060089999999997,0.0,0.0,0.0,1.9099239999999997,2
1729690895.966372,1647,1729690895,964947648,base_link,0,1,33.6371286,72.9912717,502.77613158904524,1.0060089999999997,0.0,0.0,0.0,1.0060089999999997,0.0,0.0,0.0,1.9099239999999997,2
1729690896.068128,1648,1729690896,64945088,base_link,0,1,33.6371289,72.9912717,502.83613342793683,1.0060089999999997,0.0,0.0,0.0,1.0060089999999997,0.0,0.0,0.0,1.9099239999999997,2
1729690896.1703842,1649,1729690896,166943296,base_link,0,1,33.6371292,72.9912717,502.8861352668293,1.0060089999999997,0.0,0.0,0.0,1.0060089999999997,0.0,0.0,0.0,1.9099239999999997,2
1729690896.2689133,1650,1729690896,266940224,base_link,0,1,33.6371296,72.9912719,502.94613851305587,1.0060089999999997,0.0,0.0,0.0,1.0060089999999997,0.0,0.0,0.0,1.9099239999999997,2
1729690896.3679736,1651,1729690896,365936896,base_link,0,1,33.6371301,72.991272,503.0061419750653,1.0060089999999997,0.0,0.0,0.0,1.0060089999999997,0.0,0.0,0.0,1.9099239999999997,2
1729690896.4684098,1652,1729690896,466935360,base_link,0,1,33.6371304,72.9912722,503.05614460833095,1.0060089999999997,0.0,0.0,0.0,1.0060089999999997,0.0,0.0,0.0,1.907161,2
1729690896.5684967,1653,1729690896,566929472,base_link,0,1,33.6371308,72.9912722,503.106147060194,1.0060089999999997,0.0,0.0,0.0,1.0060089999999997,0.0,0.0,0.0,1.907161,2
1729690896.6680064,1654,1729690896,665927168,base_link,0,1,33.6371311,72.9912722,503.15614889909205,1.008016,0.0,0.0,0.0,1.008016,0.0,0.0,0.0,1.907161,2
1729690896.7684329,1655,1729690896,766921024,base_link,0,1,33.6371314,72.9912721,503.2061503408058,1.008016,0.0,0.0,0.0,1.008016,0.0,0.0,0.0,1.907161,2
1729690896.867452,1656,1729690896,865918208,base_link,0,1,33.6371316,72.991272,503.2661511695534,1.0100249999999997,0.0,0.0,0.0,1.0100249999999997,0.0,0.0,0.0,1.9043999999999996,2
1729690896.9667377,1657,1729690896,965911296,base_link,0,1,33.6371318,72.9912719,503.32615199830127,1.0100249999999997,0.0,0.0,0.0,1.0100249999999997,0.0,0.0,0.0,1.9043999999999996,2
1729690897.0684912,1658,1729690897,66910528,base_link,0,1,33.6371319,72.9912718,503.3861522140827,1.0100249999999997,0.0,0.0,0.0,1.0100249999999997,0.0,0.0,0.0,1.901641,2
1729690897.1685796,1659,1729690897,166906944,base_link,0,1,33.637132,72.9912718,503.4561528270494,1.0100249999999997,0.0,0.0,0.0,1.0100249999999997,0.0,0.0,0.0,1.901641,2
1729690897.2675908,1660,1729690897,265896960,base_link,0,1,33.6371321,72.9912717,503.51615304283075,1.008016,0.0,0.0,0.0,1.008016,0.0,0.0,0.0,1.8988839999999998,2
1729690897.3675852,1661,1729690897,365888256,base_link,0,1,33.6371322,72.9912717,503.5761536557976,1.008016,0.0,0.0,0.0,1.008016,0.0,0.0,0.0,1.8988839999999998,2
1729690897.467584,1662,1729690897,465879552,base_link,0,1,33.6371322,72.9912716,503.6361532586122,1.008016,0.0,0.0,0.0,1.008016,0.0,0.0,0.0,1.896129,2
1729690897.570608,1663,1729690897,568869568,base_link,0,1,33.6371322,72.9912714,503.6961524642412,1.008016,0.0,0.0,0.0,1.008016,0.0,0.0,0.0,1.896129,2
1729690897.668998,1664,1729690897,666869568,base_link,0,1,33.6371322,72.9912713,503.7461520670558,1.008016,0.0,0.0,0.0,1.008016,0.0,0.0,0.0,1.8933759999999997,2
1729690897.76874,1665,1729690897,766869568,base_link,0,1,33.6371321,72.9912712,503.8061510569037,1.008016,0.0,0.0,0.0,1.008016,0.0,0.0,0.0,1.8933759999999997,2
1729690897.8675365,1666,1729690897,866866496,base_link,0,1,33.637132,72.9912711,503.86615004675184,1.008016,0.0,0.0,0.0,1.008016,0.0,0.0,0.0,1.890625,2
1729690897.9675329,1667,1729690897,965860864,base_link,0,1,33.6371319,72.9912711,503.91614943378534,1.008016,0.0,0.0,0.0,1.008016,0.0,0.0,0.0,1.890625,2
1729690898.067995,1668,1729690898,65854208,base_link,0,1,33.6371317,72.9912712,503.95614860503775,1.008016,0.0,0.0,0.0,1.008016,0.0,0.0,0.0,1.8878760000000003,2
1729690898.1676362,1669,1729690898,165847808,base_link,0,1,33.6371315,72.9912712,503.9961473791054,1.008016,0.0,0.0,0.0,1.008016,0.0,0.0,0.0,1.8878760000000003,2
1729690898.2679722,1670,1729690898,265843712,base_link,0,1,33.6371315,72.9912712,504.0261473791054,1.008016,0.0,0.0,0.0,1.008016,0.0,0.0,0.0,1.8878760000000003,2
1729690898.3676221,1671,1729690898,365836800,base_link,0,1,33.6371314,72.9912713,504.0461471633244,1.008016,0.0,0.0,0.0,1.008016,0.0,0.0,0.0,1.8878760000000003,2
1729690898.4677298,1672,1729690898,465829888,base_link,0,1,33.6371313,72.9912712,504.06614615317335,1.0100249999999997,0.0,0.0,0.0,1.0100249999999997,0.0,0.0,0.0,1.885129,2
1729690898.5709593,1673,1729690898,565822976,base_link,0,1,33.6371313,72.9912712,504.08614615317333,1.0100249999999997,0.0,0.0,0.0,1.0100249999999997,0.0,0.0,0.0,1.885129,2
1729690898.6670372,1674,1729690898,664817856,base_link,0,1,33.6371312,72.9912712,504.09614554020754,1.008016,0.0,0.0,0.0,1.008016,0.0,0.0,0.0,1.879641,2
1729690898.772815,1675,1729690898,770812480,base_link,0,1,33.6371311,72.9912712,504.1161449272417,1.008016,0.0,0.0,0.0,1.008016,0.0,0.0,0.0,1.879641,2
1729690898.8679507,1676,1729690898,865809920,base_link,0,1,33.637131,72.9912712,504.126144314276,1.0060089999999997,0.0,0.0,0.0,1.0060089999999997,0.0,0.0,0.0,1.874161,2
1729690898.9682918,1677,1729690898,965800704,base_link,0,1,33.6371308,72.9912713,504.1361434855297,1.0060089999999997,0.0,0.0,0.0,1.0060089999999997,0.0,0.0,0.0,1.874161,2
1729690899.0679526,1678,1729690899,65800192,base_link,0,1,33.6371307,72.9912713,504.14614287256416,1.004004,0.0,0.0,0.0,1.004004,0.0,0.0,0.0,1.8659560000000004,2
1729690899.167126,1679,1729690899,165794048,base_link,0,1,33.6371306,72.9912714,504.1561426567835,1.004004,0.0,0.0,0.0,1.004004,0.0,0.0,0.0,1.8659560000000004,2
1729690899.2668602,1680,1729690899,265787648,base_link,0,1,33.6371305,72.9912715,504.1561424410029,1.0020009999999997,0.0,0.0,0.0,1.0020009999999997,0.0,0.0,0.0,1.8604960000000004,2
1729690899.3670063,1681,1729690899,364782272,base_link,0,1,33.6371304,72.9912716,504.1461422252223,1.0020009999999997,0.0,0.0,0.0,1.0020009999999997,0.0,0.0,0.0,1.8604960000000004,2
1729690899.4658208,1682,1729690899,464777152,base_link,0,1,33.6371303,72.9912717,504.14614200944175,1.0,0.0,0.0,0.0,1.0,0.0,0.0,0.0,1.8523209999999999,2
1729690899.5660725,1683,1729690899,564771776,base_link,0,1,33.6371302,72.9912717,504.13614139647655,1.0,0.0,0.0,0.0,1.0,0.0,0.0,0.0,1.8523209999999999,2
1729690899.6660137,1684,1729690899,664767936,base_link,0,1,33.6371301,72.9912718,504.1361411806961,0.998001,0.0,0.0,0.0,0.998001,0.0,0.0,0.0,1.846881,2
1729690899.7659626,1685,1729690899,764764864,base_link,0,1,33.63713,72.9912718,504.136140567731,0.998001,0.0,0.0,0.0,0.998001,0.0,0.0,0.0,1.846881,2
1729690899.868905,1686,1729690899,866762816,base_link,0,1,33.63713,72.9912719,504.1361409649155,0.996004,0.0,0.0,0.0,0.996004,0.0,0.0,0.0,1.8387360000000001,2
1729690899.9660685,1687,1729690899,964759744,base_link,0,1,33.6371299,72.9912719,504.12614035195054,0.996004,0.0,0.0,0.0,0.996004,0.0,0.0,0.0,1.8387360000000001,2
1729690900.068278,1688,1729690900,66756672,base_link,0,1,33.6371298,72.9912719,504.11613973898557,0.994009,0.0,0.0,0.0,0.994009,0.0,0.0,0.0,1.836025,2
1729690900.1689558,1689,1729690900,167753600,base_link,0,1,33.6371298,72.9912719,504.1061397389856,0.994009,0.0,0.0,0.0,0.994009,0.0,0.0,0.0,1.836025,2
1729690900.2660484,1690,1729690900,264749248,base_link,0,1,33.6371298,72.9912718,504.0961393418011,0.992016,0.0,0.0,0.0,0.992016,0.0,0.0,0.0,1.830609,2
1729690900.3710551,1691,1729690900,368746176,base_link,0,1,33.6371297,72.9912718,504.08613872883626,0.992016,0.0,0.0,0.0,0.992016,0.0,0.0,0.0,1.830609,2
1729690900.4681156,1692,1729690900,466744640,base_link,0,1,33.6371297,72.9912718,504.07613872883627,0.990025,0.0,0.0,0.0,0.990025,0.0,0.0,0.0,1.8279040000000002,2
1729690900.5683236,1693,1729690900,566741312,base_link,0,1,33.6371297,72.9912718,504.07613872883627,0.990025,0.0,0.0,0.0,0.990025,0.0,0.0,0.0,1.8279040000000002,2
1729690900.66602,1694,1729690900,664733632,base_link,0,1,33.6371298,72.9912718,504.076139341801,0.988036,0.0,0.0,0.0,0.988036,0.0,0.0,0.0,1.8225000000000002,2
1729690900.7670898,1695,1729690900,765727744,base_link,0,1,33.6371298,72.9912718,504.076139341801,0.988036,0.0,0.0,0.0,0.988036,0.0,0.0,0.0,1.8225000000000002,2
1729690900.8671267,1696,1729690900,864723392,base_link,0,1,33.6371299,72.9912718,504.07613995476595,0.988036,0.0,0.0,0.0,0.988036,0.0,0.0,0.0,1.8171040000000003,2
1729690900.9661684,1697,1729690900,964719296,base_link,0,1,33.6371299,72.9912718,504.07613995476595,0.988036,0.0,0.0,0.0,0.988036,0.0,0.0,0.0,1.8171040000000003,2
1729690901.070121,1698,1729690901,68715200,base_link,0,1,33.6371299,72.9912718,504.08613995476594,0.986049,0.0,0.0,0.0,0.986049,0.0,0.0,0.0,1.814409,2
1729690901.1742954,1699,1729690901,170710848,base_link,0,1,33.6371299,72.9912718,504.09613995476604,0.986049,0.0,0.0,0.0,0.986049,0.0,0.0,0.0,1.814409,2
1729690901.2700832,1700,1729690901,267710848,base_link,0,1,33.6371299,72.9912718,504.09613995476604,0.9840639999999999,0.0,0.0,0.0,0.9840639999999999,0.0,0.0,0.0,1.8117160000000003,2
1729690901.369151,1701,1729690901,367704704,base_link,0,1,33.6371298,72.9912718,504.1061393418011,0.9840639999999999,0.0,0.0,0.0,0.9840639999999999,0.0,0.0,0.0,1.8117160000000003,2
1729690901.4697826,1702,1729690901,465693184,base_link,0,1,33.6371297,72.9912718,504.10613872883636,0.982081,0.0,0.0,0.0,0.982081,0.0,0.0,0.0,1.8063360000000002,2
1729690901.5672154,1703,1729690901,565682432,base_link,0,1,33.6371297,72.9912718,504.11613872883635,0.982081,0.0,0.0,0.0,0.982081,0.0,0.0,0.0,1.8063360000000002,2
1729690901.6682558,1704,1729690901,665682432,base_link,0,1,33.6371297,72.9912718,504.11613872883635,0.9801,0.0,0.0,0.0,0.9801,0.0,0.0,0.0,1.8009640000000002,2
1729690901.7680457,1705,1729690901,766670400,base_link,0,1,33.6371297,72.9912718,504.12613872883634,0.9801,0.0,0.0,0.0,0.9801,0.0,0.0,0.0,1.8009640000000002,2
1729690901.868131,1706,1729690901,866670400,base_link,0,1,33.6371297,72.9912718,504.12613872883634,0.978121,0.0,0.0,0.0,0.978121,0.0,0.0,0.0,1.7956000000000003,2
1729690901.9680612,1707,1729690901,966666560,base_link,0,1,33.6371297,72.9912718,504.12613872883634,0.978121,0.0,0.0,0.0,0.978121,0.0,0.0,0.0,1.7956000000000003,2
1729690902.0673153,1708,1729690902,65662720,base_link,0,1,33.6371297,72.9912718,504.11613872883635,0.976144,0.0,0.0,0.0,0.976144,0.0,0.0,0.0,1.792921,2
1729690902.1687913,1709,1729690902,166658624,base_link,0,1,33.6371297,72.9912718,504.10613872883636,0.976144,0.0,0.0,0.0,0.976144,0.0,0.0,0.0,1.792921,2
1729690902.2706714,1710,1729690902,266652736,base_link,0,1,33.6371297,72.9912717,504.09613833165184,0.974169,0.0,0.0,0.0,0.974169,0.0,0.0,0.0,1.7848960000000003,2
1729690902.3682544,1711,1729690902,366647872,base_link,0,1,33.6371296,72.9912716,504.0961373215028,0.974169,0.0,0.0,0.0,0.974169,0.0,0.0,0.0,1.7848960000000003,2
1729690902.4683273,1712,1729690902,466644544,base_link,0,1,33.6371296,72.9912716,504.0961373215028,0.972196,0.0,0.0,0.0,0.972196,0.0,0.0,0.0,1.7795560000000001,2
1729690902.566737,1713,1729690902,564638400,base_link,0,1,33.6371296,72.9912715,504.09613692431844,0.972196,0.0,0.0,0.0,0.972196,0.0,0.0,0.0,1.7795560000000001,2
1729690902.668636,1714,1729690902,666627392,base_link,0,1,33.6371296,72.9912714,504.0961365271341,0.970225,0.0,0.0,0.0,0.970225,0.0,0.0,0.0,1.7742240000000002,2
1729690902.7701352,1715,1729690902,769625344,base_link,0,1,33.6371295,72.9912713,504.0961355169854,0.970225,0.0,0.0,0.0,0.970225,0.0,0.0,0.0,1.7742240000000002,2
1729690902.8674977,1716,1729690902,865618432,base_link,0,1,33.6371295,72.9912712,504.09613511980115,0.966289,0.0,0.0,0.0,0.966289,0.0,0.0,0.0,1.7689000000000001,2
1729690902.9673343,1717,1729690902,966612032,base_link,0,1,33.6371295,72.9912711,504.09613472261697,0.966289,0.0,0.0,0.0,0.966289,0.0,0.0,0.0,1.7689000000000001,2
1729690903.0673802,1718,1729690903,65605376,base_link,0,1,33.6371296,72.9912711,504.09613533558127,0.966289,0.0,0.0,0.0,0.966289,0.0,0.0,0.0,1.7635840000000003,2
1729690903.1673424,1719,1729690903,165600000,base_link,0,1,33.6371296,72.9912711,504.09613533558127,0.966289,0.0,0.0,0.0,0.966289,0.0,0.0,0.0,1.7635840000000003,2
1729690903.2672832,1720,1729690903,265596160,base_link,0,1,33.6371296,72.991271,504.09613493839703,0.964324,0.0,0.0,0.0,0.964324,0.0,0.0,0.0,1.7582760000000002,2
1729690903.3675797,1721,1729690903,365589504,base_link,0,1,33.6371296,72.991271,504.106134938397,0.964324,0.0,0.0,0.0,0.964324,0.0,0.0,0.0,1.7582760000000002,2
1729690903.4665024,1722,1729690903,465582592,base_link,0,1,33.6371297,72.991271,504.10613555136143,0.964324,0.0,0.0,0.0,0.964324,0.0,0.0,0.0,1.752976,2
1729690903.5678685,1723,1729690903,565577728,base_link,0,1,33.6371297,72.991271,504.1161355513614,0.964324,0.0,0.0,0.0,0.964324,0.0,0.0,0.0,1.752976,2
1729690903.667427,1724,1729690903,665571840,base_link,0,1,33.6371297,72.991271,504.1161355513614,0.962361,0.0,0.0,0.0,0.962361,0.0,0.0,0.0,1.7476840000000002,2
1729690903.766641,1725,1729690903,764568000,base_link,0,1,33.6371298,72.991271,504.10613616432585,0.962361,0.0,0.0,0.0,0.962361,0.0,0.0,0.0,1.7476840000000002,2
1729690903.8667688,1726,1729690903,865565696,base_link,0,1,33.6371298,72.991271,504.10613616432585,0.962361,0.0,0.0,0.0,0.962361,0.0,0.0,0.0,1.7424000000000002,2
1729690903.9679866,1727,1729690903,965560832,base_link,0,1,33.6371298,72.9912709,504.10613576714155,0.962361,0.0,0.0,0.0,0.962361,0.0,0.0,0.0,1.7424000000000002,2
1729690904.0679712,1728,1729690904,65554944,base_link,0,1,33.6371298,72.9912709,504.10613576714155,0.9603999999999999,0.0,0.0,0.0,0.9603999999999999,0.0,0.0,0.0,1.739761,2
1729690904.1685922,1729,1729690904,167550592,base_link,0,1,33.6371298,72.9912709,504.10613576714155,0.9603999999999999,0.0,0.0,0.0,0.9603999999999999,0.0,0.0,0.0,1.739761,2
1729690904.2654681,1730,1729690904,264545728,base_link,0,1,33.6371299,72.9912708,504.1061359829217,0.9603999999999999,0.0,0.0,0.0,0.9603999999999999,0.0,0.0,0.0,1.734489,2
1729690904.3666697,1731,1729690904,364541632,base_link,0,1,33.6371299,72.9912707,504.10613558573743,0.9603999999999999,0.0,0.0,0.0,0.9603999999999999,0.0,0.0,0.0,1.734489,2
1729690904.4669,1732,1729690904,464539072,base_link,0,1,33.6371299,72.9912707,504.09613558573744,0.9603999999999999,0.0,0.0,0.0,0.9603999999999999,0.0,0.0,0.0,1.731856,2
1729690904.5676806,1733,1729690904,566532928,base_link,0,1,33.6371299,72.9912706,504.09613518855315,0.9603999999999999,0.0,0.0,0.0,0.9603999999999999,0.0,0.0,0.0,1.731856,2
1729690904.667693,1734,1729690904,666527040,base_link,0,1,33.6371299,72.9912705,504.09613479136897,0.9603999999999999,0.0,0.0,0.0,0.9603999999999999,0.0,0.0,0.0,1.731856,2
1729690904.7739363,1735,1729690904,771520896,base_link,0,1,33.6371298,72.9912703,504.0961333840362,0.9603999999999999,0.0,0.0,0.0,0.9603999999999999,0.0,0.0,0.0,1.731856,2
1729690904.8727722,1736,1729690904,871517568,base_link,0,1,33.6371298,72.9912703,504.1061333840362,0.9603999999999999,0.0,0.0,0.0,0.9603999999999999,0.0,0.0,0.0,1.731856,2
1729690904.9727583,1737,1729690904,971510912,base_link,0,1,33.6371298,72.9912702,504.1161329868521,0.9603999999999999,0.0,0.0,0.0,0.9603999999999999,0.0,0.0,0.0,1.731856,2
1729690905.06986,1738,1729690905,67510912,base_link,0,1,33.6371298,72.9912701,504.1161325896679,0.962361,0.0,0.0,0.0,0.962361,0.0,0.0,0.0,1.731856,2
1729690905.1658113,1739,1729690905,164497600,base_link,0,1,33.6371298,72.9912701,504.1261325896679,0.962361,0.0,0.0,0.0,0.962361,0.0,0.0,0.0,1.731856,2
1729690905.2661314,1740,1729690905,264483520,base_link,0,1,33.6371298,72.9912701,504.1261325896679,0.962361,0.0,0.0,0.0,0.962361,0.0,0.0,0.0,1.7292249999999998,2
1729690905.365977,1741,1729690905,364470208,base_link,0,1,33.6371298,72.9912701,504.1261325896679,0.962361,0.0,0.0,0.0,0.962361,0.0,0.0,0.0,1.7292249999999998,2
1729690905.4660678,1742,1729690905,464470208,base_link,0,1,33.6371298,72.9912701,504.1161325896679,0.9603999999999999,0.0,0.0,0.0,0.9603999999999999,0.0,0.0,0.0,1.7239689999999999,2
1729690905.5659769,1743,1729690905,564470464,base_link,0,1,33.6371298,72.9912701,504.1161325896679,0.9603999999999999,0.0,0.0,0.0,0.9603999999999999,0.0,0.0,0.0,1.7239689999999999,2
1729690905.6689868,1744,1729690905,666464832,base_link,0,1,33.6371297,72.9912702,504.11613237388804,0.9603999999999999,0.0,0.0,0.0,0.9603999999999999,0.0,0.0,0.0,1.7213440000000002,2
1729690905.7727766,1745,1729690905,771462528,base_link,0,1,33.6371297,72.9912703,504.1161327710721,0.9603999999999999,0.0,0.0,0.0,0.9603999999999999,0.0,0.0,0.0,1.7213440000000002,2
1729690905.867877,1746,1729690905,866459712,base_link,0,1,33.6371296,72.9912703,504.116132158108,0.9603999999999999,0.0,0.0,0.0,0.9603999999999999,0.0,0.0,0.0,1.718721,2
1729690905.967788,1747,1729690905,966454080,base_link,0,1,33.6371296,72.9912704,504.1261325552921,0.9603999999999999,0.0,0.0,0.0,0.9603999999999999,0.0,0.0,0.0,1.718721,2
1729690906.067925,1748,1729690906,65446400,base_link,0,1,33.6371296,72.9912704,504.1261325552921,0.958441,0.0,0.0,0.0,0.958441,0.0,0.0,0.0,1.7134809999999998,2
1729690906.1681464,1749,1729690906,165439744,base_link,0,1,33.6371295,72.9912705,504.12613233951214,0.958441,0.0,0.0,0.0,0.958441,0.0,0.0,0.0,1.7134809999999998,2
1729690906.2677925,1750,1729690906,265435648,base_link,0,1,33.6371295,72.9912705,504.12613233951214,0.958441,0.0,0.0,0.0,0.958441,0.0,0.0,0.0,1.7108640000000002,2
1729690906.3670366,1751,1729690906,365428480,base_link,0,1,33.6371295,72.9912706,504.13613273669614,0.958441,0.0,0.0,0.0,0.958441,0.0,0.0,0.0,1.7108640000000002,2
1729690906.4670053,1752,1729690906,465422848,base_link,0,1,33.6371294,72.9912706,504.1461321237321,0.956484,0.0,0.0,0.0,0.956484,0.0,0.0,0.0,1.708249,2
1729690906.5672522,1753,1729690906,565417216,base_link,0,1,33.6371294,72.9912706,504.1561321237321,0.956484,0.0,0.0,0.0,0.956484,0.0,0.0,0.0,1.708249,2
1729690906.6669817,1754,1729690906,665406720,base_link,0,1,33.6371293,72.9912706,504.16613151076814,0.956484,0.0,0.0,0.0,0.956484,0.0,0.0,0.0,1.7056360000000002,2
1729690906.7703333,1755,1729690906,768404160,base_link,0,1,33.6371293,72.9912706,504.1861315107681,0.956484,0.0,0.0,0.0,0.956484,0.0,0.0,0.0,1.7056360000000002,2
1729690906.8671806,1756,1729690906,865399040,base_link,0,1,33.6371292,72.9912707,504.1961312949883,0.956484,0.0,0.0,0.0,0.956484,0.0,0.0,0.0,1.7056360000000002,2
1729690906.9681172,1757,1729690906,965393408,base_link,0,1,33.6371292,72.9912707,504.2161312949884,0.956484,0.0,0.0,0.0,0.956484,0.0,0.0,0.0,1.7056360000000002,2
1729690907.0671954,1758,1729690907,64386496,base_link,0,1,33.6371292,72.9912707,504.22613129498836,0.954529,0.0,0.0,0.0,0.954529,0.0,0.0,0.0,1.7056360000000002,2
1729690907.1671562,1759,1729690907,165378304,base_link,0,1,33.6371292,72.9912708,504.2261316921723,0.954529,0.0,0.0,0.0,0.954529,0.0,0.0,0.0,1.7056360000000002,2
1729690907.2663481,1760,1729690907,264373440,base_link,0,1,33.6371292,72.9912708,504.2261316921723,0.954529,0.0,0.0,0.0,0.954529,0.0,0.0,0.0,1.7056360000000002,2
1729690907.3667119,1761,1729690907,364368064,base_link,0,1,33.6371291,72.9912708,504.2261310792085,0.954529,0.0,0.0,0.0,0.954529,0.0,0.0,0.0,1.7056360000000002,2
1729690907.4666073,1762,1729690907,464362688,base_link,0,1,33.6371291,72.9912708,504.21613107920854,0.952576,0.0,0.0,0.0,0.952576,0.0,0.0,0.0,1.7030249999999998,2
1729690907.5740018,1763,1729690907,569358848,base_link,0,1,33.6371291,72.9912708,504.21613107920854,0.952576,0.0,0.0,0.0,0.952576,0.0,0.0,0.0,1.7030249999999998,2
1729690907.668465,1764,1729690907,666352192,base_link,0,1,33.6371291,72.9912708,504.20613107920843,0.952576,0.0,0.0,0.0,0.952576,0.0,0.0,0.0,1.7030249999999998,2
1729690907.7664735,1765,1729690907,764348864,base_link,0,1,33.6371291,72.9912708,504.19613107920844,0.952576,0.0,0.0,0.0,0.952576,0.0,0.0,0.0,1.7030249999999998,2
1729690907.8687036,1766,1729690907,867345024,base_link,0,1,33.6371291,72.9912708,504.18613107920845,0.9506249999999999,0.0,0.0,0.0,0.9506249999999999,0.0,0.0,0.0,1.7004160000000001,2
1729690907.9686024,1767,1729690907,966342976,base_link,0,1,33.6371291,72.9912708,504.18613107920845,0.9506249999999999,0.0,0.0,0.0,0.9506249999999999,0.0,0.0,0.0,1.7004160000000001,2
1729690908.0687406,1768,1729690908,66330176,base_link,0,1,33.6371291,72.9912708,504.18613107920845,0.9506249999999999,0.0,0.0,0.0,0.9506249999999999,0.0,0.0,0.0,1.697809,2
1729690908.1678283,1769,1729690908,165323520,base_link,0,1,33.6371291,72.9912708,504.18613107920845,0.9506249999999999,0.0,0.0,0.0,0.9506249999999999,0.0,0.0,0.0,1.697809,2
1729690908.267589,1770,1729690908,265316096,base_link,0,1,33.6371291,72.9912708,504.18613107920845,0.9506249999999999,0.0,0.0,0.0,0.9506249999999999,0.0,0.0,0.0,1.6952040000000002,2
1729690908.3676796,1771,1729690908,366310720,base_link,0,1,33.6371291,72.991271,504.1861318735764,0.9506249999999999,0.0,0.0,0.0,0.9506249999999999,0.0,0.0,0.0,1.6952040000000002,2
1729690908.4677684,1772,1729690908,465304064,base_link,0,1,33.6371291,72.991271,504.1861318735764,0.9506249999999999,0.0,0.0,0.0,0.9506249999999999,0.0,0.0,0.0,1.6926009999999998,2
1729690908.5698261,1773,1729690908,567299200,base_link,0,1,33.6371291,72.991271,504.1761318735764,0.9506249999999999,0.0,0.0,0.0,0.9506249999999999,0.0,0.0,0.0,1.6926009999999998,2
1729690908.6676106,1774,1729690908,665293568,base_link,0,1,33.6371291,72.991271,504.1761318735764,0.948676,0.0,0.0,0.0,0.948676,0.0,0.0,0.0,1.6900000000000002,2
1729690908.767563,1775,1729690908,765288960,base_link,0,1,33.6371291,72.991271,504.1861318735764,0.948676,0.0,0.0,0.0,0.948676,0.0,0.0,0.0,1.6900000000000002,2
1729690908.8675523,1776,1729690908,865282560,base_link,0,1,33.6371291,72.991271,504.1961318735764,0.948676,0.0,0.0,0.0,0.948676,0.0,0.0,0.0,1.687401,2
1729690908.9668097,1777,1729690908,965277952,base_link,0,1,33.6371291,72.991271,504.2061318735764,0.948676,0.0,0.0,0.0,0.948676,0.0,0.0,0.0,1.687401,2
1729690909.075732,1778,1729690909,73274112,base_link,0,1,33.6371291,72.991271,504.2061318735764,0.948676,0.0,0.0,0.0,0.948676,0.0,0.0,0.0,1.6848040000000002,2
1729690909.1747658,1779,1729690909,172265408,base_link,0,1,33.6371292,72.991271,504.2161324865404,0.948676,0.0,0.0,0.0,0.948676,0.0,0.0,0.0,1.6848040000000002,2
1729690909.2758186,1780,1729690909,273261568,base_link,0,1,33.6371292,72.9912711,504.2161328837245,0.948676,0.0,0.0,0.0,0.948676,0.0,0.0,0.0,1.6822089999999998,2
1729690909.3733046,1781,1729690909,371255936,base_link,0,1,33.6371292,72.9912711,504.2161328837245,0.948676,0.0,0.0,0.0,0.948676,0.0,0.0,0.0,1.6822089999999998,2
1729690909.472029,1782,1729690909,469251072,base_link,0,1,33.6371292,72.9912711,504.2161328837245,0.948676,0.0,0.0,0.0,0.948676,0.0,0.0,0.0,1.679616,2
1729690909.568047,1783,1729690909,565253120,base_link,0,1,33.6371292,72.9912711,504.2061328837244,0.948676,0.0,0.0,0.0,0.948676,0.0,0.0,0.0,1.679616,2
1729690909.6677854,1784,1729690909,665241344,base_link,0,1,33.6371292,72.9912711,504.2061328837244,0.948676,0.0,0.0,0.0,0.948676,0.0,0.0,0.0,1.6770249999999998,2
1729690909.7690089,1785,1729690909,766234944,base_link,0,1,33.6371293,72.9912712,504.20613389387256,0.948676,0.0,0.0,0.0,0.948676,0.0,0.0,0.0,1.6770249999999998,2
1729690909.867796,1786,1729690909,866234944,base_link,0,1,33.6371293,72.9912712,504.20613389387256,0.948676,0.0,0.0,0.0,0.948676,0.0,0.0,0.0,1.674436,2
1729690909.9678514,1787,1729690909,965229056,base_link,0,1,33.6371293,72.9912713,504.2061342910567,0.948676,0.0,0.0,0.0,0.948676,0.0,0.0,0.0,1.674436,2
1729690910.0665755,1788,1729690910,65222912,base_link,0,1,33.6371294,72.9912713,504.2061349040209,0.948676,0.0,0.0,0.0,0.948676,0.0,0.0,0.0,1.674436,2
1729690910.1674118,1789,1729690910,165217536,base_link,0,1,33.6371294,72.9912714,504.1961353012052,0.948676,0.0,0.0,0.0,0.948676,0.0,0.0,0.0,1.674436,2
1729690910.2663932,1790,1729690910,265212160,base_link,0,1,33.6371295,72.9912714,504.18613591416954,0.9506249999999999,0.0,0.0,0.0,0.9506249999999999,0.0,0.0,0.0,1.674436,2
1729690910.3665183,1791,1729690910,365206528,base_link,0,1,33.6371295,72.9912714,504.17613591416955,0.9506249999999999,0.0,0.0,0.0,0.9506249999999999,0.0,0.0,0.0,1.674436,2
1729690910.468604,1792,1729690910,465199872,base_link,0,1,33.6371295,72.9912714,504.15613591416957,0.9506249999999999,0.0,0.0,0.0,0.9506249999999999,0.0,0.0,0.0,1.671849,2
1729690910.5667994,1793,1729690910,564192704,base_link,0,1,33.6371296,72.9912714,504.14613652713405,0.9506249999999999,0.0,0.0,0.0,0.9506249999999999,0.0,0.0,0.0,1.671849,2
1729690910.6655705,1794,1729690910,664187072,base_link,0,1,33.6371296,72.9912715,504.1361369243184,0.9506249999999999,0.0,0.0,0.0,0.9506249999999999,0.0,0.0,0.0,1.669264,2
1729690910.7664902,1795,1729690910,765181440,base_link,0,1,33.6371296,72.9912714,504.12613652713407,0.9506249999999999,0.0,0.0,0.0,0.9506249999999999,0.0,0.0,0.0,1.669264,2
1729690910.8665168,1796,1729690910,864174784,base_link,0,1,33.6371296,72.9912714,504.13613652713406,0.9506249999999999,0.0,0.0,0.0,0.9506249999999999,0.0,0.0,0.0,1.6666809999999999,2
1729690910.9740145,1797,1729690910,969173760,base_link,0,1,33.6371296,72.9912714,504.13613652713406,0.9506249999999999,0.0,0.0,0.0,0.9506249999999999,0.0,0.0,0.0,1.6666809999999999,2
1729690911.0653849,1798,1729690911,64170176,base_link,0,1,33.6371296,72.9912714,504.13613652713406,0.9506249999999999,0.0,0.0,0.0,0.9506249999999999,0.0,0.0,0.0,1.6641000000000001,2
1729690911.1664872,1799,1729690911,164168384,base_link,0,1,33.6371296,72.9912714,504.14613652713405,0.9506249999999999,0.0,0.0,0.0,0.9506249999999999,0.0,0.0,0.0,1.6641000000000001,2
1729690911.2653635,1800,1729690911,264165568,base_link,0,1,33.6371296,72.9912714,504.14613652713405,0.9506249999999999,0.0,0.0,0.0,0.9506249999999999,0.0,0.0,0.0,1.6615209999999998,2
1729690911.3654768,1801,1729690911,364157632,base_link,0,1,33.6371296,72.9912714,504.14613652713405,0.9506249999999999,0.0,0.0,0.0,0.9506249999999999,0.0,0.0,0.0,1.6615209999999998,2
1729690911.4654846,1802,1729690911,464155328,base_link,0,1,33.6371296,72.9912714,504.15613652713404,0.9506249999999999,0.0,0.0,0.0,0.9506249999999999,0.0,0.0,0.0,1.6563689999999998,2
1729690911.5674794,1803,1729690911,566151488,base_link,0,1,33.6371296,72.9912713,504.15613612994974,0.9506249999999999,0.0,0.0,0.0,0.9506249999999999,0.0,0.0,0.0,1.6563689999999998,2
1729690911.6675947,1804,1729690911,665144576,base_link,0,1,33.6371296,72.9912712,504.16613573276544,0.9506249999999999,0.0,0.0,0.0,0.9506249999999999,0.0,0.0,0.0,1.6563689999999998,2
1729690911.767518,1805,1729690911,766139456,base_link,0,1,33.6371296,72.9912712,504.17613573276543,0.9506249999999999,0.0,0.0,0.0,0.9506249999999999,0.0,0.0,0.0,1.6563689999999998,2
1729690911.8666222,1806,1729690911,865137408,base_link,0,1,33.6371296,72.9912711,504.1861353355812,0.9506249999999999,0.0,0.0,0.0,0.9506249999999999,0.0,0.0,0.0,1.6563689999999998,2
1729690911.967444,1807,1729690911,966133568,base_link,0,1,33.6371296,72.9912711,504.1961353355812,0.9506249999999999,0.0,0.0,0.0,0.9506249999999999,0.0,0.0,0.0,1.6563689999999998,2
1729690912.0665338,1808,1729690912,65127168,base_link,0,1,33.6371296,72.9912711,504.20613533558117,0.952576,0.0,0.0,0.0,0.952576,0.0,0.0,0.0,1.6563689999999998,2
1729690912.168051,1809,1729690912,165123072,base_link,0,1,33.6371296,72.9912711,504.20613533558117,0.952576,0.0,0.0,0.0,0.952576,0.0,0.0,0.0,1.6563689999999998,2
1729690912.2666087,1810,1729690912,265117952,base_link,0,1,33.6371296,72.9912711,504.21613533558127,0.954529,0.0,0.0,0.0,0.954529,0.0,0.0,0.0,1.6589440000000002,2
1729690912.3668432,1811,1729690912,365113088,base_link,0,1,33.6371296,72.9912712,504.2261357327655,0.954529,0.0,0.0,0.0,0.954529,0.0,0.0,0.0,1.6589440000000002,2
1729690912.4672492,1812,1729690912,465109504,base_link,0,1,33.6371296,72.9912712,504.2361357327655,0.956484,0.0,0.0,0.0,0.956484,0.0,0.0,0.0,1.6615209999999998,2
1729690912.57034,1813,1729690912,567104640,base_link,0,1,33.6371296,72.9912713,504.2361361299498,0.956484,0.0,0.0,0.0,0.956484,0.0,0.0,0.0,1.6615209999999998,2
1729690912.6670518,1814,1729690912,665098240,base_link,0,1,33.6371296,72.9912713,504.2361361299498,0.958441,0.0,0.0,0.0,0.958441,0.0,0.0,0.0,1.6615209999999998,2
1729690912.7691405,1815,1729690912,765092096,base_link,0,1,33.6371296,72.9912713,504.2361361299498,0.958441,0.0,0.0,0.0,0.958441,0.0,0.0,0.0,1.6615209999999998,2
1729690912.8660676,1816,1729690912,865088768,base_link,0,1,33.6371296,72.9912713,504.2261361299498,0.9603999999999999,0.0,0.0,0.0,0.9603999999999999,0.0,0.0,0.0,1.6641000000000001,2
1729690912.9661324,1817,1729690912,964083904,base_link,0,1,33.6371296,72.9912713,504.2261361299498,0.9603999999999999,0.0,0.0,0.0,0.9603999999999999,0.0,0.0,0.0,1.6641000000000001,2
1729690913.065936,1818,1729690913,65074944,base_link,0,1,33.6371295,72.9912714,504.2161359141696,0.962361,0.0,0.0,0.0,0.962361,0.0,0.0,0.0,1.6641000000000001,2
1729690913.1669393,1819,1729690913,165069312,base_link,0,1,33.6371294,72.9912716,504.21613609557386,0.962361,0.0,0.0,0.0,0.962361,0.0,0.0,0.0,1.6641000000000001,2
1729690913.2658594,1820,1729690913,264069056,base_link,0,1,33.6371291,72.9912721,504.21613624260203,0.962361,0.0,0.0,0.0,0.962361,0.0,0.0,0.0,1.6641000000000001,2
1729690913.3729115,1821,1729690913,371064448,base_link,0,1,33.6371287,72.9912728,504.22613657103443,0.962361,0.0,0.0,0.0,0.962361,0.0,0.0,0.0,1.6641000000000001,2
1729690913.4658425,1822,1729690913,464058048,base_link,0,1,33.6371281,72.9912738,504.2361368650913,0.962361,0.0,0.0,0.0,0.962361,0.0,0.0,0.0,1.6615209999999998,2
1729690913.566129,1823,1729690913,564059072,base_link,0,1,33.6371274,72.991275,504.24613734055265,0.962361,0.0,0.0,0.0,0.962361,0.0,0.0,0.0,1.6615209999999998,2
1729690913.6659143,1824,1729690913,664059072,base_link,0,1,33.6371265,72.9912764,504.25613738445486,0.962361,0.0,0.0,0.0,0.962361,0.0,0.0,0.0,1.6615209999999998,2
1729690913.7660162,1825,1729690913,764059072,base_link,0,1,33.6371256,72.991278,504.266138222726,0.962361,0.0,0.0,0.0,0.962361,0.0,0.0,0.0,1.6615209999999998,2
1729690913.8663607,1826,1729690913,864059072,base_link,0,1,33.6371246,72.9912795,504.25613805085015,0.9603999999999999,0.0,0.0,0.0,0.9603999999999999,0.0,0.0,0.0,1.6589440000000002,2
1729690913.9666631,1827,1729690913,964056256,base_link,0,1,33.6371238,72.9912809,504.2461387077182,0.9603999999999999,0.0,0.0,0.0,0.9603999999999999,0.0,0.0,0.0,1.6589440000000002,2
1729690914.0668724,1828,1729690914,64052928,base_link,0,1,33.6371229,72.9912822,504.2161383544395,0.9603999999999999,0.0,0.0,0.0,0.9603999999999999,0.0,0.0,0.0,1.6589440000000002,2
1729690914.1667113,1829,1729690914,164048576,base_link,0,1,33.6371223,72.9912833,504.19613904568325,0.9603999999999999,0.0,0.0,0.0,0.9603999999999999,0.0,0.0,0.0,1.6589440000000002,2
1729690914.2664511,1830,1729690914,264043968,base_link,0,1,33.6371218,72.9912841,504.1661391583388,0.958441,0.0,0.0,0.0,0.958441,0.0,0.0,0.0,1.6589440000000002,2
1729690914.3665688,1831,1729690914,364040640,base_link,0,1,33.6371216,72.9912847,504.14614031551594,0.958441,0.0,0.0,0.0,0.958441,0.0,0.0,0.0,1.6589440000000002,2
1729690914.4691598,1832,1729690914,464036544,base_link,0,1,33.6371216,72.9912849,504.11614110988387,0.956484,0.0,0.0,0.0,0.956484,0.0,0.0,0.0,1.6563689999999998,2
1729690914.5664413,1833,1729690914,565030656,base_link,0,1,33.6371217,72.9912849,504.0961417228472,0.956484,0.0,0.0,0.0,0.956484,0.0,0.0,0.0,1.6563689999999998,2
1729690914.6663678,1834,1729690914,665028352,base_link,0,1,33.6371221,72.9912845,504.0761425859646,0.954529,0.0,0.0,0.0,0.954529,0.0,0.0,0.0,1.6563689999999998,2
1729690914.7695663,1835,1729690914,767024000,base_link,0,1,33.6371227,72.991284,504.05614427782575,0.954529,0.0,0.0,0.0,0.954529,0.0,0.0,0.0,1.6563689999999998,2
1729690914.8657484,1836,1729690914,864018624,base_link,0,1,33.6371234,72.9912831,504.03614499391483,0.952576,0.0,0.0,0.0,0.952576,0.0,0.0,0.0,1.653796,2
1729690914.9711697,1837,1729690914,969008384,base_link,0,1,33.6371244,72.9912819,504.03614635734436,0.952576,0.0,0.0,0.0,0.952576,0.0,0.0,0.0,1.653796,2
1729690915.0668666,1838,1729690915,64004032,base_link,0,1,33.6371256,72.9912806,504.0361485495207,0.952576,0.0,0.0,0.0,0.952576,0.0,0.0,0.0,1.653796,2
1729690915.1662345,1839,1729690915,164001472,base_link,0,1,33.6371269,72.9912791,504.04615056029587,0.952576,0.0,0.0,0.0,0.952576,0.0,0.0,0.0,1.653796,2
1729690915.2692618,1840,1729690915,265995840,base_link,0,1,33.6371283,72.9912774,504.03615238967,0.9506249999999999,0.0,0.0,0.0,0.9506249999999999,0.0,0.0,0.0,1.653796,2
1729690915.3674798,1841,1729690915,365989184,base_link,0,1,33.6371299,72.9912755,504.02615465060984,0.9506249999999999,0.0,0.0,0.0,0.9506249999999999,0.0,0.0,0.0,1.653796,2
1729690915.4676714,1842,1729690915,464983552,base_link,0,1,33.6371316,72.9912734,504.0061567301502,0.948676,0.0,0.0,0.0,0.948676,0.0,0.0,0.0,1.653796,2
1729690915.5675368,1843,1729690915,564977152,base_link,0,1,33.6371336,72.991271,503.99615945704136,0.948676,0.0,0.0,0.0,0.948676,0.0,0.0,0.0,1.653796,2
1729690915.667894,1844,1729690915,664971520,base_link,0,1,33.6371356,72.9912685,503.97616178675344,0.9467289999999999,0.0,0.0,0.0,0.9467289999999999,0.0,0.0,0.0,1.6512249999999997,2
1729690915.767002,1845,1729690915,764967168,base_link,0,1,33.6371377,72.9912658,503.9661639350682,0.9467289999999999,0.0,0.0,0.0,0.9467289999999999,0.0,0.0,0.0,1.6512249999999997,2
1729690915.8667364,1846,1729690915,864957952,base_link,0,1,33.6371398,72.9912631,503.97616608339,0.9428409999999999,0.0,0.0,0.0,0.9428409999999999,0.0,0.0,0.0,1.6486560000000001,2
1729690915.9666748,1847,1729690915,964952832,base_link,0,1,33.637142,72.9912604,503.9861688446894,0.9428409999999999,0.0,0.0,0.0,0.9428409999999999,0.0,0.0,0.0,1.6486560000000001,2
1729690916.067221,1848,1729690916,63946432,base_link,0,1,33.637144,72.9912579,504.0161711744291,0.9409,0.0,0.0,0.0,0.9409,0.0,0.0,0.0,1.6486560000000001,2
1729690916.1667805,1849,1729690916,164943104,base_link,0,1,33.637146,72.9912554,504.03617350417545,0.9409,0.0,0.0,0.0,0.9409,0.0,0.0,0.0,1.6486560000000001,2
1729690916.265678,1850,1729690916,263940288,base_link,0,1,33.6371479,72.991253,504.05617561814364,0.9409,0.0,0.0,0.0,0.9409,0.0,0.0,0.0,1.6486560000000001,2
1729690916.3688352,1851,1729690916,365934144,base_link,0,1,33.6371499,72.9912505,504.07617794790286,0.9409,0.0,0.0,0.0,0.9409,0.0,0.0,0.0,1.6486560000000001,2
1729690916.467772,1852,1729690916,465930560,base_link,0,1,33.6371517,72.9912482,504.1061798460977,0.9409,0.0,0.0,0.0,0.9409,0.0,0.0,0.0,1.6460889999999997,2
1729690916.5678077,1853,1729690916,565924416,base_link,0,1,33.6371535,72.9912457,504.11618094992,0.9409,0.0,0.0,0.0,0.9409,0.0,0.0,0.0,1.6460889999999997,2
1729690916.6665154,1854,1729690916,664917760,base_link,0,1,33.6371554,72.9912431,504.1161822695329,0.9409,0.0,0.0,0.0,0.9409,0.0,0.0,0.0,1.643524,2
1729690916.7667847,1855,1729690916,764912128,base_link,0,1,33.6371573,72.9912403,504.1161827947722,0.9409,0.0,0.0,0.0,0.9409,0.0,0.0,0.0,1.643524,2
1729690916.8668804,1856,1729690916,864907008,base_link,0,1,33.6371591,72.9912377,504.1261835014182,0.9389609999999999,0.0,0.0,0.0,0.9389609999999999,0.0,0.0,0.0,1.640961,2
1729690916.9728715,1857,1729690916,969902656,base_link,0,1,33.637161,72.9912348,504.1361836294762,0.9389609999999999,0.0,0.0,0.0,0.9389609999999999,0.0,0.0,0.0,1.640961,2
1729690917.0720668,1858,1729690917,69898816,base_link,0,1,33.6371628,72.9912322,504.14618433612975,0.9389609999999999,0.0,0.0,0.0,0.9389609999999999,0.0,0.0,0.0,1.6358409999999999,2
1729690917.1704242,1859,1729690917,168894464,base_link,0,1,33.6371646,72.9912297,504.1661854399771,0.9389609999999999,0.0,0.0,0.0,0.9389609999999999,0.0,0.0,0.0,1.6358409999999999,2
1729690917.2675483,1860,1729690917,265898816,base_link,0,1,33.6371663,72.9912272,504.1761859308506,0.937024,0.0,0.0,0.0,0.937024,0.0,0.0,0.0,1.633284,2
1729690917.3664753,1861,1729690917,364886528,base_link,0,1,33.6371679,72.9912248,504.17618620593925,0.937024,0.0,0.0,0.0,0.937024,0.0,0.0,0.0,1.633284,2
1729690917.4668107,1862,1729690917,463875776,base_link,0,1,33.6371696,72.9912224,504.17618709400944,0.935089,0.0,0.0,0.0,0.935089,0.0,0.0,0.0,1.6307289999999999,2
1729690917.5664933,1863,1729690917,564865792,base_link,0,1,33.6371711,72.99122,504.1761867561248,0.935089,0.0,0.0,0.0,0.935089,0.0,0.0,0.0,1.6307289999999999,2
1729690917.6656349,1864,1729690917,663858368,base_link,0,1,33.6371726,72.9912176,504.17618641824237,0.933156,0.0,0.0,0.0,0.933156,0.0,0.0,0.0,1.628176,2
1729690917.7659278,1865,1729690917,763855296,base_link,0,1,33.6371741,72.9912153,504.1761864775526,0.933156,0.0,0.0,0.0,0.933156,0.0,0.0,0.0,1.628176,2
1729690917.8659182,1866,1729690917,863852224,base_link,0,1,33.6371755,72.9912129,504.17618552669444,0.933156,0.0,0.0,0.0,0.933156,0.0,0.0,0.0,1.6256249999999999,2
1729690917.9671092,1867,1729690917,964848896,base_link,0,1,33.6371769,72.9912105,504.1861845758379,0.933156,0.0,0.0,0.0,0.933156,0.0,0.0,0.0,1.6256249999999999,2
1729690918.0660822,1868,1729690918,63845568,base_link,0,1,33.6371783,72.9912081,504.176183624983,0.931225,0.0,0.0,0.0,0.931225,0.0,0.0,0.0,1.6205289999999997,2
1729690918.1709383,1869,1729690918,168842240,base_link,0,1,33.6371798,72.9912056,504.17618288991946,0.931225,0.0,0.0,0.0,0.931225,0.0,0.0,0.0,1.6205289999999997,2
1729690918.2659755,1870,1729690918,263840448,base_link,0,1,33.6371811,72.9912035,504.1661825176599,0.931225,0.0,0.0,0.0,0.931225,0.0,0.0,0.0,1.6154409999999997,2
1729690918.3659542,1871,1729690918,363836352,base_link,0,1,33.6371824,72.9912013,504.1661817482108,0.931225,0.0,0.0,0.0,0.931225,0.0,0.0,0.0,1.6154409999999997,2
1729690918.4651155,1872,1729690918,463835072,base_link,0,1,33.6371835,72.9911995,504.17618134156487,0.9292959999999999,0.0,0.0,0.0,0.9292959999999999,0.0,0.0,0.0,1.6129,2
1729690918.5661461,1873,1729690918,563832256,base_link,0,1,33.6371845,72.991198,504.196181513512,0.9292959999999999,0.0,0.0,0.0,0.9292959999999999,0.0,0.0,0.0,1.6129,2
1729690918.6690738,1874,1729690918,663828416,base_link,0,1,33.6371853,72.9911967,504.21618125387937,0.9273689999999999,0.0,0.0,0.0,0.9273689999999999,0.0,0.0,0.0,1.6078240000000001,2
1729690918.765996,1875,1729690918,763824064,base_link,0,1,33.637186,72.9911957,504.2461815728392,0.9273689999999999,0.0,0.0,0.0,0.9273689999999999,0.0,0.0,0.0,1.6078240000000001,2
1729690918.8662558,1876,1729690918,864819200,base_link,0,1,33.6371865,72.991195,504.27618185740954,0.9273689999999999,0.0,0.0,0.0,0.9273689999999999,0.0,0.0,0.0,1.6078240000000001,2
1729690918.9671566,1877,1729690918,964813824,base_link,0,1,33.6371869,72.9911946,504.3161827205723,0.9273689999999999,0.0,0.0,0.0,0.9273689999999999,0.0,0.0,0.0,1.6078240000000001,2
1729690919.0680163,1878,1729690919,65805376,base_link,0,1,33.6371871,72.9911944,504.3461831521538,0.9254439999999999,0.0,0.0,0.0,0.9254439999999999,0.0,0.0,0.0,1.6078240000000001,2
1729690919.1653318,1879,1729690919,163805120,base_link,0,1,33.6371872,72.9911945,504.3661841623276,0.9254439999999999,0.0,0.0,0.0,0.9254439999999999,0.0,0.0,0.0,1.6078240000000001,2
1729690919.2662773,1880,1729690919,263798208,base_link,0,1,33.6371871,72.9911949,504.3761851381112,0.9254439999999999,0.0,0.0,0.0,0.9254439999999999,0.0,0.0,0.0,1.6078240000000001,2
1729690919.368093,1881,1729690919,365792320,base_link,0,1,33.637187,72.9911955,504.3861869082783,0.9254439999999999,0.0,0.0,0.0,0.9254439999999999,0.0,0.0,0.0,1.6078240000000001,2
1729690919.467287,1882,1729690919,465787456,base_link,0,1,33.6371867,72.9911962,504.3761878496721,0.9254439999999999,0.0,0.0,0.0,0.9254439999999999,0.0,0.0,0.0,1.6052889999999997,2
1729690919.5702353,1883,1729690919,567783872,base_link,0,1,33.6371862,72.9911973,504.36618915386737,0.9254439999999999,0.0,0.0,0.0,0.9254439999999999,0.0,0.0,0.0,1.6052889999999997,2
1729690919.6673605,1884,1729690919,665780032,base_link,0,1,33.6371856,72.9911986,504.34619063946377,0.9235209999999999,0.0,0.0,0.0,0.9235209999999999,0.0,0.0,0.0,1.602756,2
1729690919.7671554,1885,1729690919,764774912,base_link,0,1,33.6371847,72.9912001,504.3261910804959,0.9235209999999999,0.0,0.0,0.0,0.9235209999999999,0.0,0.0,0.0,1.602756,2
1729690919.8663466,1886,1729690919,864769792,base_link,0,1,33.6371837,72.9912019,504.3061921001215,0.9216,0.0,0.0,0.0,0.9216,0.0,0.0,0.0,1.6002249999999998,2
1729690919.967322,1887,1729690919,964764928,base_link,0,1,33.6371825,72.9912039,504.27619268816665,0.9216,0.0,0.0,0.0,0.9216,0.0,0.0,0.0,1.6002249999999998,2
1729690920.0663369,1888,1729690920,63761344,base_link,0,1,33.6371811,72.9912061,504.2461928446321,0.9216,0.0,0.0,0.0,0.9216,0.0,0.0,0.0,1.6002249999999998,2
1729690920.1663551,1889,1729690920,164756736,base_link,0,1,33.6371796,72.9912085,504.21619318250066,0.9216,0.0,0.0,0.0,0.9216,0.0,0.0,0.0,1.6002249999999998,2
1729690920.2663238,1890,1729690920,263753152,base_link,0,1,33.637178,72.991211,504.1961933045812,0.9216,0.0,0.0,0.0,0.9216,0.0,0.0,0.0,1.597696,2
1729690920.3652375,1891,1729690920,363750592,base_link,0,1,33.6371763,72.9912138,504.16619400525707,0.9216,0.0,0.0,0.0,0.9216,0.0,0.0,0.0,1.597696,2
1729690920.4662251,1892,1729690920,464742656,base_link,0,1,33.6371744,72.9912166,504.14619347997416,0.919681,0.0,0.0,0.0,0.919681,0.0,0.0,0.0,1.597696,2
1729690920.5694554,1893,1729690920,566740352,base_link,0,1,33.6371723,72.9912198,504.1361933174987,0.919681,0.0,0.0,0.0,0.919681,0.0,0.0,0.0,1.597696,2
1729690920.6684284,1894,1729690920,666736256,base_link,0,1,33.6371702,72.991223,504.1261931550279,0.919681,0.0,0.0,0.0,0.919681,0.0,0.0,0.0,1.5951689999999998,2
1729690920.768396,1895,1729690920,765731904,base_link,0,1,33.6371681,72.9912263,504.1161933897522,0.919681,0.0,0.0,0.0,0.919681,0.0,0.0,0.0,1.5951689999999998,2
1729690920.8684473,1896,1729690920,865720384,base_link,0,1,33.6371659,72.9912296,504.11619301150216,0.919681,0.0,0.0,0.0,0.919681,0.0,0.0,0.0,1.5951689999999998,2
1729690920.9684815,1897,1729690920,965716800,base_link,0,1,33.6371638,72.9912328,504.1261928490454,0.919681,0.0,0.0,0.0,0.919681,0.0,0.0,0.0,1.5951689999999998,2
1729690921.0665452,1898,1729690921,63706304,base_link,0,1,33.6371618,72.9912361,504.136193696761,0.9177639999999999,0.0,0.0,0.0,0.9177639999999999,0.0,0.0,0.0,1.5951689999999998,2
1729690921.1665606,1899,1729690921,164695808,base_link,0,1,33.6371598,72.9912393,504.14619414729003,0.9177639999999999,0.0,0.0,0.0,0.9177639999999999,0.0,0.0,0.0,1.5951689999999998,2
1729690921.2664785,1900,1729690921,264689152,base_link,0,1,33.6371579,72.9912424,504.1461948136101,0.9177639999999999,0.0,0.0,0.0,0.9177639999999999,0.0,0.0,0.0,1.5901209999999997,2
1729690921.3667212,1901,1729690921,363684288,base_link,0,1,33.637156,72.9912456,504.1561958771232,0.9177639999999999,0.0,0.0,0.0,0.9177639999999999,0.0,0.0,0.0,1.5901209999999997,2
1729690921.4676394,1902,1729690921,464680704,base_link,0,1,33.6371541,72.9912487,504.14619654344966,0.9177639999999999,0.0,0.0,0.0,0.9177639999999999,0.0,0.0,0.0,1.5876000000000001,2
1729690921.5665953,1903,1729690921,564675840,base_link,0,1,33.6371523,72.9912519,504.1461982199451,0.9177639999999999,0.0,0.0,0.0,0.9177639999999999,0.0,0.0,0.0,1.5876000000000001,2
1729690921.6664035,1904,1729690921,664675840,base_link,0,1,33.6371505,72.991255,504.1561994992536,0.9177639999999999,0.0,0.0,0.0,0.9177639999999999,0.0,0.0,0.0,1.5850809999999997,2
1729690921.7665744,1905,1729690921,764675840,base_link,0,1,33.6371489,72.9912583,504.15620279889566,0.9177639999999999,0.0,0.0,0.0,0.9177639999999999,0.0,0.0,0.0,1.5850809999999997,2
1729690921.866554,1906,1729690921,863669440,base_link,0,1,33.6371475,72.9912616,504.156207324492,0.9158489999999999,0.0,0.0,0.0,0.9158489999999999,0.0,0.0,0.0,1.582564,2
1729690921.971894,1907,1729690921,969666624,base_link,0,1,33.6371462,72.9912651,504.15621325744746,0.9158489999999999,0.0,0.0,0.0,0.9158489999999999,0.0,0.0,0.0,1.582564,2
1729690922.0664937,1908,1729690922,64662016,base_link,0,1,33.637145,72.9912683,504.1662186118127,0.9158489999999999,0.0,0.0,0.0,0.9158489999999999,0.0,0.0,0.0,1.5850809999999997,2
1729690922.1667464,1909,1729690922,164657408,base_link,0,1,33.6371439,72.9912715,504.15622457915856,0.9158489999999999,0.0,0.0,0.0,0.9158489999999999,0.0,0.0,0.0,1.5850809999999997,2
1729690922.2667277,1910,1729690922,264654336,base_link,0,1,33.6371427,72.9912747,504.15622993353065,0.9158489999999999,0.0,0.0,0.0,0.9158489999999999,0.0,0.0,0.0,1.5850809999999997,2
1729690922.3666782,1911,1729690922,364652544,base_link,0,1,33.6371414,72.9912777,504.1462338805462,0.9158489999999999,0.0,0.0,0.0,0.9158489999999999,0.0,0.0,0.0,1.5850809999999997,2
1729690922.465624,1912,1729690922,463648704,base_link,0,1,33.6371399,72.9912804,504.1262354100355,0.9177639999999999,0.0,0.0,0.0,0.9177639999999999,0.0,0.0,0.0,1.5850809999999997,2
1729690922.568779,1913,1729690922,564645888,base_link,0,1,33.6371383,72.9912829,504.1262355321675,0.9177639999999999,0.0,0.0,0.0,0.9177639999999999,0.0,0.0,0.0,1.5850809999999997,2
1729690922.6656501,1914,1729690922,663642560,base_link,0,1,33.6371366,72.9912851,504.11623384975354,0.9177639999999999,0.0,0.0,0.0,0.9177639999999999,0.0,0.0,0.0,1.5850809999999997,2
1729690922.7657042,1915,1729690922,763638208,base_link,0,1,33.6371347,72.991287,504.1162297498213,0.9177639999999999,0.0,0.0,0.0,0.9177639999999999,0.0,0.0,0.0,1.5850809999999997,2
1729690922.8667004,1916,1729690922,864631040,base_link,0,1,33.6371327,72.9912888,504.1062246397337,0.9177639999999999,0.0,0.0,0.0,0.9177639999999999,0.0,0.0,0.0,1.5850809999999997,2
1729690922.9669144,1917,1729690922,964631296,base_link,0,1,33.6371306,72.9912903,504.1062177251164,0.9177639999999999,0.0,0.0,0.0,0.9177639999999999,0.0,0.0,0.0,1.5850809999999997,2
1729690923.0658946,1918,1729690923,63627200,base_link,0,1,33.6371284,72.9912916,504.116209403167,0.919681,0.0,0.0,0.0,0.919681,0.0,0.0,0.0,1.5850809999999997,2
1729690923.168706,1919,1729690923,166624384,base_link,0,1,33.6371262,72.9912929,504.1162010812397,0.919681,0.0,0.0,0.0,0.919681,0.0,0.0,0.0,1.5850809999999997,2
1729690923.264809,1920,1729690923,263617728,base_link,0,1,33.6371242,72.991294,504.12619319089913,0.919681,0.0,0.0,0.0,0.919681,0.0,0.0,0.0,1.5850809999999997,2
1729690923.3678427,1921,1729690923,365611328,base_link,0,1,33.6371222,72.991295,504.1361849033912,0.919681,0.0,0.0,0.0,0.919681,0.0,0.0,0.0,1.5850809999999997,2
1729690923.465824,1922,1729690923,463604928,base_link,0,1,33.6371204,72.9912956,504.13617625309377,0.9216,0.0,0.0,0.0,0.9216,0.0,0.0,0.0,1.5850809999999997,2
1729690923.5659177,1923,1729690923,563600576,base_link,0,1,33.6371188,72.9912961,504.1461684315624,0.9216,0.0,0.0,0.0,0.9216,0.0,0.0,0.0,1.5850809999999997,2
1729690923.6678808,1924,1729690923,665594176,base_link,0,1,33.6371173,72.9912964,504.14616042864225,0.9216,0.0,0.0,0.0,0.9216,0.0,0.0,0.0,1.5850809999999997,2
1729690923.7658293,1925,1729690923,763587520,base_link,0,1,33.637116,72.9912966,504.15615325448084,0.9216,0.0,0.0,0.0,0.9216,0.0,0.0,0.0,1.5850809999999997,2
1729690923.867783,1926,1729690923,865580608,base_link,0,1,33.6371147,72.9912968,504.1761460803323,0.919681,0.0,0.0,0.0,0.919681,0.0,0.0,0.0,1.5850809999999997,2
1729690923.9696856,1927,1729690923,967576512,base_link,0,1,33.6371135,72.991297,504.18613951915785,0.919681,0.0,0.0,0.0,0.919681,0.0,0.0,0.0,1.5850809999999997,2
1729690924.066833,1928,1729690924,64571648,base_link,0,1,33.6371125,72.991297,504.19613338954935,0.919681,0.0,0.0,0.0,0.919681,0.0,0.0,0.0,1.5850809999999997,2
1729690924.1688833,1929,1729690924,166569344,base_link,0,1,33.6371115,72.9912968,504.18612646558506,0.919681,0.0,0.0,0.0,0.919681,0.0,0.0,0.0,1.5850809999999997,2
1729690924.2659564,1930,1729690924,264564480,base_link,0,1,33.6371107,72.9912963,504.1861195760028,0.919681,0.0,0.0,0.0,0.919681,0.0,0.0,0.0,1.5850809999999997,2
1729690924.3658519,1931,1729690924,363561408,base_link,0,1,33.6371101,72.9912955,504.18611272080113,0.919681,0.0,0.0,0.0,0.919681,0.0,0.0,0.0,1.5850809999999997,2
1729690924.4658523,1932,1729690924,463550144,base_link,0,1,33.6371096,72.9912946,504.18610608138414,0.9177639999999999,0.0,0.0,0.0,0.9177639999999999,0.0,0.0,0.0,1.5850809999999997,2
1729690924.5658338,1933,1729690924,563544768,base_link,0,1,33.6371092,72.9912934,504.1860988633893,0.9177639999999999,0.0,0.0,0.0,0.9177639999999999,0.0,0.0,0.0,1.5850809999999997,2
1729690924.6681273,1934,1729690924,666537600,base_link,0,1,33.6371089,72.991292,504.1960914639983,0.9158489999999999,0.0,0.0,0.0,0.9158489999999999,0.0,0.0,0.0,1.5850809999999997,2
