Time,header.seq,header.stamp.secs,header.stamp.nsecs,header.frame_id,voltage,temperature,current,charge,capacity,design_capacity,percentage,power_supply_status,power_supply_health,power_supply_technology,present,cell_voltage_0,location,serial_number
1729690889.4795558,1598,1729690889,478896991,,0.7139999866485596,0.0,-0.9100000262260437,nan,nan,nan,0.8899999856948853,2,0,0,True,0.7139999866485596,id0,
1729690889.5819712,1599,1729690889,581586084,,0.7160000205039978,0.0,-0.9100000262260437,nan,nan,nan,0.8899999856948853,2,0,0,True,0.7160000205039978,id0,
1729690889.6819408,1600,1729690889,681600306,,0.7200000286102295,0.0,-0.9100000262260437,nan,nan,nan,0.8899999856948853,2,0,0,True,0.7200000286102295,id0,
1729690889.780153,1601,1729690889,779688287,,0.7160000205039978,0.0,-0.9100000262260437,nan,nan,nan,0.8899999856948853,2,0,0,True,0.7160000205039978,id0,
1729690889.881503,1602,1729690889,880010547,,0.7160000205039978,0.0,-0.9100000262260437,nan,nan,nan,0.8899999856948853,2,0,0,True,0.7160000205039978,id0,
1729690889.9815328,1603,1729690889,980256861,,0.7080000042915344,0.0,-0.9100000262260437,nan,nan,nan,0.8899999856948853,2,0,0,True,0.7080000042915344,id0,
1729690890.0821288,1604,1729690890,81699491,,0.7229999899864197,0.0,-0.9100000262260437,nan,nan,nan,0.8899999856948853,2,0,0,True,0.7229999899864197,id0,
1729690890.1805248,1605,1729690890,179947843,,0.7229999899864197,0.0,-0.9100000262260437,nan,nan,nan,0.8899999856948853,2,0,0,True,0.7229999899864197,id0,
1729690890.2810605,1606,1729690890,280126565,,0.7200000286102295,0.0,-0.9100000262260437,nan,nan,nan,0.8899999856948853,2,0,0,True,0.7200000286102295,id0,
1729690890.3942518,1607,1729690890,381982676,,0.722000002861023,0.0,-0.9200000166893005,nan,nan,nan,0.8899999856948853,2,0,0,True,0.722000002861023,id0,
1729690890.481377,1608,1729690890,480124139,,0.7149999737739563,0.0,-0.9100000262260437,nan,nan,nan,0.8899999856948853,2,0,0,True,0.7149999737739563,id0,
1729690890.5827708,1609,1729690890,582021713,,0.7099999785423279,0.0,-0.9100000262260437,nan,nan,nan,0.8899999856948853,2,0,0,True,0.7099999785423279,id0,
1729690890.6833177,1610,1729690890,682830750,,0.7120000123977661,0.0,-0.8999999761581421,nan,nan,nan,0.8899999856948853,2,0,0,True,0.7120000123977661,id0,
1729690890.780293,1611,1729690890,779786102,,0.7120000123977661,0.0,-0.9100000262260437,nan,nan,nan,0.8899999856948853,2,0,0,True,0.7120000123977661,id0,
1729690890.8802433,1612,1729690890,879801565,,0.718999981880188,0.0,-0.9100000262260437,nan,nan,nan,0.8899999856948853,2,0,0,True,0.718999981880188,id0,
1729690890.9818263,1613,1729690890,981037713,,0.7110000252723694,0.0,-0.9100000262260437,nan,nan,nan,0.8899999856948853,2,0,0,True,0.7110000252723694,id0,
1729690891.0832875,1614,1729690891,82850139,,0.7179999947547913,0.0,-0.9200000166893005,nan,nan,nan,0.8899999856948853,2,0,0,True,0.7179999947547913,id0,
1729690891.1791856,1615,1729690891,178847398,,0.7139999866485596,0.0,-0.9100000262260437,nan,nan,nan,0.8899999856948853,2,0,0,True,0.7139999866485596,id0,
1729690891.283325,1616,1729690891,282861805,,0.7179999947547913,0.0,-0.9200000166893005,nan,nan,nan,0.8899999856948853,2,0,0,True,0.7179999947547913,id0,
1729690891.3823636,1617,1729690891,381942212,,0.718999981880188,0.0,-0.9100000262260437,nan,nan,nan,0.8899999856948853,2,0,0,True,0.718999981880188,id0,
1729690891.4822102,1618,1729690891,481883990,,0.7239999771118164,0.0,-0.9100000262260437,nan,nan,nan,0.8899999856948853,2,0,0,True,0.7239999771118164,id0,
1729690891.5824492,1619,1729690891,581927786,,0.7139999866485596,0.0,-0.9100000262260437,nan,nan,nan,0.8899999856948853,2,0,0,True,0.7139999866485596,id0,
1729690891.6810174,1620,1729690891,680188527,,0.7200000286102295,0.0,-0.9100000262260437,nan,nan,nan,0.8899999856948853,2,0,0,True,0.7200000286102295,id0,
1729690891.7841146,1621,1729690891,783276175,,0.7120000123977661,0.0,-0.9100000262260437,nan,nan,nan,0.8899999856948853,2,0,0,True,0.7120000123977661,id0,
1729690891.880407,1622,1729690891,880012934,,0.7200000286102295,0.0,-0.9100000262260437,nan,nan,nan,0.8899999856948853,2,0,0,True,0.7200000286102295,id0,
1729690891.9804566,1623,1729690891,980021545,,0.722000002861023,0.0,-0.9100000262260437,nan,nan,nan,0.8899999856948853,2,0,0,True,0.722000002861023,id0,
1729690892.0802832,1624,1729690892,79974934,,0.7099999785423279,0.0,-0.9100000262260437,nan,nan,nan,0.8899999856948853,2,0,0,True,0.7099999785423279,id0,
1729690892.1800027,1625,1729690892,179425193,,0.7160000205039978,0.0,-0.9200000166893005,nan,nan,nan,0.8899999856948853,2,0,0,True,0.7160000205039978,id0,
1729690892.281378,1626,1729690892,281017805,,0.718999981880188,0.0,-0.9200000166893005,nan,nan,nan,0.8899999856948853,2,0,0,True,0.718999981880188,id0,
1729690892.3845668,1627,1729690892,384038286,,0.7229999899864197,0.0,-0.9100000262260437,nan,nan,nan,0.8899999856948853,2,0,0,True,0.7229999899864197,id0,
1729690892.4843483,1628,1729690892,484010675,,0.7179999947547913,0.0,-0.9100000262260437,nan,nan,nan,0.8899999856948853,2,0,0,True,0.7179999947547913,id0,
1729690892.5813665,1629,1729690892,581035619,,0.7170000076293945,0.0,-0.9100000262260437,nan,nan,nan,0.8899999856948853,2,0,0,True,0.7170000076293945,id0,
1729690892.6820364,1630,1729690892,681312452,,0.7160000205039978,0.0,-0.9100000262260437,nan,nan,nan,0.8899999856948853,2,0,0,True,0.7160000205039978,id0,
1729690892.7823956,1631,1729690892,782075267,,0.7160000205039978,0.0,-0.9100000262260437,nan,nan,nan,0.8899999856948853,2,0,0,True,0.7160000205039978,id0,
1729690892.8800673,1632,1729690892,879361082,,0.7160000205039978,0.0,-0.9100000262260437,nan,nan,nan,0.8899999856948853,2,0,0,True,0.7160000205039978,id0,
1729690892.981082,1633,1729690892,980360008,,0.718999981880188,0.0,-0.9200000166893005,nan,nan,nan,0.8899999856948853,2,0,0,True,0.718999981880188,id0,
1729690893.0824661,1634,1729690893,82122600,,0.7170000076293945,0.0,-0.9100000262260437,nan,nan,nan,0.8899999856948853,2,0,0,True,0.7170000076293945,id0,
1729690893.1854844,1635,1729690893,185130526,,0.7179999947547913,0.0,-0.9100000262260437,nan,nan,nan,0.8899999856948853,2,0,0,True,0.7179999947547913,id0,
1729690893.2811124,1636,1729690893,280495415,,0.7099999785423279,0.0,-0.9100000262260437,nan,nan,nan,0.8899999856948853,2,0,0,True,0.7099999785423279,id0,
1729690893.3806276,1637,1729690893,380160045,,0.7099999785423279,0.0,-0.9100000262260437,nan,nan,nan,0.8899999856948853,2,0,0,True,0.722000002861023,id0,
1729690893.4797075,1638,1729690893,478699859,,0.722000002861023,0.0,-0.9100000262260437,nan,nan,nan,0.8899999856948853,2,0,0,True,0.7229999899864197,id0,
1729690893.579913,1639,1729690893,579357285,,0.7229999899864197,0.0,-0.9100000262260437,nan,nan,nan,0.8899999856948853,2,0,0,True,0.722000002861023,id0,
1729690893.6804912,1640,1729690893,679449637,,0.722000002861023,0.0,-0.9100000262260437,nan,nan,nan,0.8899999856948853,2,0,0,True,0.7229999899864197,id0,
1729690893.7856717,1641,1729690893,785217655,,0.7229999899864197,0.0,-0.9100000262260437,nan,nan,nan,0.8899999856948853,2,0,0,True,0.7229999899864197,id0,
1729690893.8801925,1642,1729690893,879480748,,0.7229999899864197,0.0,-0.9100000262260437,nan,nan,nan,0.8899999856948853,2,0,0,True,0.7170000076293945,id0,
1729690893.9836612,1643,1729690893,983238859,,0.7170000076293945,0.0,-0.9100000262260437,nan,nan,nan,0.8899999856948853,2,0,0,True,0.7160000205039978,id0,
1729690894.083605,1644,1729690894,83252989,,0.7160000205039978,0.0,-0.9100000262260437,nan,nan,nan,0.8899999856948853,2,0,0,True,0.7210000157356262,id0,
1729690894.1804109,1645,1729690894,180066989,,0.7210000157356262,0.0,-0.9100000262260437,nan,nan,nan,0.8899999856948853,2,0,0,True,0.7120000123977661,id0,
1729690894.283198,1646,1729690894,282546785,,0.7120000123977661,0.0,-0.9100000262260437,nan,nan,nan,0.8899999856948853,2,0,0,True,0.7170000076293945,id0,
1729690894.3851326,1647,1729690894,384780951,,0.7170000076293945,0.0,-0.9200000166893005,nan,nan,nan,0.8899999856948853,2,0,0,True,0.718999981880188,id0,
1729690894.4843042,1648,1729690894,483697507,,0.718999981880188,0.0,-0.9100000262260437,nan,nan,nan,0.8899999856948853,2,0,0,True,0.7160000205039978,id0,
1729690894.5832129,1649,1729690894,582651155,,0.7160000205039978,0.0,-0.9100000262260437,nan,nan,nan,0.8899999856948853,2,0,0,True,0.7170000076293945,id0,
1729690894.6839435,1650,1729690894,680353044,,0.7170000076293945,0.0,-0.9100000262260437,nan,nan,nan,0.8899999856948853,2,0,0,True,0.7170000076293945,id0,
1729690894.7817779,1651,1729690894,781340210,,0.7170000076293945,0.0,-0.9100000262260437,nan,nan,nan,0.8899999856948853,2,0,0,True,0.7210000157356262,id0,
1729690894.883033,1652,1729690894,882383340,,0.7210000157356262,0.0,-0.9100000262260437,nan,nan,nan,0.8899999856948853,2,0,0,True,0.7229999899864197,id0,
1729690894.9800036,1653,1729690894,979434655,,0.7229999899864197,0.0,-0.9100000262260437,nan,nan,nan,0.8899999856948853,2,0,0,True,0.7229999899864197,id0,
1729690895.08176,1654,1729690895,80681858,,0.7250000238418579,0.0,-0.9200000166893005,nan,nan,nan,0.8899999856948853,2,0,0,True,0.7250000238418579,id0,
1729690895.1839294,1655,1729690895,183408155,,0.7149999737739563,0.0,-0.9100000262260437,nan,nan,nan,0.8899999856948853,2,0,0,True,0.7120000123977661,id0,
1729690895.2835383,1656,1729690895,282868192,,0.7120000123977661,0.0,-0.9100000262260437,nan,nan,nan,0.8899999856948853,2,0,0,True,0.7120000123977661,id0,
1729690895.3823497,1657,1729690895,381672617,,0.7120000123977661,0.0,-0.9100000262260437,nan,nan,nan,0.8899999856948853,2,0,0,True,0.7120000123977661,id0,
1729690895.4808764,1658,1729690895,480440117,,0.7149999737739563,0.0,-0.9100000262260437,nan,nan,nan,0.8899999856948853,2,0,0,True,0.7149999737739563,id0,
1729690895.579804,1659,1729690895,579450969,,0.718999981880188,0.0,-0.9200000166893005,nan,nan,nan,0.8899999856948853,2,0,0,True,0.718999981880188,id0,
1729690895.6808393,1660,1729690895,680470525,,0.7089999914169312,0.0,-0.8999999761581421,nan,nan,nan,0.8899999856948853,2,0,0,True,0.7089999914169312,id0,
1729690895.7804646,1661,1729690895,779776025,,0.7149999737739563,0.0,-0.9200000166893005,nan,nan,nan,0.8899999856948853,2,0,0,True,0.7149999737739563,id0,
1729690895.881048,1662,1729690895,880578784,,0.722000002861023,0.0,-0.9100000262260437,nan,nan,nan,0.8899999856948853,2,0,0,True,0.722000002861023,id0,
1729690895.981059,1663,1729690895,980593691,,0.7229999899864197,0.0,-0.9100000262260437,nan,nan,nan,0.8899999856948853,2,0,0,True,0.7229999899864197,id0,
1729690896.0800972,1664,1729690896,79553562,,0.7160000205039978,0.0,-0.9100000262260437,nan,nan,nan,0.8899999856948853,2,0,0,True,0.7160000205039978,id0,
1729690896.181827,1665,1729690896,180868117,,0.718999981880188,0.0,-0.9200000166893005,nan,nan,nan,0.8899999856948853,2,0,0,True,0.718999981880188,id0,
1729690896.2830908,1666,1729690896,282606043,,0.7239999771118164,0.0,-0.9100000262260437,nan,nan,nan,0.8899999856948853,2,0,0,True,0.7239999771118164,id0,
1729690896.3849025,1667,1729690896,384574358,,0.7149999737739563,0.0,-0.9100000262260437,nan,nan,nan,0.8899999856948853,2,0,0,True,0.7149999737739563,id0,
1729690896.4799318,1668,1729690896,479582135,,0.7099999785423279,0.0,-0.9100000262260437,nan,nan,nan,0.8899999856948853,2,0,0,True,0.7099999785423279,id0,
1729690896.5829313,1669,1729690896,582588524,,0.7260000109672546,0.0,-0.8999999761581421,nan,nan,nan,0.8899999856948853,2,0,0,True,0.7260000109672546,id0,
1729690896.6820765,1670,1729690896,681664098,,0.7110000252723694,0.0,-0.8999999761581421,nan,nan,nan,0.8899999856948853,2,0,0,True,0.7110000252723694,id0,
1729690896.781982,1671,1729690896,781623968,,0.718999981880188,0.0,-0.9100000262260437,nan,nan,nan,0.8899999856948853,2,0,0,True,0.718999981880188,id0,
1729690896.8810441,1672,1729690896,879915005,,0.7160000205039978,0.0,-0.9100000262260437,nan,nan,nan,0.8899999856948853,2,0,0,True,0.7160000205039978,id0,
1729690896.986977,1673,1729690896,986648691,,0.7089999914169312,0.0,-0.9100000262260437,nan,nan,nan,0.8899999856948853,2,0,0,True,0.7089999914169312,id0,
1729690897.0844693,1674,1729690897,83925061,,0.7120000123977661,0.0,-0.9100000262260437,nan,nan,nan,0.8899999856948853,2,0,0,True,0.7120000123977661,id0,
1729690897.1871433,1675,1729690897,186730172,,0.7160000205039978,0.0,-0.8999999761581421,nan,nan,nan,0.8899999856948853,2,0,0,True,0.7160000205039978,id0,
1729690897.2891183,1676,1729690897,288688764,,0.7129999995231628,0.0,-0.9100000262260437,nan,nan,nan,0.8899999856948853,2,0,0,True,0.7129999995231628,id0,
1729690897.3902771,1677,1729690897,389769746,,0.722000002861023,0.0,-0.9100000262260437,nan,nan,nan,0.8899999856948853,2,0,0,True,0.722000002861023,id0,
1729690897.4925919,1678,1729690897,491785098,,0.7110000252723694,0.0,-0.9100000262260437,nan,nan,nan,0.8899999856948853,2,0,0,True,0.7110000252723694,id0,
1729690897.5921984,1679,1729690897,591741079,,0.7229999899864197,0.0,-0.9200000166893005,nan,nan,nan,0.8899999856948853,2,0,0,True,0.7229999899864197,id0,
1729690897.6903062,1680,1729690897,689804709,,0.7160000205039978,0.0,-0.9100000262260437,nan,nan,nan,0.8899999856948853,2,0,0,True,0.7160000205039978,id0,
1729690897.787321,1681,1729690897,786828060,,0.7200000286102295,0.0,-0.9100000262260437,nan,nan,nan,0.8899999856948853,2,0,0,True,0.7200000286102295,id0,
1729690897.8865917,1682,1729690897,886045338,,0.718999981880188,0.0,-0.9200000166893005,nan,nan,nan,0.8899999856948853,2,0,0,True,0.718999981880188,id0,
1729690897.9841442,1683,1729690897,983794505,,0.7129999995231628,0.0,-0.9100000262260437,nan,nan,nan,0.8899999856948853,2,0,0,True,0.7129999995231628,id0,
1729690898.0812392,1684,1729690898,80861097,,0.7179999947547913,0.0,-0.9200000166893005,nan,nan,nan,0.8899999856948853,2,0,0,True,0.7179999947547913,id0,
1729690898.18426,1685,1729690898,183882320,,0.7170000076293945,0.0,-0.9200000166893005,nan,nan,nan,0.8899999856948853,2,0,0,True,0.7170000076293945,id0,
1729690898.2793417,1686,1729690898,278930782,,0.7170000076293945,0.0,-0.9100000262260437,nan,nan,nan,0.8899999856948853,2,0,0,True,0.7170000076293945,id0,
1729690898.382203,1687,1729690898,381852838,,0.7160000205039978,0.0,-0.9100000262260437,nan,nan,nan,0.8899999856948853,2,0,0,True,0.7160000205039978,id0,
1729690898.4813027,1688,1729690898,480912430,,0.7139999866485596,0.0,-0.9100000262260437,nan,nan,nan,0.8899999856948853,2,0,0,True,0.7139999866485596,id0,
1729690898.5842104,1689,1729690898,583877560,,0.7179999947547913,0.0,-0.9200000166893005,nan,nan,nan,0.8899999856948853,2,0,0,True,0.7179999947547913,id0,
1729690898.6800735,1690,1729690898,679196449,,0.718999981880188,0.0,-0.9100000262260437,nan,nan,nan,0.8899999856948853,2,0,0,True,0.718999981880188,id0,
1729690898.787308,1691,1729690898,786936652,,0.7170000076293945,0.0,-0.9200000166893005,nan,nan,nan,0.8899999856948853,2,0,0,True,0.7170000076293945,id0,
1729690898.8843307,1692,1729690898,883941838,,0.7160000205039978,0.0,-0.9100000262260437,nan,nan,nan,0.8899999856948853,2,0,0,True,0.7160000205039978,id0,
1729690898.9823554,1693,1729690898,981980763,,0.7139999866485596,0.0,-0.9100000262260437,nan,nan,nan,0.8899999856948853,2,0,0,True,0.7139999866485596,id0,
1729690899.0800242,1694,1729690899,79789912,,0.7139999866485596,0.0,-0.9100000262260437,nan,nan,nan,0.8899999856948853,2,0,0,True,0.7120000123977661,id0,
1729690899.1813796,1695,1729690899,181011412,,0.7120000123977661,0.0,-0.9100000262260437,nan,nan,nan,0.8899999856948853,2,0,0,True,0.7129999995231628,id0,
1729690899.2813516,1696,1729690899,280983171,,0.7129999995231628,0.0,-0.9100000262260437,nan,nan,nan,0.8899999856948853,2,0,0,True,0.7149999737739563,id0,
1729690899.381521,1697,1729690899,381043837,,0.7149999737739563,0.0,-0.9100000262260437,nan,nan,nan,0.8899999856948853,2,0,0,True,0.7110000252723694,id0,
1729690899.4833436,1698,1729690899,483008022,,0.7110000252723694,0.0,-0.9100000262260437,nan,nan,nan,0.8899999856948853,2,0,0,True,0.7110000252723694,id0,
1729690899.5821028,1699,1729690899,581340726,,0.7110000252723694,0.0,-0.8999999761581421,nan,nan,nan,0.8899999856948853,2,0,0,True,0.718999981880188,id0,
1729690899.678594,1700,1729690899,678094022,,0.718999981880188,0.0,-0.8999999761581421,nan,nan,nan,0.8899999856948853,2,0,0,True,0.718999981880188,id0,
1729690899.7784803,1701,1729690899,778042893,,0.7200000286102295,0.0,-0.9100000262260437,nan,nan,nan,0.8899999856948853,2,0,0,True,0.7200000286102295,id0,
1729690899.885488,1702,1729690899,885061670,,0.7170000076293945,0.0,-0.9200000166893005,nan,nan,nan,0.8899999856948853,2,0,0,True,0.7170000076293945,id0,
1729690899.9813247,1703,1729690899,980592855,,0.7239999771118164,0.0,-0.9100000262260437,nan,nan,nan,0.8899999856948853,2,0,0,True,0.7239999771118164,id0,
1729690900.0825987,1704,1729690900,82161355,,0.7239999771118164,0.0,-0.9200000166893005,nan,nan,nan,0.8899999856948853,2,0,0,True,0.7239999771118164,id0,
1729690900.1806211,1705,1729690900,180157744,,0.7110000252723694,0.0,-0.8999999761581421,nan,nan,nan,0.8899999856948853,2,0,0,True,0.7110000252723694,id0,
1729690900.2793293,1706,1729690900,278497615,,0.7179999947547913,0.0,-0.9100000262260437,nan,nan,nan,0.8899999856948853,2,0,0,True,0.7179999947547913,id0,
1729690900.3856575,1707,1729690900,385188096,,0.722000002861023,0.0,-0.9100000262260437,nan,nan,nan,0.8899999856948853,2,0,0,True,0.722000002861023,id0,
1729690900.4856358,1708,1729690900,485232096,,0.7160000205039978,0.0,-0.8999999761581421,nan,nan,nan,0.8899999856948853,2,0,0,True,0.7160000205039978,id0,
1729690900.5854867,1709,1729690900,585155207,,0.7139999866485596,0.0,-0.9100000262260437,nan,nan,nan,0.8899999856948853,2,0,0,True,0.7139999866485596,id0,
1729690900.6791153,1710,1729690900,678426225,,0.7200000286102295,0.0,-0.9100000262260437,nan,nan,nan,0.8899999856948853,2,0,0,True,0.7200000286102295,id0,
1729690900.7815616,1711,1729690900,781199781,,0.7129999995231628,0.0,-0.9100000262260437,nan,nan,nan,0.8899999856948853,2,0,0,True,0.7129999995231628,id0,
1729690900.8817532,1712,1729690900,881256540,,0.7139999866485596,0.0,-0.9100000262260437,nan,nan,nan,0.8899999856948853,2,0,0,True,0.7139999866485596,id0,
1729690900.9866745,1713,1729690900,986271503,,0.7099999785423279,0.0,-0.9100000262260437,nan,nan,nan,0.8899999856948853,2,0,0,True,0.7099999785423279,id0,
1729690901.0865939,1714,1729690901,86239021,,0.7129999995231628,0.0,-0.9100000262260437,nan,nan,nan,0.8899999856948853,2,0,0,True,0.7129999995231628,id0,
1729690901.1927032,1715,1729690901,192299373,,0.7170000076293945,0.0,-0.9200000166893005,nan,nan,nan,0.8899999856948853,2,0,0,True,0.7170000076293945,id0,
1729690901.2851677,1716,1729690901,283688632,,0.7269999980926514,0.0,-0.9100000262260437,nan,nan,nan,0.8899999856948853,2,0,0,True,0.7269999980926514,id0,
1729690901.3877497,1717,1729690901,387333799,,0.7170000076293945,0.0,-0.9100000262260437,nan,nan,nan,0.8899999856948853,2,0,0,True,0.7170000076293945,id0,
1729690901.4896407,1718,1729690901,489285725,,0.7120000123977661,0.0,-0.9100000262260437,nan,nan,nan,0.8899999856948853,2,0,0,True,0.7120000123977661,id0,
1729690901.5927258,1719,1729690901,592354336,,0.7170000076293945,0.0,-0.9100000262260437,nan,nan,nan,0.8899999856948853,2,0,0,True,0.7170000076293945,id0,
1729690901.691678,1720,1729690901,691304280,,0.7149999737739563,0.0,-0.9100000262260437,nan,nan,nan,0.8899999856948853,2,0,0,True,0.7149999737739563,id0,
1729690901.7896955,1721,1729690901,789333558,,0.7210000157356262,0.0,-0.9200000166893005,nan,nan,nan,0.8899999856948853,2,0,0,True,0.7210000157356262,id0,
1729690901.8897328,1722,1729690901,889350817,,0.7250000238418579,0.0,-0.9200000166893005,nan,nan,nan,0.8899999856948853,2,0,0,True,0.7250000238418579,id0,
1729690901.9813838,1723,1729690901,980765817,,0.7239999771118164,0.0,-0.9100000262260437,nan,nan,nan,0.8899999856948853,2,0,0,True,0.7239999771118164,id0,
1729690902.0897236,1724,1729690902,89385132,,0.7149999737739563,0.0,-0.8999999761581421,nan,nan,nan,0.8899999856948853,2,0,0,True,0.7149999737739563,id0,
1729690902.1787903,1725,1729690902,177810762,,0.7160000205039978,0.0,-0.9100000262260437,nan,nan,nan,0.8899999856948853,2,0,0,True,0.7160000205039978,id0,
1729690902.2803068,1726,1729690902,279652243,,0.7170000076293945,0.0,-0.9100000262260437,nan,nan,nan,0.8899999856948853,2,0,0,True,0.7170000076293945,id0,
1729690902.3827865,1727,1729690902,382414465,,0.718999981880188,0.0,-0.9100000262260437,nan,nan,nan,0.8899999856948853,2,0,0,True,0.718999981880188,id0,
1729690902.4799962,1728,1729690902,479475687,,0.7170000076293945,0.0,-0.9100000262260437,nan,nan,nan,0.8899999856948853,2,0,0,True,0.7170000076293945,id0,
1729690902.580941,1729,1729690902,580576502,,0.7149999737739563,0.0,-0.9100000262260437,nan,nan,nan,0.8899999856948853,2,0,0,True,0.7149999737739563,id0,
1729690902.678715,1730,1729690902,678242187,,0.7089999914169312,0.0,-0.9100000262260437,nan,nan,nan,0.8899999856948853,2,0,0,True,0.7089999914169312,id0,
1729690902.7849326,1731,1729690902,784461391,,0.7149999737739563,0.0,-0.9200000166893005,nan,nan,nan,0.8899999856948853,2,0,0,True,0.7149999737739563,id0,
1729690902.8808262,1732,1729690902,880417409,,0.7149999737739563,0.0,-0.8999999761581421,nan,nan,nan,0.8899999856948853,2,0,0,True,0.7149999737739563,id0,
1729690902.9899921,1733,1729690902,989509298,,0.7149999737739563,0.0,-0.9100000262260437,nan,nan,nan,0.8899999856948853,2,0,0,True,0.7160000205039978,id0,
1729690903.0848017,1734,1729690903,84486002,,0.7160000205039978,0.0,-0.9200000166893005,nan,nan,nan,0.8899999856948853,2,0,0,True,0.7229999899864197,id0,
1729690903.1818545,1735,1729690903,181518576,,0.7229999899864197,0.0,-0.9100000262260437,nan,nan,nan,0.8899999856948853,2,0,0,True,0.7099999785423279,id0,
1729690903.2818375,1736,1729690903,281533668,,0.7099999785423279,0.0,-0.9100000262260437,nan,nan,nan,0.8899999856948853,2,0,0,True,0.722000002861023,id0,
1729690903.3808622,1737,1729690903,380541076,,0.722000002861023,0.0,-0.9100000262260437,nan,nan,nan,0.8899999856948853,2,0,0,True,0.722000002861023,id0,
1729690903.48193,1738,1729690903,481556002,,0.7160000205039978,0.0,-0.9100000262260437,nan,nan,nan,0.8899999856948853,2,0,0,True,0.7160000205039978,id0,
1729690903.5819995,1739,1729690903,581627205,,0.7129999995231628,0.0,-0.9100000262260437,nan,nan,nan,0.8899999856948853,2,0,0,True,0.7129999995231628,id0,
1729690903.684064,1740,1729690903,683605835,,0.7129999995231628,0.0,-0.9100000262260437,nan,nan,nan,0.8899999856948853,2,0,0,True,0.7129999995231628,id0,
1729690903.7912562,1741,1729690903,780639742,,0.7229999899864197,0.0,-0.9200000166893005,nan,nan,nan,0.8899999856948853,2,0,0,True,0.7229999899864197,id0,
1729690903.8789585,1742,1729690903,878613520,,0.7129999995231628,0.0,-0.9100000262260437,nan,nan,nan,0.8899999856948853,2,0,0,True,0.7129999995231628,id0,
1729690903.9816267,1743,1729690903,980899242,,0.722000002861023,0.0,-0.9200000166893005,nan,nan,nan,0.8899999856948853,2,0,0,True,0.722000002861023,id0,
1729690904.0792553,1744,1729690904,78697057,,0.7170000076293945,0.0,-0.9100000262260437,nan,nan,nan,0.8899999856948853,2,0,0,True,0.7170000076293945,id0,
1729690904.1831589,1745,1729690904,182710853,,0.7170000076293945,0.0,-0.9100000262260437,nan,nan,nan,0.8899999856948853,2,0,0,True,0.7170000076293945,id0,
1729690904.2800457,1746,1729690904,279670001,,0.7179999947547913,0.0,-0.9100000262260437,nan,nan,nan,0.8899999856948853,2,0,0,True,0.7179999947547913,id0,
1729690904.384022,1747,1729690904,383692260,,0.718999981880188,0.0,-0.9200000166893005,nan,nan,nan,0.8899999856948853,2,0,0,True,0.718999981880188,id0,
1729690904.4781563,1748,1729690904,477703556,,0.7160000205039978,0.0,-0.9200000166893005,nan,nan,nan,0.8899999856948853,2,0,0,True,0.7160000205039978,id0,
1729690904.580775,1749,1729690904,579978112,,0.7239999771118164,0.0,-0.9100000262260437,nan,nan,nan,0.8899999856948853,2,0,0,True,0.7239999771118164,id0,
1729690904.6821344,1750,1729690904,681782649,,0.7210000157356262,0.0,-0.9100000262260437,nan,nan,nan,0.8899999856948853,2,0,0,True,0.7210000157356262,id0,
1729690904.7968493,1751,1729690904,789722130,,0.718999981880188,0.0,-0.9100000262260437,nan,nan,nan,0.8899999856948853,2,0,0,True,0.718999981880188,id0,
1729690904.8901143,1752,1729690904,889759408,,0.7149999737739563,0.0,-0.9100000262260437,nan,nan,nan,0.8899999856948853,2,0,0,True,0.7149999737739563,id0,
1729690904.9931307,1753,1729690904,992775760,,0.7110000252723694,0.0,-0.9100000262260437,nan,nan,nan,0.8899999856948853,2,0,0,True,0.7110000252723694,id0,
1729690905.090248,1754,1729690905,89788686,,0.7099999785423279,0.0,-0.8999999761581421,nan,nan,nan,0.8899999856948853,2,0,0,True,0.7099999785423279,id0,
1729690905.188144,1755,1729690905,187800815,,0.7149999737739563,0.0,-0.9100000262260437,nan,nan,nan,0.8899999856948853,2,0,0,True,0.7149999737739563,id0,
1729690905.2852526,1756,1729690905,284873908,,0.7160000205039978,0.0,-0.9100000262260437,nan,nan,nan,0.8899999856948853,2,0,0,True,0.7160000205039978,id0,
1729690905.3863237,1757,1729690905,385888297,,0.7160000205039978,0.0,-0.9100000262260437,nan,nan,nan,0.8899999856948853,2,0,0,True,0.7160000205039978,id0,
1729690905.488305,1758,1729690905,487849334,,0.718999981880188,0.0,-0.9100000262260437,nan,nan,nan,0.8899999856948853,2,0,0,True,0.718999981880188,id0,
1729690905.5789645,1759,1729690905,578094537,,0.7170000076293945,0.0,-0.9100000262260437,nan,nan,nan,0.8899999856948853,2,0,0,True,0.7170000076293945,id0,
1729690905.6878905,1760,1729690905,687115630,,0.7099999785423279,0.0,-0.9100000262260437,nan,nan,nan,0.8899999856948853,2,0,0,True,0.7099999785423279,id0,
1729690905.7889345,1761,1729690905,788198371,,0.718999981880188,0.0,-0.9100000262260437,nan,nan,nan,0.8899999856948853,2,0,0,True,0.718999981880188,id0,
1729690905.8829646,1762,1729690905,882138019,,0.7210000157356262,0.0,-0.9100000262260437,nan,nan,nan,0.8899999856948853,2,0,0,True,0.7210000157356262,id0,
1729690905.9823818,1763,1729690905,981965593,,0.7160000205039978,0.0,-0.9100000262260437,nan,nan,nan,0.8899999856948853,2,0,0,True,0.7160000205039978,id0,
1729690906.080039,1764,1729690906,79277389,,0.7160000205039978,0.0,-0.8999999761581421,nan,nan,nan,0.8899999856948853,2,0,0,True,0.7160000205039978,id0,
1729690906.1829429,1765,1729690906,182180926,,0.7149999737739563,0.0,-0.9100000262260437,nan,nan,nan,0.8899999856948853,2,0,0,True,0.7149999737739563,id0,
1729690906.2843227,1766,1729690906,283960296,,0.718999981880188,0.0,-0.9100000262260437,nan,nan,nan,0.8899999856948853,2,0,0,True,0.718999981880188,id0,
1729690906.3800006,1767,1729690906,379335815,,0.7139999866485596,0.0,-0.9100000262260437,nan,nan,nan,0.8899999856948853,2,0,0,True,0.7139999866485596,id0,
1729690906.479433,1768,1729690906,478981333,,0.7160000205039978,0.0,-0.9100000262260437,nan,nan,nan,0.8899999856948853,2,0,0,True,0.7160000205039978,id0,
1729690906.5824494,1769,1729690906,581997389,,0.7200000286102295,0.0,-0.9100000262260437,nan,nan,nan,0.8899999856948853,2,0,0,True,0.7200000286102295,id0,
1729690906.6801908,1770,1729690906,679049629,,0.7099999785423279,0.0,-0.8999999761581421,nan,nan,nan,0.8899999856948853,2,0,0,True,0.7099999785423279,id0,
1729690906.784363,1771,1729690906,784025814,,0.7129999995231628,0.0,-0.9100000262260437,nan,nan,nan,0.8899999856948853,2,0,0,True,0.7129999995231628,id0,
1729690906.8851562,1772,1729690906,884459962,,0.7129999995231628,0.0,-0.9100000262260437,nan,nan,nan,0.8899999856948853,2,0,0,True,0.7250000238418579,id0,
1729690906.9814007,1773,1729690906,981047425,,0.7250000238418579,0.0,-0.9100000262260437,nan,nan,nan,0.8899999856948853,2,0,0,True,0.7089999914169312,id0,
1729690907.0814083,1774,1729690907,81070555,,0.7089999914169312,0.0,-0.9100000262260437,nan,nan,nan,0.8899999856948853,2,0,0,True,0.7160000205039978,id0,
1729690907.1817174,1775,1729690907,181132999,,0.7160000205039978,0.0,-0.9100000262260437,nan,nan,nan,0.8899999856948853,2,0,0,True,0.7129999995231628,id0,
1729690907.2805054,1776,1729690907,280089573,,0.7129999995231628,0.0,-0.9100000262260437,nan,nan,nan,0.8899999856948853,2,0,0,True,0.7160000205039978,id0,
1729690907.3807318,1777,1729690907,380145573,,0.7160000205039978,0.0,-0.9100000262260437,nan,nan,nan,0.8899999856948853,2,0,0,True,0.7139999866485596,id0,
1729690907.4805682,1778,1729690907,480112184,,0.7139999866485596,0.0,-0.9100000262260437,nan,nan,nan,0.8899999856948853,2,0,0,True,0.7139999866485596,id0,
1729690907.5857725,1779,1729690907,585191740,,0.7149999737739563,0.0,-0.9100000262260437,nan,nan,nan,0.8899999856948853,2,0,0,True,0.7210000157356262,id0,
1729690907.682573,1780,1729690907,682149795,,0.7210000157356262,0.0,-0.9100000262260437,nan,nan,nan,0.8899999856948853,2,0,0,True,0.7210000157356262,id0,
1729690907.780596,1781,1729690907,780159629,,0.7229999899864197,0.0,-0.9100000262260437,nan,nan,nan,0.8899999856948853,2,0,0,True,0.7229999899864197,id0,
1729690907.8817754,1782,1729690907,880418703,,0.7179999947547913,0.0,-0.8999999761581421,nan,nan,nan,0.8899999856948853,2,0,0,True,0.7179999947547913,id0,
1729690907.9896746,1783,1729690907,989162295,,0.7210000157356262,0.0,-0.9100000262260437,nan,nan,nan,0.8899999856948853,2,0,0,True,0.7210000157356262,id0,
1729690908.08161,1784,1729690908,81199443,,0.7160000205039978,0.0,-0.9100000262260437,nan,nan,nan,0.8899999856948853,2,0,0,True,0.7160000205039978,id0,
1729690908.1809292,1785,1729690908,179455332,,0.7139999866485596,0.0,-0.9100000262260437,nan,nan,nan,0.8899999856948853,2,0,0,True,0.7139999866485596,id0,
1729690908.2818484,1786,1729690908,281271832,,0.7099999785423279,0.0,-0.8999999761581421,nan,nan,nan,0.8899999856948853,2,0,0,True,0.7099999785423279,id0,
1729690908.3807945,1787,1729690908,379466999,,0.7200000286102295,0.0,-0.9100000262260437,nan,nan,nan,0.8899999856948853,2,0,0,True,0.7200000286102295,id0,
1729690908.4816697,1788,1729690908,481249628,,0.7170000076293945,0.0,-0.8999999761581421,nan,nan,nan,0.8899999856948853,2,0,0,True,0.7170000076293945,id0,
1729690908.5838182,1789,1729690908,583275147,,0.7110000252723694,0.0,-0.9100000262260437,nan,nan,nan,0.8899999856948853,2,0,0,True,0.7110000252723694,id0,
1729690908.6807296,1790,1729690908,680280258,,0.7179999947547913,0.0,-0.9100000262260437,nan,nan,nan,0.8899999856948853,2,0,0,True,0.7179999947547913,id0,
1729690908.7817051,1791,1729690908,781289295,,0.7210000157356262,0.0,-0.9100000262260437,nan,nan,nan,0.8899999856948853,2,0,0,True,0.7210000157356262,id0,
1729690908.889778,1792,1729690908,883028702,,0.7139999866485596,0.0,-0.9200000166893005,nan,nan,nan,0.8899999856948853,2,0,0,True,0.7139999866485596,id0,
1729690908.9848795,1793,1729690908,984385350,,0.7149999737739563,0.0,-0.9100000262260437,nan,nan,nan,0.8899999856948853,2,0,0,True,0.7149999737739563,id0,
1729690909.088882,1794,1729690909,88401776,,0.7160000205039978,0.0,-0.8999999761581421,nan,nan,nan,0.8899999856948853,2,0,0,True,0.7160000205039978,id0,
1729690909.1948004,1795,1729690909,194368202,,0.7179999947547913,0.0,-0.9100000262260437,nan,nan,nan,0.8899999856948853,2,0,0,True,0.7179999947547913,id0,
1729690909.2869275,1796,1729690909,286432757,,0.7099999785423279,0.0,-0.9100000262260437,nan,nan,nan,0.8899999856948853,2,0,0,True,0.7099999785423279,id0,
1729690909.3918173,1797,1729690909,391392165,,0.7129999995231628,0.0,-0.9100000262260437,nan,nan,nan,0.8899999856948853,2,0,0,True,0.7129999995231628,id0,
1729690909.4918337,1798,1729690909,491407257,,0.7149999737739563,0.0,-0.9100000262260437,nan,nan,nan,0.8899999856948853,2,0,0,True,0.7149999737739563,id0,
1729690909.5881374,1799,1729690909,586470665,,0.7139999866485596,0.0,-0.9100000262260437,nan,nan,nan,0.8899999856948853,2,0,0,True,0.7139999866485596,id0,
1729690909.6918595,1800,1729690909,691433757,,0.7160000205039978,0.0,-0.8999999761581421,nan,nan,nan,0.8899999856948853,2,0,0,True,0.7160000205039978,id0,
1729690909.7899196,1801,1729690909,789444627,,0.7160000205039978,0.0,-0.9100000262260437,nan,nan,nan,0.8899999856948853,2,0,0,True,0.7160000205039978,id0,
1729690909.8918931,1802,1729690909,891459850,,0.7160000205039978,0.0,-0.9100000262260437,nan,nan,nan,0.8899999856948853,2,0,0,True,0.7160000205039978,id0,
1729690909.9838817,1803,1729690909,983500183,,0.7229999899864197,0.0,-0.9100000262260437,nan,nan,nan,0.8899999856948853,2,0,0,True,0.7229999899864197,id0,
1729690910.0808473,1804,1729690910,80484849,,0.7160000205039978,0.0,-0.9100000262260437,nan,nan,nan,0.8899999856948853,2,0,0,True,0.7160000205039978,id0,
1729690910.183896,1805,1729690910,183528553,,0.7200000286102295,0.0,-0.9100000262260437,nan,nan,nan,0.8899999856948853,2,0,0,True,0.7200000286102295,id0,
1729690910.2829711,1806,1729690910,282519423,,0.718999981880188,0.0,-0.9100000262260437,nan,nan,nan,0.8899999856948853,2,0,0,True,0.718999981880188,id0,
1729690910.3789687,1807,1729690910,378586479,,0.7129999995231628,0.0,-0.9100000262260437,nan,nan,nan,0.8899999856948853,2,0,0,True,0.7129999995231628,id0,
1729690910.4809096,1808,1729690910,480540923,,0.7129999995231628,0.0,-0.9100000262260437,nan,nan,nan,0.8899999856948853,2,0,0,True,0.7129999995231628,id0,
1729690910.5809283,1809,1729690910,580560775,,0.7149999737739563,0.0,-0.9100000262260437,nan,nan,nan,0.8899999856948853,2,0,0,True,0.7149999737739563,id0,
1729690910.6795392,1810,1729690910,678852868,,0.7210000157356262,0.0,-0.9100000262260437,nan,nan,nan,0.8899999856948853,2,0,0,True,0.7210000157356262,id0,
1729690910.779639,1811,1729690910,778956405,,0.7160000205039978,0.0,-0.9100000262260437,nan,nan,nan,0.8899999856948853,2,0,0,True,0.7160000205039978,id0,
1729690910.8821692,1812,1729690910,880933053,,0.7179999947547913,0.0,-0.9100000262260437,nan,nan,nan,0.8899999856948853,2,0,0,True,0.7179999947547913,id0,
1729690910.9837644,1813,1729690910,982904460,,0.7229999899864197,0.0,-0.9200000166893005,nan,nan,nan,0.8899999856948853,2,0,0,True,0.7229999899864197,id0,
1729690911.0780942,1814,1729690911,77676182,,0.7229999899864197,0.0,-0.9100000262260437,nan,nan,nan,0.8799999952316284,2,0,0,True,0.722000002861023,id0,
1729690911.1799552,1815,1729690911,179632071,,0.722000002861023,0.0,-0.9200000166893005,nan,nan,nan,0.8799999952316284,2,0,0,True,0.7179999947547913,id0,
1729690911.282047,1816,1729690911,281651275,,0.7179999947547913,0.0,-0.9100000262260437,nan,nan,nan,0.8799999952316284,2,0,0,True,0.7160000205039978,id0,
1729690911.3800077,1817,1729690911,379661886,,0.7160000205039978,0.0,-0.9100000262260437,nan,nan,nan,0.8799999952316284,2,0,0,True,0.7089999914169312,id0,
1729690911.4775078,1818,1729690911,476945904,,0.7089999914169312,0.0,-0.9100000262260437,nan,nan,nan,0.8799999952316284,2,0,0,True,0.7089999914169312,id0,
1729690911.5820482,1819,1729690911,581696108,,0.7210000157356262,0.0,-0.9100000262260437,nan,nan,nan,0.8799999952316284,2,0,0,True,0.7160000205039978,id0,
1729690911.6821656,1820,1729690911,681765923,,0.7160000205039978,0.0,-0.9100000262260437,nan,nan,nan,0.8799999952316284,2,0,0,True,0.7160000205039978,id0,
1729690911.7817945,1821,1729690911,781031552,,0.722000002861023,0.0,-0.9100000262260437,nan,nan,nan,0.8799999952316284,2,0,0,True,0.722000002861023,id0,
1729690911.879101,1822,1729690911,878735793,,0.7110000252723694,0.0,-0.9100000262260437,nan,nan,nan,0.8799999952316284,2,0,0,True,0.7110000252723694,id0,
1729690911.9822037,1823,1729690911,981803126,,0.7099999785423279,0.0,-0.9100000262260437,nan,nan,nan,0.8799999952316284,2,0,0,True,0.7099999785423279,id0,
1729690912.0838668,1824,1729690912,80768552,,0.7149999737739563,0.0,-0.9100000262260437,nan,nan,nan,0.8799999952316284,2,0,0,True,0.7149999737739563,id0,
1729690912.1841307,1825,1729690912,183785015,,0.7110000252723694,0.0,-0.8999999761581421,nan,nan,nan,0.8799999952316284,2,0,0,True,0.7110000252723694,id0,
1729690912.2821805,1826,1729690912,280754848,,0.7229999899864197,0.0,-0.9100000262260437,nan,nan,nan,0.8799999952316284,2,0,0,True,0.7229999899864197,id0,
1729690912.3793776,1827,1729690912,378870663,,0.7179999947547913,0.0,-0.9100000262260437,nan,nan,nan,0.8799999952316284,2,0,0,True,0.7179999947547913,id0,
1729690912.4801896,1828,1729690912,479830700,,0.7160000205039978,0.0,-0.8999999761581421,nan,nan,nan,0.8799999952316284,2,0,0,True,0.7160000205039978,id0,
1729690912.5832856,1829,1729690912,582888163,,0.7210000157356262,0.0,-0.9100000262260437,nan,nan,nan,0.8799999952316284,2,0,0,True,0.7210000157356262,id0,
1729690912.6811743,1830,1729690912,680850681,,0.7170000076293945,0.0,-0.9100000262260437,nan,nan,nan,0.8799999952316284,2,0,0,True,0.7170000076293945,id0,
1729690912.7812023,1831,1729690912,780866663,,0.7160000205039978,0.0,-0.9100000262260437,nan,nan,nan,0.8799999952316284,2,0,0,True,0.7160000205039978,id0,
1729690912.8789012,1832,1729690912,878152589,,0.7129999995231628,0.0,-0.8999999761581421,nan,nan,nan,0.8799999952316284,2,0,0,True,0.7129999995231628,id0,
1729690912.9862652,1833,1729690912,985902014,,0.7160000205039978,0.0,-0.9100000262260437,nan,nan,nan,0.8799999952316284,2,0,0,True,0.7160000205039978,id0,
1729690913.0813527,1834,1729690913,80905662,,0.7120000123977661,0.0,-0.8999999761581421,nan,nan,nan,0.8799999952316284,2,0,0,True,0.7120000123977661,id0,
1729690913.1862369,1835,1729690913,185920977,,0.7160000205039978,0.0,-0.9100000262260437,nan,nan,nan,0.8799999952316284,2,0,0,True,0.7160000205039978,id0,
1729690913.283297,1836,1729690913,282934533,,0.7200000286102295,0.0,-0.8999999761581421,nan,nan,nan,0.8799999952316284,2,0,0,True,0.7200000286102295,id0,
1729690913.3879175,1837,1729690913,387214162,,0.7120000123977661,0.0,-0.9100000262260437,nan,nan,nan,0.8799999952316284,2,0,0,True,0.7120000123977661,id0,
1729690913.4893992,1838,1729690913,489029014,,0.7239999771118164,0.0,-0.9100000262260437,nan,nan,nan,0.8799999952316284,2,0,0,True,0.7239999771118164,id0,
1729690913.5884287,1839,1729690913,587970810,,0.7129999995231628,0.0,-0.9100000262260437,nan,nan,nan,0.8799999952316284,2,0,0,True,0.7129999995231628,id0,
1729690913.6873417,1840,1729690913,686994532,,0.7149999737739563,0.0,-0.9100000262260437,nan,nan,nan,0.8799999952316284,2,0,0,True,0.7149999737739563,id0,
1729690913.7984257,1841,1729690913,797991384,,0.7229999899864197,0.0,-0.9200000166893005,nan,nan,nan,0.8799999952316284,2,0,0,True,0.7229999899864197,id0,
1729690913.882425,1842,1729690913,882011310,,0.7170000076293945,0.0,-0.9100000262260437,nan,nan,nan,0.8799999952316284,2,0,0,True,0.7170000076293945,id0,
1729690913.9924417,1843,1729690913,992019884,,0.7160000205039978,0.0,-0.9100000262260437,nan,nan,nan,0.8799999952316284,2,0,0,True,0.7160000205039978,id0,
1729690914.0805635,1844,1729690914,80038792,,0.7170000076293945,0.0,-0.9100000262260437,nan,nan,nan,0.8799999952316284,2,0,0,True,0.7170000076293945,id0,
1729690914.1817744,1845,1729690914,181118051,,0.7139999866485596,0.0,-0.9100000262260437,nan,nan,nan,0.8799999952316284,2,0,0,True,0.7139999866485596,id0,
1729690914.280496,1846,1729690914,280063069,,0.7139999866485596,0.0,-0.9100000262260437,nan,nan,nan,0.8799999952316284,2,0,0,True,0.7139999866485596,id0,
1729690914.3854961,1847,1729690914,385075662,,0.7080000042915344,0.0,-0.9100000262260437,nan,nan,nan,0.8799999952316284,2,0,0,True,0.7080000042915344,id0,
1729690914.478425,1848,1729690914,477380180,,0.718999981880188,0.0,-0.9100000262260437,nan,nan,nan,0.8799999952316284,2,0,0,True,0.718999981880188,id0,
1729690914.5805247,1849,1729690914,580108291,,0.7170000076293945,0.0,-0.9100000262260437,nan,nan,nan,0.8799999952316284,2,0,0,True,0.7170000076293945,id0,
1729690914.6806357,1850,1729690914,680116587,,0.7179999947547913,0.0,-0.9100000262260437,nan,nan,nan,0.8799999952316284,2,0,0,True,0.7179999947547913,id0,
1729690914.7855682,1851,1729690914,785137199,,0.7179999947547913,0.0,-0.9100000262260437,nan,nan,nan,0.8799999952316284,2,0,0,True,0.7179999947547913,id0,
1729690914.8808365,1852,1729690914,880222013,,0.7179999947547913,0.0,-0.9100000262260437,nan,nan,nan,0.8799999952316284,2,0,0,True,0.7120000123977661,id0,
1729690914.9833286,1853,1729690914,982461124,,0.7120000123977661,0.0,-0.9100000262260437,nan,nan,nan,0.8799999952316284,2,0,0,True,0.7139999866485596,id0,
1729690915.0779333,1854,1729690915,77167161,,0.7139999866485596,0.0,-0.9100000262260437,nan,nan,nan,0.8799999952316284,2,0,0,True,0.7170000076293945,id0,
1729690915.180654,1855,1729690915,179485346,,0.7170000076293945,0.0,-0.9100000262260437,nan,nan,nan,0.8799999952316284,2,0,0,True,0.7129999995231628,id0,
1729690915.2786756,1856,1729690915,277503328,,0.7129999995231628,0.0,-0.9100000262260437,nan,nan,nan,0.8799999952316284,2,0,0,True,0.7129999995231628,id0,
1729690915.3816125,1857,1729690915,381210550,,0.7160000205039978,0.0,-0.9100000262260437,nan,nan,nan,0.8799999952316284,2,0,0,True,0.7120000123977661,id0,
1729690915.4795146,1858,1729690915,478488772,,0.7120000123977661,0.0,-0.9100000262260437,nan,nan,nan,0.8799999952316284,2,0,0,True,0.7120000123977661,id0,
1729690915.584368,1859,1729690915,583502846,,0.7099999785423279,0.0,-0.9100000262260437,nan,nan,nan,0.8799999952316284,2,0,0,True,0.7099999785423279,id0,
1729690915.6786845,1860,1729690915,678260754,,0.7139999866485596,0.0,-0.8999999761581421,nan,nan,nan,0.8799999952316284,2,0,0,True,0.7139999866485596,id0,
1729690915.7858949,1861,1729690915,785324272,,0.718999981880188,0.0,-0.9100000262260437,nan,nan,nan,0.8799999952316284,2,0,0,True,0.718999981880188,id0,
1729690915.8808236,1862,1729690915,880279902,,0.7200000286102295,0.0,-0.9100000262260437,nan,nan,nan,0.8799999952316284,2,0,0,True,0.7200000286102295,id0,
1729690915.978986,1863,1729690915,978374290,,0.7160000205039978,0.0,-0.9100000262260437,nan,nan,nan,0.8799999952316284,2,0,0,True,0.7160000205039978,id0,
1729690916.081038,1864,1729690916,80313476,,0.7160000205039978,0.0,-0.9100000262260437,nan,nan,nan,0.8799999952316284,2,0,0,True,0.7160000205039978,id0,
1729690916.1789205,1865,1729690916,178382401,,0.7149999737739563,0.0,-0.9100000262260437,nan,nan,nan,0.8799999952316284,2,0,0,True,0.7149999737739563,id0,
1729690916.2797601,1866,1729690916,279342568,,0.7200000286102295,0.0,-0.9100000262260437,nan,nan,nan,0.8799999952316284,2,0,0,True,0.7200000286102295,id0,
1729690916.3807018,1867,1729690916,379646586,,0.722000002861023,0.0,-0.9100000262260437,nan,nan,nan,0.8799999952316284,2,0,0,True,0.722000002861023,id0,
1729690916.481794,1868,1729690916,481364142,,0.7099999785423279,0.0,-0.9100000262260437,nan,nan,nan,0.8799999952316284,2,0,0,True,0.7099999785423279,id0,
1729690916.582613,1869,1729690916,581643586,,0.7160000205039978,0.0,-0.9100000262260437,nan,nan,nan,0.8799999952316284,2,0,0,True,0.7160000205039978,id0,
1729690916.6819272,1870,1729690916,681449883,,0.7160000205039978,0.0,-0.9100000262260437,nan,nan,nan,0.8799999952316284,2,0,0,True,0.7160000205039978,id0,
1729690916.7888322,1871,1729690916,788412568,,0.7170000076293945,0.0,-0.9200000166893005,nan,nan,nan,0.8799999952316284,2,0,0,True,0.7170000076293945,id0,
1729690916.8796842,1872,1729690916,878690864,,0.7089999914169312,0.0,-0.9200000166893005,nan,nan,nan,0.8799999952316284,2,0,0,True,0.7089999914169312,id0,
1729690916.9865673,1873,1729690916,983482882,,0.718999981880188,0.0,-0.9100000262260437,nan,nan,nan,0.8799999952316284,2,0,0,True,0.718999981880188,id0,
1729690917.0889306,1874,1729690917,88518067,,0.7129999995231628,0.0,-0.9100000262260437,nan,nan,nan,0.8799999952316284,2,0,0,True,0.7129999995231628,id0,
1729690917.1908205,1875,1729690917,190488030,,0.7110000252723694,0.0,-0.9100000262260437,nan,nan,nan,0.8799999952316284,2,0,0,True,0.7110000252723694,id0,
1729690917.2858331,1876,1729690917,285509753,,0.7099999785423279,0.0,-0.9100000262260437,nan,nan,nan,0.8799999952316284,2,0,0,True,0.7099999785423279,id0,
1729690917.3878293,1877,1729690917,387515030,,0.7160000205039978,0.0,-0.9100000262260437,nan,nan,nan,0.8799999952316284,2,0,0,True,0.7160000205039978,id0,
1729690917.4866056,1878,1729690917,485856641,,0.7179999947547913,0.0,-0.9100000262260437,nan,nan,nan,0.8799999952316284,2,0,0,True,0.7179999947547913,id0,
1729690917.5878756,1879,1729690917,587537197,,0.7149999737739563,0.0,-0.9100000262260437,nan,nan,nan,0.8799999952316284,2,0,0,True,0.7149999737739563,id0,
1729690917.6870327,1880,1729690917,686603808,,0.7160000205039978,0.0,-0.9100000262260437,nan,nan,nan,0.8799999952316284,2,0,0,True,0.7160000205039978,id0,
1729690917.794999,1881,1729690917,794556845,,0.7170000076293945,0.0,-0.9100000262260437,nan,nan,nan,0.8799999952316284,2,0,0,True,0.7170000076293945,id0,
1729690917.8794467,1882,1729690917,877889086,,0.7120000123977661,0.0,-0.8999999761581421,nan,nan,nan,0.8799999952316284,2,0,0,True,0.7120000123977661,id0,
1729690917.9871378,1883,1729690917,986596771,,0.7149999737739563,0.0,-0.9100000262260437,nan,nan,nan,0.8799999952316284,2,0,0,True,0.7149999737739563,id0,
1729690918.0828662,1884,1729690918,81638548,,0.7129999995231628,0.0,-0.9100000262260437,nan,nan,nan,0.8799999952316284,2,0,0,True,0.7129999995231628,id0,
1729690918.1839907,1885,1729690918,182923474,,0.7179999947547913,0.0,-0.9100000262260437,nan,nan,nan,0.8799999952316284,2,0,0,True,0.7179999947547913,id0,
1729690918.280275,1886,1729690918,279702604,,0.7139999866485596,0.0,-0.9100000262260437,nan,nan,nan,0.8799999952316284,2,0,0,True,0.7139999866485596,id0,
1729690918.382202,1887,1729690918,381705289,,0.718999981880188,0.0,-0.9100000262260437,nan,nan,nan,0.8799999952316284,2,0,0,True,0.718999981880188,id0,
1729690918.477262,1888,1729690918,476722956,,0.7149999737739563,0.0,-0.8999999761581421,nan,nan,nan,0.8799999952316284,2,0,0,True,0.7149999737739563,id0,
1729690918.577935,1889,1729690918,576910974,,0.7200000286102295,0.0,-0.9100000262260437,nan,nan,nan,0.8799999952316284,2,0,0,True,0.7200000286102295,id0,
1729690918.7044487,1890,1729690918,677966307,,0.7179999947547913,0.0,-0.9100000262260437,nan,nan,nan,0.8799999952316284,2,0,0,True,0.7179999947547913,id0,
1729690918.7811666,1891,1729690918,780734715,,0.7179999947547913,0.0,-0.9100000262260437,nan,nan,nan,0.8799999952316284,2,0,0,True,0.7160000205039978,id0,
1729690918.8812554,1892,1729690918,880769715,,0.7160000205039978,0.0,-0.9100000262260437,nan,nan,nan,0.8799999952316284,2,0,0,True,0.7149999737739563,id0,
1729690918.980549,1893,1729690918,979913677,,0.7149999737739563,0.0,-0.8999999761581421,nan,nan,nan,0.8799999952316284,2,0,0,True,0.7170000076293945,id0,
1729690919.0842786,1894,1729690919,83752511,,0.7170000076293945,0.0,-0.9100000262260437,nan,nan,nan,0.8799999952316284,2,0,0,True,0.7160000205039978,id0,
1729690919.1780474,1895,1729690919,177182011,,0.7160000205039978,0.0,-0.9100000262260437,nan,nan,nan,0.8799999952316284,2,0,0,True,0.7160000205039978,id0,
1729690919.2781825,1896,1729690919,277195640,,0.7170000076293945,0.0,-0.9100000262260437,nan,nan,nan,0.8799999952316284,2,0,0,True,0.7170000076293945,id0,
1729690919.3822107,1897,1729690919,381791640,,0.7179999947547913,0.0,-0.9200000166893005,nan,nan,nan,0.8799999952316284,2,0,0,True,0.7179999947547913,id0,
1729690919.481323,1898,1729690919,480805548,,0.722000002861023,0.0,-0.9100000262260437,nan,nan,nan,0.8799999952316284,2,0,0,True,0.722000002861023,id0,
1729690919.5842466,1899,1729690919,583825844,,0.7200000286102295,0.0,-0.9100000262260437,nan,nan,nan,0.8799999952316284,2,0,0,True,0.7200000286102295,id0,
1729690919.6813576,1900,1729690919,680840733,,0.7260000109672546,0.0,-0.9100000262260437,nan,nan,nan,0.8799999952316284,2,0,0,True,0.7260000109672546,id0,
1729690919.7832413,1901,1729690919,782833214,,0.7110000252723694,0.0,-0.9100000262260437,nan,nan,nan,0.8799999952316284,2,0,0,True,0.7110000252723694,id0,
1729690919.8783944,1902,1729690919,877871695,,0.7200000286102295,0.0,-0.9100000262260437,nan,nan,nan,0.8799999952316284,2,0,0,True,0.7200000286102295,id0,
1729690919.9802923,1903,1729690919,979875640,,0.7160000205039978,0.0,-0.9100000262260437,nan,nan,nan,0.8799999952316284,2,0,0,True,0.7160000205039978,id0,
1729690920.0911427,1904,1729690920,77916973,,0.7179999947547913,0.0,-0.9100000262260437,nan,nan,nan,0.8799999952316284,2,0,0,True,0.7179999947547913,id0,
1729690920.1791527,1905,1729690920,178174084,,0.7200000286102295,0.0,-0.9100000262260437,nan,nan,nan,0.8799999952316284,2,0,0,True,0.7200000286102295,id0,
1729690920.2805223,1906,1729690920,279964917,,0.7160000205039978,0.0,-0.9100000262260437,nan,nan,nan,0.8799999952316284,2,0,0,True,0.7160000205039978,id0,
1729690920.3823407,1907,1729690920,381915658,,0.718999981880188,0.0,-0.8999999761581421,nan,nan,nan,0.8799999952316284,2,0,0,True,0.718999981880188,id0,
1729690920.482351,1908,1729690920,481932954,,0.7139999866485596,0.0,-0.8999999761581421,nan,nan,nan,0.8799999952316284,2,0,0,True,0.7139999866485596,id0,
1729690920.5806053,1909,1729690920,580011102,,0.7170000076293945,0.0,-0.9100000262260437,nan,nan,nan,0.8799999952316284,2,0,0,True,0.7170000076293945,id0,
1729690920.6804795,1910,1729690920,679962547,,0.7129999995231628,0.0,-0.9100000262260437,nan,nan,nan,0.8799999952316284,2,0,0,True,0.7129999995231628,id0,
1729690920.7885025,1911,1729690920,788036176,,0.7160000205039978,0.0,-0.9100000262260437,nan,nan,nan,0.8799999952316284,2,0,0,True,0.7160000205039978,id0,
1729690920.8845134,1912,1729690920,883997843,,0.7269999980926514,0.0,-0.9100000262260437,nan,nan,nan,0.8799999952316284,2,0,0,True,0.7269999980926514,id0,
1729690920.9886284,1913,1729690920,988065287,,0.7200000286102295,0.0,-0.9100000262260437,nan,nan,nan,0.8799999952316284,2,0,0,True,0.7200000286102295,id0,
1729690921.08765,1914,1729690921,87084491,,0.7160000205039978,0.0,-0.9100000262260437,nan,nan,nan,0.8799999952316284,2,0,0,True,0.7160000205039978,id0,
1729690921.1856976,1915,1729690921,185096824,,0.7239999771118164,0.0,-0.9200000166893005,nan,nan,nan,0.8799999952316284,2,0,0,True,0.7239999771118164,id0,
1729690921.2864575,1916,1729690921,285323824,,0.7120000123977661,0.0,-0.9100000262260437,nan,nan,nan,0.8799999952316284,2,0,0,True,0.7120000123977661,id0,
1729690921.3925157,1917,1729690921,391369620,,0.7210000157356262,0.0,-0.9100000262260437,nan,nan,nan,0.8799999952316284,2,0,0,True,0.7210000157356262,id0,
1729690921.4876165,1918,1729690921,487081898,,0.7210000157356262,0.0,-0.9100000262260437,nan,nan,nan,0.8799999952316284,2,0,0,True,0.7210000157356262,id0,
1729690921.5857208,1919,1729690921,585158750,,0.7170000076293945,0.0,-0.9100000262260437,nan,nan,nan,0.8799999952316284,2,0,0,True,0.7170000076293945,id0,
1729690921.688524,1920,1729690921,688100287,,0.7179999947547913,0.0,-0.9100000262260437,nan,nan,nan,0.8799999952316284,2,0,0,True,0.7179999947547913,id0,
1729690921.790646,1921,1729690921,790116768,,0.7160000205039978,0.0,-0.9100000262260437,nan,nan,nan,0.8799999952316284,2,0,0,True,0.7160000205039978,id0,
1729690921.8805544,1922,1729690921,880138046,,0.7120000123977661,0.0,-0.9100000262260437,nan,nan,nan,0.8799999952316284,2,0,0,True,0.7120000123977661,id0,
1729690921.9856143,1923,1729690921,985153361,,0.7120000123977661,0.0,-0.9100000262260437,nan,nan,nan,0.8799999952316284,2,0,0,True,0.7120000123977661,id0,
1729690922.0788794,1924,1729690922,78214972,,0.7099999785423279,0.0,-0.9100000262260437,nan,nan,nan,0.8799999952316284,2,0,0,True,0.7099999785423279,id0,
1729690922.1795614,1925,1729690922,178484972,,0.718999981880188,0.0,-0.9100000262260437,nan,nan,nan,0.8799999952316284,2,0,0,True,0.718999981880188,id0,
1729690922.281681,1926,1729690922,280499490,,0.7160000205039978,0.0,-0.9100000262260437,nan,nan,nan,0.8799999952316284,2,0,0,True,0.7160000205039978,id0,
1729690922.377926,1927,1729690922,377260490,,0.718999981880188,0.0,-0.9100000262260437,nan,nan,nan,0.8799999952316284,2,0,0,True,0.718999981880188,id0,
1729690922.4796517,1928,1729690922,479219379,,0.7149999737739563,0.0,-0.9100000262260437,nan,nan,nan,0.8799999952316284,2,0,0,True,0.7149999737739563,id0,
1729690922.5814204,1929,1729690922,580455046,,0.7179999947547913,0.0,-0.8999999761581421,nan,nan,nan,0.8799999952316284,2,0,0,True,0.7179999947547913,id0,
1729690922.6798851,1930,1729690922,679300231,,0.7179999947547913,0.0,-0.9100000262260437,nan,nan,nan,0.8799999952316284,2,0,0,True,0.7160000205039978,id0,
1729690922.7837143,1931,1729690922,783259360,,0.7160000205039978,0.0,-0.8999999761581421,nan,nan,nan,0.8799999952316284,2,0,0,True,0.7099999785423279,id0,
1729690922.8816566,1932,1729690922,880560583,,0.7099999785423279,0.0,-0.8999999761581421,nan,nan,nan,0.8799999952316284,2,0,0,True,0.7160000205039978,id0,
1729690922.9817562,1933,1729690922,980493749,,0.7160000205039978,0.0,-0.9100000262260437,nan,nan,nan,0.8799999952316284,2,0,0,True,0.7149999737739563,id0,
1729690923.0808303,1934,1729690923,80306805,,0.7149999737739563,0.0,-0.9200000166893005,nan,nan,nan,0.8799999952316284,2,0,0,True,0.7160000205039978,id0,
1729690923.1828372,1935,1729690923,182361082,,0.7160000205039978,0.0,-0.9100000262260437,nan,nan,nan,0.8799999952316284,2,0,0,True,0.718999981880188,id0,
1729690923.278839,1936,1729690923,277615916,,0.718999981880188,0.0,-0.9100000262260437,nan,nan,nan,0.8799999952316284,2,0,0,True,0.718999981880188,id0,
1729690923.381991,1937,1729690923,381391267,,0.7210000157356262,0.0,-0.9100000262260437,nan,nan,nan,0.8799999952316284,2,0,0,True,0.7210000157356262,id0,
1729690923.4793527,1938,1729690923,478416304,,0.7089999914169312,0.0,-0.9100000262260437,nan,nan,nan,0.8799999952316284,2,0,0,True,0.7089999914169312,id0,
1729690923.5788782,1939,1729690923,577663471,,0.7210000157356262,0.0,-0.9100000262260437,nan,nan,nan,0.8799999952316284,2,0,0,True,0.7210000157356262,id0,
1729690923.6827714,1940,1729690923,681636675,,0.7149999737739563,0.0,-0.9100000262260437,nan,nan,nan,0.8799999952316284,2,0,0,True,0.7149999737739563,id0,
1729690923.7778225,1941,1729690923,776671082,,0.7129999995231628,0.0,-0.9100000262260437,nan,nan,nan,0.8799999952316284,2,0,0,True,0.7129999995231628,id0,
1729690923.884046,1942,1729690923,883492415,,0.7160000205039978,0.0,-0.9100000262260437,nan,nan,nan,0.8799999952316284,2,0,0,True,0.7160000205039978,id0,
1729690923.9828415,1943,1729690923,982420656,,0.7110000252723694,0.0,-0.9100000262260437,nan,nan,nan,0.8799999952316284,2,0,0,True,0.7110000252723694,id0,
1729690924.0811005,1944,1729690924,80500563,,0.7129999995231628,0.0,-0.9100000262260437,nan,nan,nan,0.8799999952316284,2,0,0,True,0.7129999995231628,id0,
1729690924.1818287,1945,1729690924,180753637,,0.7229999899864197,0.0,-0.9100000262260437,nan,nan,nan,0.8799999952316284,2,0,0,True,0.7229999899864197,id0,
1729690924.2780178,1946,1729690924,277525711,,0.7179999947547913,0.0,-0.9100000262260437,nan,nan,nan,0.8799999952316284,2,0,0,True,0.7179999947547913,id0,
1729690924.3867874,1947,1729690924,385752822,,0.7179999947547913,0.0,-0.9100000262260437,nan,nan,nan,0.8799999952316284,2,0,0,True,0.7179999947547913,id0,
1729690924.4790778,1948,1729690924,477800359,,0.7139999866485596,0.0,-0.9100000262260437,nan,nan,nan,0.8799999952316284,2,0,0,True,0.7139999866485596,id0,
1729690924.580919,1949,1729690924,579819193,,0.7160000205039978,0.0,-0.9100000262260437,nan,nan,nan,0.8799999952316284,2,0,0,True,0.7160000205039978,id0,
1729690924.679086,1950,1729690924,678596804,,0.718999981880188,0.0,-0.9100000262260437,nan,nan,nan,0.8799999952316284,2,0,0,True,0.718999981880188,id0,
1729690924.7840805,1951,1729690924,783551859,,0.722000002861023,0.0,-0.9100000262260437,nan,nan,nan,0.8799999952316284,2,0,0,True,0.722000002861023,id0,
1729690924.8839753,1952,1729690924,883560396,,0.7200000286102295,0.0,-0.9100000262260437,nan,nan,nan,0.8799999952316284,2,0,0,True,0.7200000286102295,id0,
1729690924.990089,1953,1729690924,989562526,,0.718999981880188,0.0,-0.9100000262260437,nan,nan,nan,0.8799999952316284,2,0,0,True,0.718999981880188,id0,
1729690925.0841093,1954,1729690925,83587915,,0.7170000076293945,0.0,-0.9100000262260437,nan,nan,nan,0.8799999952316284,2,0,0,True,0.7170000076293945,id0,
1729690925.2042615,1955,1729690925,186579248,,0.7120000123977661,0.0,-0.9100000262260437,nan,nan,nan,0.8799999952316284,2,0,0,True,0.7120000123977661,id0,
1729690925.2870293,1956,1729690925,286608581,,0.7160000205039978,0.0,-0.9100000262260437,nan,nan,nan,0.8799999952316284,2,0,0,True,0.7160000205039978,id0,
1729690925.38905,1957,1729690925,388628711,,0.7179999947547913,0.0,-0.9100000262260437,nan,nan,nan,0.8799999952316284,2,0,0,True,0.7179999947547913,id0,
1729690925.4871044,1958,1729690925,486637951,,0.7129999995231628,0.0,-0.8999999761581421,nan,nan,nan,0.8799999952316284,2,0,0,True,0.7129999995231628,id0,
1729690925.592186,1959,1729690925,582912359,,0.7099999785423279,0.0,-0.9100000262260437,nan,nan,nan,0.8799999952316284,2,0,0,True,0.7099999785423279,id0,
1729690925.6820638,1960,1729690925,681660581,,0.7149999737739563,0.0,-0.9100000262260437,nan,nan,nan,0.8799999952316284,2,0,0,True,0.7149999737739563,id0,
1729690925.7903242,1961,1729690925,789738414,,0.7110000252723694,0.0,-0.9100000262260437,nan,nan,nan,0.8799999952316284,2,0,0,True,0.7110000252723694,id0,
1729690925.8801515,1962,1729690925,879685118,,0.7179999947547913,0.0,-0.9100000262260437,nan,nan,nan,0.8799999952316284,2,0,0,True,0.7179999947547913,id0,
1729690925.977318,1963,1729690925,976756155,,0.7170000076293945,0.0,-0.9100000262260437,nan,nan,nan,0.8799999952316284,2,0,0,True,0.7170000076293945,id0,
1729690926.082074,1964,1729690926,81719599,,0.7160000205039978,0.0,-0.9100000262260437,nan,nan,nan,0.8799999952316284,2,0,0,True,0.7160000205039978,id0,
1729690926.1800625,1965,1729690926,179735877,,0.7099999785423279,0.0,-0.9100000262260437,nan,nan,nan,0.8799999952316284,2,0,0,True,0.7099999785423279,id0,
1729690926.2801883,1966,1729690926,279750432,,0.7170000076293945,0.0,-0.9100000262260437,nan,nan,nan,0.8799999952316284,2,0,0,True,0.7170000076293945,id0,
1729690926.3835332,1967,1729690926,382028488,,0.7210000157356262,0.0,-0.9100000262260437,nan,nan,nan,0.8799999952316284,2,0,0,True,0.7210000157356262,id0,
1729690926.4791172,1968,1729690926,478777136,,0.7200000286102295,0.0,-0.9100000262260437,nan,nan,nan,0.8799999952316284,2,0,0,True,0.7200000286102295,id0,
1729690926.5818791,1969,1729690926,581046710,,0.7080000042915344,0.0,-0.8999999761581421,nan,nan,nan,0.8799999952316284,2,0,0,True,0.7080000042915344,id0,
1729690926.6812758,1970,1729690926,680813914,,0.7080000042915344,0.0,-0.9100000262260437,nan,nan,nan,0.8799999952316284,2,0,0,True,0.7129999995231628,id0,
1729690926.7842648,1971,1729690926,783823673,,0.7129999995231628,0.0,-0.9100000262260437,nan,nan,nan,0.8799999952316284,2,0,0,True,0.718999981880188,id0,
1729690926.881152,1972,1729690926,880836821,,0.718999981880188,0.0,-0.9100000262260437,nan,nan,nan,0.8799999952316284,2,0,0,True,0.7160000205039978,id0,
1729690926.984302,1973,1729690926,983855395,,0.7160000205039978,0.0,-0.9100000262260437,nan,nan,nan,0.8799999952316284,2,0,0,True,0.7099999785423279,id0,
1729690927.0819588,1974,1729690927,81133043,,0.7099999785423279,0.0,-0.9100000262260437,nan,nan,nan,0.8799999952316284,2,0,0,True,0.7160000205039978,id0,
1729690927.1785214,1975,1729690927,177932987,,0.7160000205039978,0.0,-0.9100000262260437,nan,nan,nan,0.8799999952316284,2,0,0,True,0.7160000205039978,id0,
1729690927.2803404,1976,1729690927,279890821,,0.7229999899864197,0.0,-0.9200000166893005,nan,nan,nan,0.8799999952316284,2,0,0,True,0.7229999899864197,id0,
1729690927.3864865,1977,1729690927,385962413,,0.7160000205039978,0.0,-0.9100000262260437,nan,nan,nan,0.8799999952316284,2,0,0,True,0.7179999947547913,id0,
1729690927.4803689,1978,1729690927,479916950,,0.7179999947547913,0.0,-0.9100000262260437,nan,nan,nan,0.8799999952316284,2,0,0,True,0.7179999947547913,id0,
1729690927.5803819,1979,1729690927,579933265,,0.7229999899864197,0.0,-0.9100000262260437,nan,nan,nan,0.8799999952316284,2,0,0,True,0.7229999899864197,id0,
1729690927.6792102,1980,1729690927,678251820,,0.7160000205039978,0.0,-0.9100000262260437,nan,nan,nan,0.8799999952316284,2,0,0,True,0.7160000205039978,id0,
1729690927.779154,1981,1729690927,778233524,,0.718999981880188,0.0,-0.9100000262260437,nan,nan,nan,0.8799999952316284,2,0,0,True,0.718999981880188,id0,
1729690927.8782225,1982,1729690927,877285487,,0.7110000252723694,0.0,-0.9100000262260437,nan,nan,nan,0.8799999952316284,2,0,0,True,0.7110000252723694,id0,
1729690927.980548,1983,1729690927,980042580,,0.7149999737739563,0.0,-0.8999999761581421,nan,nan,nan,0.8799999952316284,2,0,0,True,0.7149999737739563,id0,
