Time,header.seq,header.stamp.secs,header.stamp.nsecs,header.frame_id,twist.linear.x,twist.linear.y,twist.linear.z,twist.angular.x,twist.angular.y,twist.angular.z
1729690889.2921906,1592,1729690888,926279936,map,0.22550195667913334,0.0452644179669007,0.0,0.0,0.0,0.0
1729690889.2923052,1593,1729690888,926276352,map,0.22550195667913334,0.0452644179669007,0.0,0.0,0.0,0.0
1729690889.2925858,1594,1729690889,126268416,map,0.26999800963222453,-0.0010367230281954848,0.0,0.0,0.0,0.0
1729690889.292814,1595,1729690889,126264832,map,0.26999800963222453,-0.0010367230281954848,0.0,0.0,0.0,0.0
1729690889.3740637,1596,1729690889,326264832,map,0.17999867308814968,-0.0006911486854636565,0.0,0.0,0.0,0.0
1729690889.4741557,1597,1729690889,326257920,map,0.17999867308814968,-0.0006911486854636565,0.0,0.0,0.0,0.0
1729690889.5741847,1598,1729690889,526254080,map,0.2524778886084889,-0.1426706548796894,0.0,0.0,0.0,0.0
1729690889.6745086,1599,1729690889,526248704,map,0.2524778886084889,-0.1426706548796894,0.0,0.0,0.0,0.0
1729690889.773676,1600,1729690889,726244352,map,0.1741226817989579,-0.09839355508944098,0.0,0.0,0.0,0.0
1729690889.8730855,1601,1729690889,726238976,map,0.1741226817989579,-0.09839355508944098,0.0,0.0,0.0,0.0
1729690889.974962,1602,1729690889,926233856,map,0.16541654770901,-0.09347387733496892,0.0,0.0,0.0,0.0
1729690890.0734298,1603,1729690889,926228992,map,0.16541654770901,-0.09347387733496892,0.0,0.0,0.0,0.0
1729690890.1731193,1604,1729690890,126223872,map,0.12188587725927054,-0.0688754885626087,0.0,0.0,0.0,0.0
1729690890.2729526,1605,1729690890,126218752,map,0.12188587725927054,-0.0688754885626087,0.0,0.0,0.0,0.0
1729690890.3758066,1606,1729690890,326206976,map,0.3373264307330213,0.04255442549160048,0.0,0.0,0.0,0.0
1729690890.4753134,1607,1729690890,326206976,map,0.3373264307330213,0.04255442549160048,0.0,0.0,0.0,0.0
1729690890.5755894,1608,1729690890,526195200,map,0.2480341402448686,0.03129001874382388,0.0,0.0,0.0,0.0
1729690890.6738868,1609,1729690890,526195200,map,0.2480341402448686,0.03129001874382388,0.0,0.0,0.0,0.0
1729690890.7745223,1610,1729690890,726191616,map,0.16866321536651066,0.02127721274580024,0.0,0.0,0.0,0.0
1729690890.8750236,1611,1729690890,726188032,map,0.16866321536651066,0.02127721274580024,0.0,0.0,0.0,0.0
1729690890.9739175,1612,1729690890,926183424,map,0.2997472937078476,0.19937793236670237,0.0,0.0,0.0,0.0
1729690891.0766497,1613,1729690890,926175488,map,0.2997472937078476,0.19937793236670237,0.0,0.0,0.0,0.0
1729690891.1720252,1614,1729690891,126175488,map,0.10743313612355208,0.37491081774557844,0.0,0.0,0.0,0.0
1729690891.2729056,1615,1729690891,126168064,map,0.10743313612355208,0.37491081774557844,0.0,0.0,0.0,0.0
1729690891.3744125,1616,1729690891,326160384,map,0.040570401779417384,0.3073337640082141,0.0,0.0,0.0,0.0
1729690891.4745083,1617,1729690891,326156032,map,0.040570401779417384,0.3073337640082141,0.0,0.0,0.0,0.0
1729690891.5757885,1618,1729690891,526149888,map,-0.0960319949222343,0.44986426391885803,0.0,0.0,0.0,0.0
1729690891.6754928,1619,1729690891,526149888,map,-0.0960319949222343,0.44986426391885803,0.0,0.0,0.0,0.0
1729690891.7793076,1620,1729690891,726138112,map,-0.15405302375646587,0.379957452712129,0.0,0.0,0.0,0.0
1729690891.8757348,1621,1729690891,726135296,map,-0.15405302375646587,0.379957452712129,0.0,0.0,0.0,0.0
1729690891.974179,1622,1729690891,926135296,map,-0.16820232723963535,0.26039964883073596,0.0,0.0,0.0,0.0
1729690892.0740662,1623,1729690891,926130944,map,-0.16820232723963535,0.26039964883073596,0.0,0.0,0.0,0.0
1729690892.1726887,1624,1729690892,126128640,map,-0.2442455189558797,0.23652510748327127,0.0,0.0,0.0,0.0
1729690892.2737057,1625,1729690892,126122240,map,-0.2442455189558797,0.23652510748327127,0.0,0.0,0.0,0.0
1729690892.375037,1626,1729690892,326119168,map,-0.35149352774521025,0.19092485420506977,0.0,0.0,0.0,0.0
1729690892.4782045,1627,1729690892,326110208,map,-0.35149352774521025,0.19092485420506977,0.0,0.0,0.0,0.0
1729690892.573395,1628,1729690892,526110208,map,-0.37576125422009166,0.10441972910778724,0.0,0.0,0.0,0.0
1729690892.6733394,1629,1729690892,526104064,map,-0.37576125422009166,0.10441972910778724,0.0,0.0,0.0,0.0
1729690892.773921,1630,1729690892,726099456,map,-0.3983915051039963,-0.03583585719600609,0.0,0.0,0.0,0.0
1729690892.877904,1631,1729690892,726096384,map,-0.3983915051039963,-0.03583585719600609,0.0,0.0,0.0,0.0
1729690892.9756105,1632,1729690892,926096384,map,-0.42403113565628353,-0.15065721354798264,0.0,0.0,0.0,0.0
1729690893.076284,1633,1729690892,926089216,map,-0.42403113565628353,-0.15065721354798264,0.0,0.0,0.0,0.0
1729690893.176993,1634,1729690893,126080000,map,-0.39120039870511175,-0.26050383500624624,0.0,0.0,0.0,0.0
1729690893.2767277,1635,1729690893,126080000,map,-0.39120039870511175,-0.26050383500624624,0.0,0.0,0.0,0.0
1729690893.3764439,1636,1729690893,326072576,map,-0.29479987582304706,-0.29915386210897565,0.0,0.0,0.0,0.0
1729690893.4748523,1637,1729690893,326068992,map,-0.29479987582304706,-0.29915386210897565,0.0,0.0,0.0,0.0
1729690893.5768065,1638,1729690893,526060800,map,-0.26609469144325515,-0.43507886088124165,0.0,0.0,0.0,0.0
1729690893.675375,1639,1729690893,526052608,map,-0.26609469144325515,-0.43507886088124165,0.0,0.0,0.0,0.0
1729690893.7770445,1640,1729690893,726043904,map,-0.175456468824362,-0.43602182003620604,0.0,0.0,0.0,0.0
1729690893.8758643,1641,1729690893,726035968,map,-0.175456468824362,-0.43602182003620604,0.0,0.0,0.0,0.0
1729690893.9775314,1642,1729690893,926027776,map,-0.09253249862546378,-0.4301601291358005,0.0,0.0,0.0,0.0
1729690894.0793064,1643,1729690893,926017536,map,-0.09253249862546378,-0.4301601291358005,0.0,0.0,0.0,0.0
1729690894.174809,1644,1729690894,126017536,map,-0.03889419756895975,-0.39810456088252333,0.0,0.0,0.0,0.0
1729690894.2734935,1645,1729690894,126014208,map,-0.03889419756895975,-0.39810456088252333,0.0,0.0,0.0,0.0
1729690894.3772814,1646,1729690894,326004736,map,0.03887016260571732,-0.3880581276806416,0.0,0.0,0.0,0.0
1729690894.476167,1647,1729690894,326001920,map,0.03887016260571732,-0.3880581276806416,0.0,0.0,0.0,0.0
1729690894.5732515,1648,1729690894,526001920,map,0.04261441998171047,-0.2868518976922105,0.0,0.0,0.0,0.0
1729690894.6717381,1649,1729690894,526000128,map,0.04261441998171047,-0.2868518976922105,0.0,0.0,0.0,0.0
1729690894.7738616,1650,1729690894,725997056,map,0.08777292290436664,-0.2447364174062048,0.0,0.0,0.0,0.0
1729690894.8785634,1651,1729690894,725993216,map,0.08777292290436664,-0.2447364174062048,0.0,0.0,0.0,0.0
1729690894.9737828,1652,1729690894,925993216,map,0.13486988952422457,-0.17381056613371773,0.0,0.0,0.0,0.0
1729690895.0749168,1653,1729690894,925989632,map,0.13486988952422457,-0.17381056613371773,0.0,0.0,0.0,0.0
1729690895.1774228,1654,1729690895,125979904,map,0.08582629333359747,-0.11060672390327492,0.0,0.0,0.0,0.0
1729690895.2764542,1655,1729690895,125977856,map,0.08582629333359747,-0.11060672390327492,0.0,0.0,0.0,0.0
1729690895.375837,1656,1729690895,325977856,map,0.13486988952422457,-0.17381056613371773,0.0,0.0,0.0,0.0
1729690895.4743958,1657,1729690895,325972224,map,0.13486988952422457,-0.17381056613371773,0.0,0.0,0.0,0.0
1729690895.5732706,1658,1729690895,525967360,map,0.30975026248547827,0.012440855685093519,0.0,0.0,0.0,0.0
1729690895.6741982,1659,1729690895,525959680,map,0.30975026248547827,0.012440855685093519,0.0,0.0,0.0,0.0
1729690895.7763858,1660,1729690895,725952256,map,0.25979054272975594,0.010434266058465532,0.0,0.0,0.0,0.0
1729690895.874613,1661,1729690895,725952256,map,0.25979054272975594,0.010434266058465532,0.0,0.0,0.0,0.0
1729690895.973645,1662,1729690895,925947648,map,0.2629013469370459,0.24593267732996973,0.0,0.0,0.0,0.0
1729690896.074126,1663,1729690895,925945088,map,0.2629013469370459,0.24593267732996973,0.0,0.0,0.0,0.0
1729690896.1741161,1664,1729690896,125943296,map,0.2574349453265959,0.5197376731820511,0.0,0.0,0.0,0.0
1729690896.2762482,1665,1729690896,125936896,map,0.2574349453265959,0.5197376731820511,0.0,0.0,0.0,0.0
1729690896.3765073,1666,1729690896,325935360,map,0.12930273885377463,0.3785245061088021,0.0,0.0,0.0,0.0
1729690896.4730113,1667,1729690896,325935360,map,0.12930273885377463,0.3785245061088021,0.0,0.0,0.0,0.0
1729690896.5766933,1668,1729690896,525927168,map,-0.0026807943727267924,0.3199887706491138,0.0,0.0,0.0,0.0
1729690896.6752126,1669,1729690896,525927168,map,-0.0026807943727267924,0.3199887706491138,0.0,0.0,0.0,0.0
1729690896.7766542,1670,1729690896,725918208,map,-0.05386154857273507,0.315434515526356,0.0,0.0,0.0,0.0
1729690896.8755107,1671,1729690896,725918208,map,-0.05386154857273507,0.315434515526356,0.0,0.0,0.0,0.0
1729690896.9804966,1672,1729690896,925910528,map,-0.018514907321877678,0.10843061471218486,0.0,0.0,0.0,0.0
1729690897.0800855,1673,1729690896,925906944,map,-0.018514907321877678,0.10843061471218486,0.0,0.0,0.0,0.0
1729690897.180537,1674,1729690897,125896960,map,-0.03366346785795942,0.19714657220397247,0.0,0.0,0.0,0.0
1729690897.2809064,1675,1729690897,125888256,map,-0.03366346785795942,0.19714657220397247,0.0,0.0,0.0,0.0
1729690897.383382,1676,1729690897,325879552,map,-0.026930774286367535,0.157717257763178,0.0,0.0,0.0,0.0
1729690897.4893527,1677,1729690897,325869568,map,-0.026930774286367535,0.157717257763178,0.0,0.0,0.0,0.0
1729690897.5858583,1678,1729690897,525869568,map,-0.023564427500571593,0.13800260054278074,0.0,0.0,0.0,0.0
1729690897.6753595,1679,1729690897,525869568,map,-0.023564427500571593,0.13800260054278074,0.0,0.0,0.0,0.0
1729690897.7758567,1680,1729690897,725866496,map,-0.023564427500571593,0.13800260054278074,0.0,0.0,0.0,0.0
1729690897.8731441,1681,1729690897,725866496,map,-0.023564427500571593,0.13800260054278074,0.0,0.0,0.0,0.0
1729690897.9758027,1682,1729690897,925860864,map,-0.0403961614295513,0.23657588664476695,0.0,0.0,0.0,0.0
1729690898.0728588,1683,1729690897,925854208,map,-0.0403961614295513,0.23657588664476695,0.0,0.0,0.0,0.0
1729690898.1755705,1684,1729690898,125847808,map,-0.001683173392897971,0.009857328610198625,0.0,0.0,0.0,0.0
1729690898.2729294,1685,1729690898,125843712,map,-0.001683173392897971,0.009857328610198625,0.0,0.0,0.0,0.0
1729690898.3756294,1686,1729690898,325836800,map,-0.021881254107673623,0.1281452719325821,0.0,0.0,0.0,0.0
1729690898.4754848,1687,1729690898,325829888,map,-0.021881254107673623,0.1281452719325821,0.0,0.0,0.0,0.0
1729690898.575345,1688,1729690898,525822976,map,-0.010099040357387824,0.05914397166119174,0.0,0.0,0.0,0.0
1729690898.6747296,1689,1729690898,525817856,map,-0.010099040357387824,0.05914397166119174,0.0,0.0,0.0,0.0
1729690898.7794216,1690,1729690898,725809920,map,-0.028613947679265506,0.1675745863733766,0.0,0.0,0.0,0.0
1729690898.877906,1691,1729690898,725809920,map,-0.028613947679265506,0.1675745863733766,0.0,0.0,0.0,0.0
1729690898.9746652,1692,1729690898,925800704,map,-0.03366346785795942,0.19714657220397247,0.0,0.0,0.0,0.0
1729690899.0744853,1693,1729690898,925800192,map,-0.03366346785795942,0.19714657220397247,0.0,0.0,0.0,0.0
1729690899.1751142,1694,1729690899,125794048,map,-0.02524760089346956,0.14785992915297935,0.0,0.0,0.0,0.0
1729690899.2720726,1695,1729690899,125787648,map,-0.02524760089346956,0.14785992915297935,0.0,0.0,0.0,0.0
1729690899.3723898,1696,1729690899,325782272,map,-0.01683173392897971,0.09857328610198623,0.0,0.0,0.0,0.0
1729690899.477195,1697,1729690899,325771776,map,-0.01683173392897971,0.09857328610198623,0.0,0.0,0.0,0.0
1729690899.5740447,1698,1729690899,525771776,map,-0.026930774286367535,0.157717257763178,0.0,0.0,0.0,0.0
1729690899.671018,1699,1729690899,525767936,map,-0.026930774286367535,0.157717257763178,0.0,0.0,0.0,0.0
1729690899.7711856,1700,1729690899,725764864,map,-0.02524760089346956,0.14785992915297935,0.0,0.0,0.0,0.0
1729690899.8758566,1701,1729690899,725759744,map,-0.02524760089346956,0.14785992915297935,0.0,0.0,0.0,0.0
1729690899.971039,1702,1729690899,925759744,map,-0.01683173392897971,0.09857328610198623,0.0,0.0,0.0,0.0
1729690900.0759287,1703,1729690899,925753600,map,-0.01683173392897971,0.09857328610198623,0.0,0.0,0.0,0.0
1729690900.1745243,1704,1729690900,125753600,map,-0.006732693571591884,0.0394293144407945,0.0,0.0,0.0,0.0
1729690900.2718477,1705,1729690900,125749248,map,-0.006732693571591884,0.0394293144407945,0.0,0.0,0.0,0.0
1729690900.3791387,1706,1729690900,325744640,map,-0.006732693571591884,0.0394293144407945,0.0,0.0,0.0,0.0
1729690900.4794567,1707,1729690900,325741312,map,-0.006732693571591884,0.0394293144407945,0.0,0.0,0.0,0.0
1729690900.579197,1708,1729690900,525733632,map,-0.013465387143183767,0.078858628881589,0.0,0.0,0.0,0.0
1729690900.67201,1709,1729690900,525733632,map,-0.013465387143183767,0.078858628881589,0.0,0.0,0.0,0.0
1729690900.7727387,1710,1729690900,725727744,map,-0.010099040357387824,0.05914397166119174,0.0,0.0,0.0,0.0
1729690900.8741286,1711,1729690900,725723392,map,-0.010099040357387824,0.05914397166119174,0.0,0.0,0.0,0.0
1729690900.980181,1712,1729690900,925715200,map,-0.006732693571591884,0.0394293144407945,0.0,0.0,0.0,0.0
1729690901.0801425,1713,1729690900,925710848,map,-0.006732693571591884,0.0394293144407945,0.0,0.0,0.0,0.0
1729690901.1849644,1714,1729690901,125710848,map,-0.006732693571591884,0.0394293144407945,0.0,0.0,0.0,0.0
1729690901.2802546,1715,1729690901,125704704,map,-0.006732693571591884,0.0394293144407945,0.0,0.0,0.0,0.0
1729690901.3799076,1716,1729690901,325693184,map,-0.010099040357387824,0.05914397166119174,0.0,0.0,0.0,0.0
1729690901.4805036,1717,1729690901,325693184,map,-0.010099040357387824,0.05914397166119174,0.0,0.0,0.0,0.0
1729690901.5801272,1718,1729690901,525682432,map,-0.006732693571591884,0.0394293144407945,0.0,0.0,0.0,0.0
1729690901.6823246,1719,1729690901,525670400,map,-0.006732693571591884,0.0394293144407945,0.0,0.0,0.0,0.0
1729690901.7792306,1720,1729690901,725670400,map,-0.001683173392897971,0.009857328610198625,0.0,0.0,0.0,0.0
1729690901.8761196,1721,1729690901,725666560,map,-0.001683173392897971,0.009857328610198625,0.0,0.0,0.0,0.0
1729690901.9736965,1722,1729690901,925666560,map,-0.008415866964489855,0.04928664305099312,0.0,0.0,0.0,0.0
1729690902.073237,1723,1729690901,925662720,map,-0.008415866964489855,0.04928664305099312,0.0,0.0,0.0,0.0
1729690902.1733623,1724,1729690902,127658624,map,-0.011782213750285797,0.06900130027139037,0.0,0.0,0.0,0.0
1729690902.2732973,1725,1729690902,127652736,map,-0.011782213750285797,0.06900130027139037,0.0,0.0,0.0,0.0
1729690902.3763247,1726,1729690902,327644544,map,-0.008415866964489855,0.04928664305099312,0.0,0.0,0.0,0.0
1729690902.4757526,1727,1729690902,327644544,map,-0.008415866964489855,0.04928664305099312,0.0,0.0,0.0,0.0
1729690902.5729854,1728,1729690902,527638400,map,-0.015148560536081736,0.08871595749178761,0.0,0.0,0.0,0.0
1729690902.6733077,1729,1729690902,527627392,map,-0.015148560536081736,0.08871595749178761,0.0,0.0,0.0,0.0
1729690902.7753334,1730,1729690902,727625344,map,-0.015148560536081736,0.08871595749178761,0.0,0.0,0.0,0.0
1729690902.8722773,1731,1729690902,727618432,map,-0.015148560536081736,0.08871595749178761,0.0,0.0,0.0,0.0
1729690902.9783266,1732,1729690902,927605376,map,-0.010099040357387824,0.05914397166119174,0.0,0.0,0.0,0.0
1729690903.0729282,1733,1729690902,927605376,map,-0.010099040357387824,0.05914397166119174,0.0,0.0,0.0,0.0
1729690903.1754782,1734,1729690903,127596160,map,-0.021881254107673623,0.1281452719325821,0.0,0.0,0.0,0.0
1729690903.2751362,1735,1729690903,127596160,map,-0.021881254107673623,0.1281452719325821,0.0,0.0,0.0,0.0
1729690903.372593,1736,1729690903,327589504,map,-0.006732693571591884,0.0394293144407945,0.0,0.0,0.0,0.0
1729690903.4742694,1737,1729690903,327582592,map,-0.006732693571591884,0.0394293144407945,0.0,0.0,0.0,0.0
1729690903.572695,1738,1729690903,527577728,map,-0.003366346785795942,0.01971465722039725,0.0,0.0,0.0,0.0
1729690903.6717653,1739,1729690903,527571840,map,-0.003366346785795942,0.01971465722039725,0.0,0.0,0.0,0.0
1729690903.771771,1740,1729690903,727568000,map,-0.005049520178693912,0.02957198583059587,0.0,0.0,0.0,0.0
1729690903.872257,1741,1729690903,727565696,map,-0.005049520178693912,0.02957198583059587,0.0,0.0,0.0,0.0
1729690903.974478,1742,1729690903,927560832,map,-0.006732693571591884,0.0394293144407945,0.0,0.0,0.0,0.0
1729690904.0728767,1743,1729690903,927554944,map,-0.006732693571591884,0.0394293144407945,0.0,0.0,0.0,0.0
1729690904.1768842,1744,1729690904,127545728,map,-0.011782213750285797,0.06900130027139037,0.0,0.0,0.0,0.0
1729690904.2736444,1745,1729690904,127545728,map,-0.011782213750285797,0.06900130027139037,0.0,0.0,0.0,0.0
1729690904.3741693,1746,1729690904,327541632,map,-0.013465387143183767,0.078858628881589,0.0,0.0,0.0,0.0
1729690904.4719024,1747,1729690904,327539072,map,-0.013465387143183767,0.078858628881589,0.0,0.0,0.0,0.0
1729690904.5727568,1748,1729690904,527532928,map,-0.021881254107673623,0.1281452719325821,0.0,0.0,0.0,0.0
1729690904.6742325,1749,1729690904,527527040,map,-0.021881254107673623,0.1281452719325821,0.0,0.0,0.0,0.0
1729690904.7962208,1750,1729690904,727517568,map,-0.01683173392897971,0.09857328610198623,0.0,0.0,0.0,0.0
1729690904.88241,1751,1729690904,727510912,map,-0.01683173392897971,0.09857328610198623,0.0,0.0,0.0,0.0
1729690904.9872067,1752,1729690904,927510912,map,-0.011782213750285797,0.06900130027139037,0.0,0.0,0.0,0.0
1729690905.0792108,1753,1729690904,927510912,map,-0.011782213750285797,0.06900130027139037,0.0,0.0,0.0,0.0
1729690905.1806853,1754,1729690905,127483520,map,-0.008415866964489855,0.04928664305099312,0.0,0.0,0.0,0.0
1729690905.2709208,1755,1729690905,127483520,map,-0.008415866964489855,0.04928664305099312,0.0,0.0,0.0,0.0
1729690905.3723354,1756,1729690905,327470208,map,-0.013465387143183767,0.078858628881589,0.0,0.0,0.0,0.0
1729690905.471032,1757,1729690905,327470208,map,-0.013465387143183767,0.078858628881589,0.0,0.0,0.0,0.0
1729690905.5708952,1758,1729690905,527470464,map,-0.006732693571591884,0.0394293144407945,0.0,0.0,0.0,0.0
1729690905.675956,1759,1729690905,527462528,map,-0.006732693571591884,0.0394293144407945,0.0,0.0,0.0,0.0
1729690905.7779722,1760,1729690905,727459712,map,-0.015148560536081736,0.08871595749178761,0.0,0.0,0.0,0.0
1729690905.8729413,1761,1729690905,727459712,map,-0.015148560536081736,0.08871595749178761,0.0,0.0,0.0,0.0
1729690905.975873,1762,1729690905,927454080,map,-0.008415866964489855,0.04928664305099312,0.0,0.0,0.0,0.0
1729690906.0760813,1763,1729690905,927446400,map,-0.008415866964489855,0.04928664305099312,0.0,0.0,0.0,0.0
1729690906.1777532,1764,1729690906,127435648,map,-0.001683173392897971,0.009857328610198625,0.0,0.0,0.0,0.0
1729690906.2750204,1765,1729690906,127435648,map,-0.001683173392897971,0.009857328610198625,0.0,0.0,0.0,0.0
1729690906.3735063,1766,1729690906,327428480,map,-0.01683173392897971,0.09857328610198623,0.0,0.0,0.0,0.0
1729690906.4751754,1767,1729690906,327422848,map,-0.01683173392897971,0.09857328610198623,0.0,0.0,0.0,0.0
1729690906.5779681,1768,1729690906,527417216,map,-0.011782213750285797,0.06900130027139037,0.0,0.0,0.0,0.0
1729690906.6750836,1769,1729690906,527406720,map,-0.011782213750285797,0.06900130027139037,0.0,0.0,0.0,0.0
1729690906.775052,1770,1729690906,727404160,map,-0.010099040357387824,0.05914397166119174,0.0,0.0,0.0,0.0
1729690906.8749545,1771,1729690906,727399040,map,-0.010099040357387824,0.05914397166119174,0.0,0.0,0.0,0.0
1729690906.9720683,1772,1729690906,927393408,map,-0.013465387143183767,0.078858628881589,0.0,0.0,0.0,0.0
1729690907.0753152,1773,1729690906,927386496,map,-0.013465387143183767,0.078858628881589,0.0,0.0,0.0,0.0
1729690907.1725395,1774,1729690907,127378304,map,-0.005049520178693912,0.02957198583059587,0.0,0.0,0.0,0.0
1729690907.2739987,1775,1729690907,127373440,map,-0.005049520178693912,0.02957198583059587,0.0,0.0,0.0,0.0
1729690907.372737,1776,1729690907,327368064,map,-0.005049520178693912,0.02957198583059587,0.0,0.0,0.0,0.0
1729690907.4743624,1777,1729690907,327362688,map,-0.005049520178693912,0.02957198583059587,0.0,0.0,0.0,0.0
1729690907.5785792,1778,1729690907,527352192,map,-0.011782213750285797,0.06900130027139037,0.0,0.0,0.0,0.0
1729690907.6757946,1779,1729690907,527348864,map,-0.011782213750285797,0.06900130027139037,0.0,0.0,0.0,0.0
1729690907.7732067,1780,1729690907,727348864,map,-0.001683173392897971,0.009857328610198625,0.0,0.0,0.0,0.0
1729690907.8737645,1781,1729690907,727345024,map,-0.001683173392897971,0.009857328610198625,0.0,0.0,0.0,0.0
1729690907.981699,1782,1729690907,927330176,map,-0.005049520178693912,0.02957198583059587,0.0,0.0,0.0,0.0
1729690908.0758505,1783,1729690907,927330176,map,-0.005049520178693912,0.02957198583059587,0.0,0.0,0.0,0.0
1729690908.1748962,1784,1729690908,127323520,map,-0.001683173392897971,0.009857328610198625,0.0,0.0,0.0,0.0
1729690908.2750685,1785,1729690908,127316096,map,-0.001683173392897971,0.009857328610198625,0.0,0.0,0.0,0.0
1729690908.3749154,1786,1729690908,327310720,map,-0.005049520178693912,0.02957198583059587,0.0,0.0,0.0,0.0
1729690908.4728227,1787,1729690908,327304064,map,-0.005049520178693912,0.02957198583059587,0.0,0.0,0.0,0.0
1729690908.5780098,1788,1729690908,527293568,map,-0.006732693571591884,0.0394293144407945,0.0,0.0,0.0,0.0
1729690908.674925,1789,1729690908,527293568,map,-0.006732693571591884,0.0394293144407945,0.0,0.0,0.0,0.0
1729690908.7752142,1790,1729690908,727288960,map,-0.003366346785795942,0.01971465722039725,0.0,0.0,0.0,0.0
1729690908.874944,1791,1729690908,727282560,map,-0.003366346785795942,0.01971465722039725,0.0,0.0,0.0,0.0
1729690908.9776013,1792,1729690908,927274112,map,-0.001683173392897971,0.009857328610198625,0.0,0.0,0.0,0.0
1729690909.0827084,1793,1729690908,927265408,map,-0.001683173392897971,0.009857328610198625,0.0,0.0,0.0,0.0
1729690909.1875343,1794,1729690909,127261568,map,-0.010099040357387824,0.05914397166119174,0.0,0.0,0.0,0.0
1729690909.2807603,1795,1729690909,127255936,map,-0.010099040357387824,0.05914397166119174,0.0,0.0,0.0,0.0
1729690909.383576,1796,1729690909,327251072,map,-0.003366346785795942,0.01971465722039725,0.0,0.0,0.0,0.0
1729690909.4842985,1797,1729690909,327253120,map,-0.003366346785795942,0.01971465722039725,0.0,0.0,0.0,0.0
1729690909.5809445,1798,1729690909,527241344,map,-0.011782213750285797,0.06900130027139037,0.0,0.0,0.0,0.0
1729690909.6786523,1799,1729690909,527234944,map,-0.011782213750285797,0.06900130027139037,0.0,0.0,0.0,0.0
1729690909.772886,1800,1729690909,727234944,map,-0.013465387143183767,0.078858628881589,0.0,0.0,0.0,0.0
1729690909.8744228,1801,1729690909,727234944,map,-0.013465387143183767,0.078858628881589,0.0,0.0,0.0,0.0
1729690909.9749777,1802,1729690909,927229056,map,-0.010099040357387824,0.05914397166119174,0.0,0.0,0.0,0.0
1729690910.072179,1803,1729690909,927222912,map,-0.010099040357387824,0.05914397166119174,0.0,0.0,0.0,0.0
1729690910.1741228,1804,1729690910,127217536,map,-0.006732693571591884,0.0394293144407945,0.0,0.0,0.0,0.0
1729690910.2747853,1805,1729690910,127212160,map,-0.006732693571591884,0.0394293144407945,0.0,0.0,0.0,0.0
1729690910.3747077,1806,1729690910,327206528,map,-0.011782213750285797,0.06900130027139037,0.0,0.0,0.0,0.0
1729690910.4766514,1807,1729690910,327199872,map,-0.011782213750285797,0.06900130027139037,0.0,0.0,0.0,0.0
1729690910.5780618,1808,1729690910,527192704,map,-0.008415866964489855,0.04928664305099312,0.0,0.0,0.0,0.0
1729690910.674271,1809,1729690910,527187072,map,-0.008415866964489855,0.04928664305099312,0.0,0.0,0.0,0.0
1729690910.7716963,1810,1729690910,727181440,map,-0.0,0.0,0.0,0.0,0.0,0.0
1729690910.8730474,1811,1729690910,727174784,map,-0.0,0.0,0.0,0.0,0.0,0.0
1729690910.9764407,1812,1729690910,927170176,map,-0.0,0.0,0.0,0.0,0.0,0.0
1729690911.0717113,1813,1729690910,927170176,map,-0.0,0.0,0.0,0.0,0.0,0.0
1729690911.1737523,1814,1729690911,127168384,map,-0.003366346785795942,0.01971465722039725,0.0,0.0,0.0,0.0
1729690911.2720919,1815,1729690911,127165568,map,-0.003366346785795942,0.01971465722039725,0.0,0.0,0.0,0.0
1729690911.3732867,1816,1729690911,327157632,map,-0.018514907321877678,0.10843061471218486,0.0,0.0,0.0,0.0
1729690911.470739,1817,1729690911,327155328,map,-0.018514907321877678,0.10843061471218486,0.0,0.0,0.0,0.0
1729690911.5755222,1818,1729690911,527151488,map,-0.011782213750285797,0.06900130027139037,0.0,0.0,0.0,0.0
1729690911.6745656,1819,1729690911,527144576,map,-0.011782213750285797,0.06900130027139037,0.0,0.0,0.0,0.0
1729690911.7743173,1820,1729690911,727139456,map,-0.010099040357387824,0.05914397166119174,0.0,0.0,0.0,0.0
1729690911.8716347,1821,1729690911,727137408,map,-0.010099040357387824,0.05914397166119174,0.0,0.0,0.0,0.0
1729690911.9756174,1822,1729690911,927133568,map,-0.0,0.0,0.0,0.0,0.0,0.0
1729690912.074438,1823,1729690911,927127168,map,-0.0,0.0,0.0,0.0,0.0,0.0
1729690912.1743875,1824,1729690912,127123072,map,-0.005049520178693912,0.02957198583059587,0.0,0.0,0.0,0.0
1729690912.2746263,1825,1729690912,127117952,map,-0.005049520178693912,0.02957198583059587,0.0,0.0,0.0,0.0
1729690912.3727136,1826,1729690912,327113088,map,-0.008415866964489855,0.04928664305099312,0.0,0.0,0.0,0.0
1729690912.4744549,1827,1729690912,327109504,map,-0.008415866964489855,0.04928664305099312,0.0,0.0,0.0,0.0
1729690912.5768971,1828,1729690912,527098240,map,-0.006732693571591884,0.0394293144407945,0.0,0.0,0.0,0.0
1729690912.6719759,1829,1729690912,527098240,map,-0.006732693571591884,0.0394293144407945,0.0,0.0,0.0,0.0
1729690912.7746801,1830,1729690912,727092096,map,-0.010099040357387824,0.05914397166119174,0.0,0.0,0.0,0.0
1729690912.873491,1831,1729690912,727088768,map,-0.010099040357387824,0.05914397166119174,0.0,0.0,0.0,0.0
1729690912.9791656,1832,1729690912,927074944,map,-0.008415866964489855,0.04928664305099312,0.0,0.0,0.0,0.0
1729690913.0744665,1833,1729690912,927074944,map,-0.008415866964489855,0.04928664305099312,0.0,0.0,0.0,0.0
1729690913.1796784,1834,1729690913,127069056,map,0.3115466492136581,0.1594950951087269,0.0,0.0,0.0,0.0
1729690913.2739546,1835,1729690913,127069056,map,0.3115466492136581,0.1594950951087269,0.0,0.0,0.0,0.0
1729690913.380082,1836,1729690913,327058048,map,0.5497492886196409,-0.2643401590038842,0.0,0.0,0.0,0.0
1729690913.482504,1837,1729690913,327059072,map,0.5497492886196409,-0.2643401590038842,0.0,0.0,0.0,0.0
1729690913.5710444,1838,1729690913,527059072,map,0.9610022591904335,-0.7677074037879816,0.0,0.0,0.0,0.0
1729690913.6728737,1839,1729690913,527059072,map,0.9610022591904335,-0.7677074037879816,0.0,0.0,0.0,0.0
1729690913.783175,1840,1729690913,727059072,map,1.1510725680543867,-0.9142931384805857,0.0,0.0,0.0,0.0
1729690913.8776493,1841,1729690913,727056256,map,1.1510725680543867,-0.9142931384805857,0.0,0.0,0.0,0.0
1729690913.9732392,1842,1729690913,927056256,map,1.3330418602812473,-1.0710272633028124,0.0,0.0,0.0,0.0
1729690914.0719302,1843,1729690913,927052928,map,1.3330418602812473,-1.0710272633028124,0.0,0.0,0.0,0.0
1729690914.176323,1844,1729690914,127048576,map,1.0645155915174602,-0.8138836252292043,0.0,0.0,0.0,0.0
1729690914.2732515,1845,1729690914,127043968,map,1.0645155915174602,-0.8138836252292043,0.0,0.0,0.0,0.0
1729690914.3796828,1846,1729690914,327036544,map,0.599438922667604,-0.41662090440963506,0.0,0.0,0.0,0.0
1729690914.4714422,1847,1729690914,327036544,map,0.599438922667604,-0.41662090440963506,0.0,0.0,0.0,0.0
1729690914.5721288,1848,1729690914,527030656,map,0.14780685764406673,-0.10272844218319768,0.0,0.0,0.0,0.0
1729690914.674804,1849,1729690914,527028352,map,0.14780685764406673,-0.10272844218319768,0.0,0.0,0.0,0.0
1729690914.7772584,1850,1729690914,727024000,map,0.5706675300272068,0.5462953140679928,0.0,0.0,0.0,0.0
1729690914.8706906,1851,1729690914,727018624,map,0.5706675300272068,0.5462953140679928,0.0,0.0,0.0,0.0
1729690914.9814715,1852,1729690914,927004032,map,-0.3560706689753842,1.2918257152942199,0.0,0.0,0.0,0.0
1729690915.0705853,1853,1729690914,927004032,map,-0.3560706689753842,1.2918257152942199,0.0,0.0,0.0,0.0
1729690915.17073,1854,1729690915,127001472,map,-1.0790267545896637,1.5027312676855094,0.0,0.0,0.0,0.0
1729690915.2729635,1855,1729690915,126995840,map,-1.0790267545896637,1.5027312676855094,0.0,0.0,0.0,0.0
1729690915.3729556,1856,1729690915,326989184,map,-1.5456308128260614,1.7568794467585553,0.0,0.0,0.0,0.0
1729690915.4729443,1857,1729690915,326983552,map,-1.5456308128260614,1.7568794467585553,0.0,0.0,0.0,0.0
1729690915.5745835,1858,1729690915,526977152,map,-2.005672244243077,2.0668040179641944,0.0,0.0,0.0,0.0
1729690915.6727326,1859,1729690915,526971520,map,-2.005672244243077,2.0668040179641944,0.0,0.0,0.0,0.0
1729690915.779654,1860,1729690915,726957952,map,-2.3887846114308493,2.334375308340791,0.0,0.0,0.0,0.0
1729690915.8730986,1861,1729690915,726957952,map,-2.3887846114308493,2.334375308340791,0.0,0.0,0.0,0.0
1729690915.971697,1862,1729690915,926952832,map,-2.323201571696171,2.286992448012988,0.0,0.0,0.0,0.0
1729690916.0735602,1863,1729690915,926946432,map,-2.323201571696171,2.286992448012988,0.0,0.0,0.0,0.0
1729690916.1716175,1864,1729690916,126943104,map,-2.3824448276115717,2.3265546723399537,0.0,0.0,0.0,0.0
1729690916.2733896,1865,1729690916,126940288,map,-2.3824448276115717,2.3265546723399537,0.0,0.0,0.0,0.0
1729690916.373858,1866,1729690916,326934144,map,-2.25479307344712,2.141963630861852,0.0,0.0,0.0,0.0
1729690916.4754863,1867,1729690916,326930560,map,-2.25479307344712,2.141963630861852,0.0,0.0,0.0,0.0
1729690916.5755916,1868,1729690916,526924416,map,-2.4283561574332775,2.2197266436784253,0.0,0.0,0.0,0.0
1729690916.6743574,1869,1729690916,526917760,map,-2.4283561574332775,2.2197266436784253,0.0,0.0,0.0,0.0
1729690916.779436,1870,1729690916,726907008,map,-2.3056763682966,2.0571719628360188,0.0,0.0,0.0,0.0
1729690916.8719544,1871,1729690916,726907008,map,-2.3056763682966,2.0571719628360188,0.0,0.0,0.0,0.0
1729690916.9857597,1872,1729690916,926898816,map,-2.4430240163219112,2.0976257186815666,0.0,0.0,0.0,0.0
1729690917.0810242,1873,1729690916,926894464,map,-2.4430240163219112,2.0976257186815666,0.0,0.0,0.0,0.0
1729690917.1844661,1874,1729690917,126898816,map,-2.441364323502596,2.037680112267064,0.0,0.0,0.0,0.0
1729690917.2724855,1875,1729690917,126898816,map,-2.441364323502596,2.037680112267064,0.0,0.0,0.0,0.0
1729690917.381499,1876,1729690917,326875776,map,-2.3131210221495446,1.8946163561232774,0.0,0.0,0.0,0.0
1729690917.4812,1877,1729690917,326865792,map,-2.3131210221495446,1.8946163561232774,0.0,0.0,0.0,0.0
1729690917.57882,1878,1729690917,526858368,map,-2.3066659203805724,1.8067075944255195,0.0,0.0,0.0,0.0
1729690917.6739564,1879,1729690917,526858368,map,-2.3066659203805724,1.8067075944255195,0.0,0.0,0.0,0.0
1729690917.7797103,1880,1729690917,726852224,map,-2.164017550251704,1.6312964298994261,0.0,0.0,0.0,0.0
1729690917.873974,1881,1729690917,726852224,map,-2.164017550251704,1.6312964298994261,0.0,0.0,0.0,0.0
1729690917.971144,1882,1729690917,926848896,map,-2.2856693101428993,1.6345689966076324,0.0,0.0,0.0,0.0
1729690918.0821412,1883,1729690917,926845568,map,-2.2856693101428993,1.6345689966076324,0.0,0.0,0.0,0.0
1729690918.1787684,1884,1729690918,126840448,map,-2.1886067291571165,1.5640014658203447,0.0,0.0,0.0,0.0
1729690918.2711108,1885,1729690918,126840448,map,-2.1886067291571165,1.5640014658203447,0.0,0.0,0.0,0.0
1729690918.3783486,1886,1729690918,326835072,map,-1.8638401775504467,1.3646244144630857,0.0,0.0,0.0,0.0
1729690918.4713333,1887,1729690918,326835072,map,-1.8638401775504467,1.3646244144630857,0.0,0.0,0.0,0.0
1729690918.5708613,1888,1729690918,526832256,map,-1.5957820316782194,1.1551535427695032,0.0,0.0,0.0,0.0
1729690918.7043638,1889,1729690918,526828416,map,-1.5957820316782194,1.1551535427695032,0.0,0.0,0.0,0.0
1729690918.773838,1890,1729690918,726824064,map,-1.1151679339417415,0.8128963520081187,0.0,0.0,0.0,0.0
1729690918.875593,1891,1729690918,726819200,map,-1.1151679339417415,0.8128963520081187,0.0,0.0,0.0,0.0
1729690918.9731455,1892,1729690918,926813824,map,-0.5916890913749955,0.4444142427373725,0.0,0.0,0.0,0.0
1729690919.0750337,1893,1729690918,926805376,map,-0.5916890913749955,0.4444142427373725,0.0,0.0,0.0,0.0
1729690919.1728992,1894,1729690919,126805120,map,-0.19315569508883132,0.15871634274626675,0.0,0.0,0.0,0.0
1729690919.270199,1895,1729690919,126798208,map,-0.19315569508883132,0.15871634274626675,0.0,0.0,0.0,0.0
1729690919.3748305,1896,1729690919,326792320,map,0.3231238968809271,0.15871656266591708,0.0,0.0,0.0,0.0
1729690919.4748795,1897,1729690919,326787456,map,0.3231238968809271,0.15871656266591708,0.0,0.0,0.0,0.0
1729690919.5779016,1898,1729690919,526780032,map,0.8695725744243905,-0.35699234979049294,0.0,0.0,0.0,0.0
1729690919.6749682,1899,1729690919,526780032,map,0.8695725744243905,-0.35699234979049294,0.0,0.0,0.0,0.0
1729690919.7750204,1900,1729690919,726774912,map,1.3304420624769666,-0.7755797305190717,0.0,0.0,0.0,0.0
1729690919.8715374,1901,1729690919,726769792,map,1.3304420624769666,-0.7755797305190717,0.0,0.0,0.0,0.0
1729690919.974019,1902,1729690919,926764928,map,1.7918152085374521,-1.1516502326895466,0.0,0.0,0.0,0.0
1729690920.090248,1903,1729690919,926761344,map,1.7918152085374521,-1.1516502326895466,0.0,0.0,0.0,0.0
1729690920.1717453,1904,1729690920,126756736,map,2.117279205859754,-1.4742892404253274,0.0,0.0,0.0,0.0
1729690920.2735536,1905,1729690920,126753152,map,2.117279205859754,-1.4742892404253274,0.0,0.0,0.0,0.0
1729690920.3762877,1906,1729690920,326750592,map,2.4694332002791595,-1.823951663109258,0.0,0.0,0.0,0.0
1729690920.4732375,1907,1729690920,326742656,map,2.4694332002791595,-1.823951663109258,0.0,0.0,0.0,0.0
1729690920.574842,1908,1729690920,526740352,map,2.749847432879479,-2.083468045323984,0.0,0.0,0.0,0.0
1729690920.6746273,1909,1729690920,526736256,map,2.749847432879479,-2.083468045323984,0.0,0.0,0.0,0.0
1729690920.781061,1910,1729690920,726720384,map,3.0378884709651697,-2.348794081646346,0.0,0.0,0.0,0.0
1729690920.8781278,1911,1729690920,726716800,map,3.0378884709651697,-2.348794081646346,0.0,0.0,0.0,0.0
1729690920.9786146,1912,1729690920,926716800,map,3.022397274483866,-2.303283463925467,0.0,0.0,0.0,0.0
1729690921.0812821,1913,1729690920,926695808,map,3.022397274483866,-2.303283463925467,0.0,0.0,0.0,0.0
1729690921.1796277,1914,1729690921,126689152,map,3.008874787969223,-2.271469240452788,0.0,0.0,0.0,0.0
1729690921.278921,1915,1729690921,126684288,map,3.008874787969223,-2.271469240452788,0.0,0.0,0.0,0.0
1729690921.3861508,1916,1729690921,326680704,map,2.9815384552986437,-2.207833426591639,0.0,0.0,0.0,0.0
1729690921.471726,1917,1729690921,326680704,map,2.9815384552986437,-2.207833426591639,0.0,0.0,0.0,0.0
1729690921.5715585,1918,1729690921,526675840,map,2.865734874823601,-2.078259759322631,0.0,0.0,0.0,0.0
1729690921.6717489,1919,1729690921,526675840,map,2.865734874823601,-2.078259759322631,0.0,0.0,0.0,0.0
1729690921.7740755,1920,1729690921,726675840,map,2.965101395291982,-1.896990699934383,0.0,0.0,0.0,0.0
1729690921.8718293,1921,1729690921,726669440,map,2.965101395291982,-1.896990699934383,0.0,0.0,0.0,0.0
1729690921.9790854,1922,1729690921,926662016,map,2.9258062216803844,-1.7901279153111809,0.0,0.0,0.0,0.0
1729690922.071984,1923,1729690921,926662016,map,2.9258062216803844,-1.7901279153111809,0.0,0.0,0.0,0.0
1729690922.1714988,1924,1729690922,126657408,map,3.0356085505401915,-1.4635507261066414,0.0,0.0,0.0,0.0
1729690922.270599,1925,1729690922,126654336,map,3.0356085505401915,-1.4635507261066414,0.0,0.0,0.0,0.0
1729690922.373514,1926,1729690922,326652544,map,2.8146097516311026,-1.5224887342844626,0.0,0.0,0.0,0.0
1729690922.4736938,1927,1729690922,326648704,map,2.8146097516311026,-1.5224887342844626,0.0,0.0,0.0,0.0
1729690922.573202,1928,1729690922,526645888,map,2.5211283692093382,-1.512452229317628,0.0,0.0,0.0,0.0
1729690922.6748428,1929,1729690922,526642560,map,2.5211283692093382,-1.512452229317628,0.0,0.0,0.0,0.0
1729690922.7767951,1930,1729690922,726638208,map,2.2726482123755924,-1.752703655152811,0.0,0.0,0.0,0.0
1729690922.8735924,1931,1729690922,726631040,map,2.2726482123755924,-1.752703655152811,0.0,0.0,0.0,0.0
1729690922.971766,1932,1729690922,926631296,map,1.8984517772867382,-1.9339030092837708,0.0,0.0,0.0,0.0
1729690923.073586,1933,1729690922,926627200,map,1.8984517772867382,-1.9339030092837708,0.0,0.0,0.0,0.0
1729690923.1755388,1934,1729690923,126624384,map,1.5696455856221596,-2.085260831535678,0.0,0.0,0.0,0.0
1729690923.272462,1935,1729690923,126617728,map,1.5696455856221596,-2.085260831535678,0.0,0.0,0.0,0.0
1729690923.3759081,1936,1729690923,326611328,map,1.1780247569946922,-2.1823514088953675,0.0,0.0,0.0,0.0
1729690923.4725907,1937,1729690923,326604928,map,1.1780247569946922,-2.1823514088953675,0.0,0.0,0.0,0.0
1729690923.5726044,1938,1729690923,526600576,map,0.8303967064135487,-1.9070504214565305,0.0,0.0,0.0,0.0
1729690923.6757467,1939,1729690923,526594176,map,0.8303967064135487,-1.9070504214565305,0.0,0.0,0.0,0.0
1729690923.7714481,1940,1729690923,726587520,map,0.5956304553050882,-1.592238788848285,0.0,0.0,0.0,0.0
1729690923.8780553,1941,1729690923,726576512,map,0.5956304553050882,-1.592238788848285,0.0,0.0,0.0,0.0
1729690923.9767642,1942,1729690923,926571648,map,0.35788693373134417,-1.280943770297657,0.0,0.0,0.0,0.0
1729690924.0722673,1943,1729690923,926571648,map,0.35788693373134417,-1.280943770297657,0.0,0.0,0.0,0.0
1729690924.1767972,1944,1729690924,126564480,map,0.015927382774776996,-1.1698915840700563,0.0,0.0,0.0,0.0
1729690924.2737281,1945,1729690924,126564480,map,0.015927382774776996,-1.1698915840700563,0.0,0.0,0.0,0.0
1729690924.379003,1946,1729690924,326561408,map,-0.2402354183704647,-0.9500983863581538,0.0,0.0,0.0,0.0
1729690924.4726315,1947,1729690924,326550144,map,-0.2402354183704647,-0.9500983863581538,0.0,0.0,0.0,0.0
1729690924.5756474,1948,1729690924,526544768,map,-0.8831404962851902,-0.7365886666390868,0.0,0.0,0.0,0.0
1729690924.6745558,1949,1729690924,526537600,map,-0.8831404962851902,-0.7365886666390868,0.0,0.0,0.0,0.0
1729690924.7796338,1950,1729690924,726527360,map,-0.9547526531269017,-0.5855316996945105,0.0,0.0,0.0,0.0
1729690924.878277,1951,1729690924,726521216,map,-0.9547526531269017,-0.5855316996945105,0.0,0.0,0.0,0.0
1729690924.9826462,1952,1729690924,926509952,map,-1.2415036719419685,-0.41805338481419907,0.0,0.0,0.0,0.0
1729690925.0780013,1953,1729690924,926502784,map,-1.2415036719419685,-0.41805338481419907,0.0,0.0,0.0,0.0
1729690925.181246,1954,1729690925,126498688,map,-1.2947030839174978,-0.34546190020684014,0.0,0.0,0.0,0.0
1729690925.2771702,1955,1729690925,126494848,map,-1.2947030839174978,-0.34546190020684014,0.0,0.0,0.0,0.0
1729690925.3790946,1956,1729690925,326494848,map,-1.1597051312890874,-0.30835694975427524,0.0,0.0,0.0,0.0
1729690925.4725251,1957,1729690925,326494848,map,-1.1597051312890874,-0.30835694975427524,0.0,0.0,0.0,0.0
1729690925.5757625,1958,1729690925,526494848,map,-0.7688716315954927,-0.13128752464604168,0.0,0.0,0.0,0.0
1729690925.6738253,1959,1729690925,526492288,map,-0.7688716315954927,-0.13128752464604168,0.0,0.0,0.0,0.0
1729690925.7712579,1960,1729690925,726487936,map,-0.6437529430163957,0.08990076950576735,0.0,0.0,0.0,0.0
1729690925.8713455,1961,1729690925,726483584,map,-0.6437529430163957,0.08990076950576735,0.0,0.0,0.0,0.0
1729690925.9711862,1962,1729690925,926480000,map,-0.559321705589116,0.24343218697798008,0.0,0.0,0.0,0.0
1729690926.0727584,1963,1729690925,926476928,map,-0.559321705589116,0.24343218697798008,0.0,0.0,0.0,0.0
1729690926.172406,1964,1729690926,126471040,map,-0.5067244093695983,0.3909352541649726,0.0,0.0,0.0,0.0
1729690926.2695172,1965,1729690926,126467968,map,-0.5067244093695983,0.3909352541649726,0.0,0.0,0.0,0.0
1729690926.3761444,1966,1729690926,326459008,map,-0.4859020406134758,0.44665334088939734,0.0,0.0,0.0,0.0
1729690926.4726515,1967,1729690926,326459008,map,-0.4859020406134758,0.44665334088939734,0.0,0.0,0.0,0.0
1729690926.5746646,1968,1729690926,526451584,map,-0.4351036872939548,0.4416840288070244,0.0,0.0,0.0,0.0
1729690926.6764991,1969,1729690926,526445952,map,-0.4351036872939548,0.4416840288070244,0.0,0.0,0.0,0.0
1729690926.7800136,1970,1729690926,726434688,map,-0.41273757907767267,0.44916332309873863,0.0,0.0,0.0,0.0
1729690926.8730707,1971,1729690926,726434688,map,-0.41273757907767267,0.44916332309873863,0.0,0.0,0.0,0.0
1729690926.9746935,1972,1729690926,926429312,map,-0.3240361566427846,0.3541194278603939,0.0,0.0,0.0,0.0
1729690927.072133,1973,1729690926,926424448,map,-0.3240361566427846,0.3541194278603939,0.0,0.0,0.0,0.0
1729690927.172173,1974,1729690927,126420352,map,-0.28649291788963477,0.30711855691098017,0.0,0.0,0.0,0.0
1729690927.272029,1975,1729690927,126415744,map,-0.28649291788963477,0.30711855691098017,0.0,0.0,0.0,0.0
1729690927.3788772,1976,1729690927,326407296,map,-0.21409879317266914,0.2511209006873117,0.0,0.0,0.0,0.0
1729690927.473648,1977,1729690927,326407296,map,-0.21409879317266914,0.2511209006873117,0.0,0.0,0.0,0.0
1729690927.5722818,1978,1729690927,526404480,map,-0.13209081304289721,0.41970467844624554,0.0,0.0,0.0,0.0
1729690927.6709266,1979,1729690927,526401664,map,-0.13209081304289721,0.41970467844624554,0.0,0.0,0.0,0.0
1729690927.7739139,1980,1729690927,726397312,map,0.08492519164153457,0.7351106799827143,0.0,0.0,0.0,0.0
1729690927.8715441,1981,1729690927,726393472,map,0.08492519164153457,0.7351106799827143,0.0,0.0,0.0,0.0
1729690927.9725149,1982,1729690927,926390912,map,0.09250247626172022,0.501540917458835,0.0,0.0,0.0,0.0
1729690928.0710366,1983,1729690927,926388096,map,0.09250247626172022,0.501540917458835,0.0,0.0,0.0,0.0
1729690928.1765563,1984,1729690928,126381952,map,0.43366688776851575,0.9342553347202089,0.0,0.0,0.0,0.0
1729690928.2727206,1985,1729690928,126381952,map,0.43366688776851575,0.9342553347202089,0.0,0.0,0.0,0.0
1729690928.3710458,1986,1729690928,326374784,map,0.36199561233746214,0.8130554573019148,0.0,0.0,0.0,0.0
1729690928.4727275,1987,1729690928,326369664,map,0.36199561233746214,0.8130554573019148,0.0,0.0,0.0,0.0
1729690928.5761824,1988,1729690928,526362240,map,0.35495026839230603,0.6833083542356482,0.0,0.0,0.0,0.0
1729690928.6718376,1989,1729690928,526362240,map,0.35495026839230603,0.6833083542356482,0.0,0.0,0.0,0.0
1729690928.778079,1990,1729690928,726350720,map,0.2684346040225463,0.6680889636592261,0.0,0.0,0.0,0.0
1729690928.8782043,1991,1729690928,726345600,map,0.2684346040225463,0.6680889636592261,0.0,0.0,0.0,0.0
1729690928.9771821,1992,1729690928,926341248,map,0.30860624431809236,0.650509174391785,0.0,0.0,0.0,0.0
1729690929.0829232,1993,1729690928,926336384,map,0.30860624431809236,0.650509174391785,0.0,0.0,0.0,0.0
1729690929.181879,1994,1729690929,126337152,map,0.2537226827072946,0.5326582396619933,0.0,0.0,0.0,0.0
1729690929.2724068,1995,1729690929,126337152,map,0.2537226827072946,0.5326582396619933,0.0,0.0,0.0,0.0
1729690929.3722796,1996,1729690929,326337152,map,0.2235684150322072,0.4805384103274022,0.0,0.0,0.0,0.0
1729690929.4722958,1997,1729690929,326337152,map,0.2235684150322072,0.4805384103274022,0.0,0.0,0.0,0.0
1729690929.5721192,1998,1729690929,526337152,map,0.14113222915726506,0.2982979951208208,0.0,0.0,0.0,0.0
1729690929.6772997,1999,1729690929,526329984,map,0.14113222915726506,0.2982979951208208,0.0,0.0,0.0,0.0
1729690929.77421,2000,1729690929,726329984,map,0.15662662469114105,0.3241420991445888,0.0,0.0,0.0,0.0
1729690929.8726873,2001,1729690929,726324864,map,0.15662662469114105,0.3241420991445888,0.0,0.0,0.0,0.0
1729690929.9723413,2002,1729690929,926318208,map,0.13061893539850492,0.2589183147545982,0.0,0.0,0.0,0.0
1729690930.077557,2003,1729690929,926317952,map,0.13061893539850492,0.2589183147545982,0.0,0.0,0.0,0.0
1729690930.1794438,2004,1729690930,126307968,map,0.17164376203365483,0.24604556276213163,0.0,0.0,0.0,0.0
1729690930.274431,2005,1729690930,126307968,map,0.17164376203365483,0.24604556276213163,0.0,0.0,0.0,0.0
1729690930.3694057,2006,1729690930,326302592,map,0.13731500962692386,0.1968364502097053,0.0,0.0,0.0,0.0
1729690930.4695039,2007,1729690930,326297984,map,0.13731500962692386,0.1968364502097053,0.0,0.0,0.0,0.0
1729690930.573985,2008,1729690930,526293120,map,0.15794532015435783,0.24321446470417296,0.0,0.0,0.0,0.0
1729690930.6724567,2009,1729690930,526288000,map,0.15794532015435783,0.24321446470417296,0.0,0.0,0.0,0.0
1729690930.769533,2010,1729690930,726283392,map,0.10348141665285515,0.15934740790963056,0.0,0.0,0.0,0.0
1729690930.874679,2011,1729690930,726273664,map,0.10348141665285515,0.15934740790963056,0.0,0.0,0.0,0.0
1729690930.9744601,2012,1729690930,926272640,map,0.14705253945405733,0.22644105334526451,0.0,0.0,0.0,0.0
1729690931.0733736,2013,1729690930,926269824,map,0.14705253945405733,0.22644105334526451,0.0,0.0,0.0,0.0
1729690931.1745481,2014,1729690931,126265728,map,0.1299495892446567,0.2366708774968839,0.0,0.0,0.0,0.0
1729690931.2707422,2015,1729690931,126260608,map,0.1299495892446567,0.2366708774968839,0.0,0.0,0.0,0.0
1729690931.3706458,2016,1729690931,326257536,map,0.09625895499604198,0.17531176110880287,0.0,0.0,0.0,0.0
1729690931.4722004,2017,1729690931,326253696,map,0.09625895499604198,0.17531176110880287,0.0,0.0,0.0,0.0
1729690931.5785484,2018,1729690931,526241408,map,0.05775537299762518,0.10518705666528172,0.0,0.0,0.0,0.0
1729690931.6706295,2019,1729690931,526241408,map,0.05775537299762518,0.10518705666528172,0.0,0.0,0.0,0.0
1729690931.7719867,2020,1729690931,726238080,map,0.07219421624703148,0.13148382083160215,0.0,0.0,0.0,0.0
1729690931.8740568,2021,1729690931,726233216,map,0.07219421624703148,0.13148382083160215,0.0,0.0,0.0,0.0
1729690931.9736931,2022,1729690931,926229376,map,0.07700716399683359,0.1402494088870423,0.0,0.0,0.0,0.0
1729690932.0735826,2023,1729690931,926226816,map,0.07700716399683359,0.1402494088870423,0.0,0.0,0.0,0.0
1729690932.1760612,2024,1729690932,126219648,map,0.05294242524782309,0.09642146860984158,0.0,0.0,0.0,0.0
1729690932.2736702,2025,1729690932,126219648,map,0.05294242524782309,0.09642146860984158,0.0,0.0,0.0,0.0
1729690932.3708446,2026,1729690932,326215808,map,0.07219421624703148,0.13148382083160215,0.0,0.0,0.0,0.0
1729690932.4733412,2027,1729690932,326207360,map,0.07219421624703148,0.13148382083160215,0.0,0.0,0.0,0.0
1729690932.574697,2028,1729690932,526203776,map,0.06738126849722939,0.12271823277616202,0.0,0.0,0.0,0.0
1729690932.6753879,2029,1729690932,526198912,map,0.06738126849722939,0.12271823277616202,0.0,0.0,0.0,0.0
1729690932.7799215,2030,1729690932,726184320,map,0.05775537299762518,0.10518705666528172,0.0,0.0,0.0,0.0
1729690932.8766375,2031,1729690932,726179200,map,0.05775537299762518,0.10518705666528172,0.0,0.0,0.0,0.0
1729690932.9876926,2032,1729690932,926174848,map,0.04331652974821889,0.07889029249896129,0.0,0.0,0.0,0.0
1729690933.084762,2033,1729690932,926165888,map,0.04331652974821889,0.07889029249896129,0.0,0.0,0.0,0.0
1729690933.1741557,2034,1729690933,126165888,map,0.07700716399683359,0.1402494088870423,0.0,0.0,0.0,0.0
1729690933.2717767,2035,1729690933,126167424,map,0.07700716399683359,0.1402494088870423,0.0,0.0,0.0,0.0
1729690933.3794775,2036,1729690933,326167424,map,0.02887768649881259,0.05259352833264086,0.0,0.0,0.0,0.0
1729690933.4730086,2037,1729690933,326167424,map,0.02887768649881259,0.05259352833264086,0.0,0.0,0.0,0.0
1729690933.5716107,2038,1729690933,526164352,map,0.05775537299762518,0.10518705666528172,0.0,0.0,0.0,0.0
1729690933.6725583,2039,1729690933,526155648,map,0.05775537299762518,0.10518705666528172,0.0,0.0,0.0,0.0
1729690933.7762203,2040,1729690933,726151552,map,0.06256832074742728,0.11395264472072186,0.0,0.0,0.0,0.0
1729690933.8711398,2041,1729690933,726144128,map,0.06256832074742728,0.11395264472072186,0.0,0.0,0.0,0.0
1729690933.9701045,2042,1729690933,926138240,map,0.07700716399683359,0.1402494088870423,0.0,0.0,0.0,0.0
1729690934.072351,2043,1729690933,926133888,map,0.07700716399683359,0.1402494088870423,0.0,0.0,0.0,0.0
1729690934.1730719,2044,1729690934,126129024,map,0.10107190274584407,0.184077349164243,0.0,0.0,0.0,0.0
1729690934.269138,2045,1729690934,126122880,map,0.10107190274584407,0.184077349164243,0.0,0.0,0.0,0.0
1729690934.3723104,2046,1729690934,326116736,map,0.10588485049564618,0.19284293721968315,0.0,0.0,0.0,0.0
1729690934.4739444,2047,1729690934,326110592,map,0.10588485049564618,0.19284293721968315,0.0,0.0,0.0,0.0
1729690934.5753667,2048,1729690934,526105984,map,0.07700716399683359,0.1402494088870423,0.0,0.0,0.0,0.0
1729690934.6723266,2049,1729690934,526103936,map,0.07700716399683359,0.1402494088870423,0.0,0.0,0.0,0.0
1729690934.7737696,2050,1729690934,726098560,map,0.04812947749802099,0.08765588055440143,0.0,0.0,0.0,0.0
1729690934.873115,2051,1729690934,726094464,map,0.04812947749802099,0.08765588055440143,0.0,0.0,0.0,0.0
1729690934.9715831,2052,1729690934,926091648,map,0.04331652974821889,0.07889029249896129,0.0,0.0,0.0,0.0
1729690935.0728793,2053,1729690934,926088832,map,0.04331652974821889,0.07889029249896129,0.0,0.0,0.0,0.0
1729690935.1752763,2054,1729690935,126081920,map,0.09625895499604198,0.17531176110880287,0.0,0.0,0.0,0.0
1729690935.271504,2055,1729690935,126076032,map,0.09625895499604198,0.17531176110880287,0.0,0.0,0.0,0.0
1729690935.374205,2056,1729690935,326073472,map,0.09144600724623989,0.16654617305336272,0.0,0.0,0.0,0.0
1729690935.474177,2057,1729690935,326069120,map,0.09144600724623989,0.16654617305336272,0.0,0.0,0.0,0.0
1729690935.5742104,2058,1729690935,526064768,map,-0.22807979094087763,0.12481830380343086,0.0,0.0,0.0,0.0
1729690935.670413,2059,1729690935,526060928,map,-0.22807979094087763,0.12481830380343086,0.0,0.0,0.0,0.0
1729690935.770334,2060,1729690935,726054272,map,-0.2193074912893054,0.12001759981099121,0.0,0.0,0.0,0.0
1729690935.8698034,2061,1729690935,726050432,map,-0.2193074912893054,0.12001759981099121,0.0,0.0,0.0,0.0
1729690935.970445,2062,1729690935,926045056,map,-0.19299059233458876,0.10561548783367226,0.0,0.0,0.0,0.0
1729690936.0740905,2063,1729690935,926039680,map,-0.19299059233458876,0.10561548783367226,0.0,0.0,0.0,0.0
1729690936.1794655,2064,1729690936,126031488,map,-0.2544231158839292,0.11691397736760456,0.0,0.0,0.0,0.0
1729690936.274443,2065,1729690936,126031488,map,-0.2544231158839292,0.11691397736760456,0.0,0.0,0.0,0.0
1729690936.3745508,2066,1729690936,326028928,map,-0.24533657603093173,0.1127384781759044,0.0,0.0,0.0,0.0
1729690936.471788,2067,1729690936,326024064,map,-0.24533657603093173,0.1127384781759044,0.0,0.0,0.0,0.0
1729690936.5745065,2068,1729690936,526019456,map,-0.16355771735395447,0.07515898545060293,0.0,0.0,0.0,0.0
1729690936.674016,2069,1729690936,526015616,map,-0.16355771735395447,0.07515898545060293,0.0,0.0,0.0,0.0
1729690936.779487,2070,1729690936,726002816,map,-0.1908173369129469,0.08768548302570342,0.0,0.0,0.0,0.0
1729690936.873494,2071,1729690936,726002816,map,-0.1908173369129469,0.08768548302570342,0.0,0.0,0.0,0.0
1729690936.985143,2072,1729690936,925995904,map,-0.14797026212135775,0.11918389793817233,0.0,0.0,0.0,0.0
1729690937.0817633,2073,1729690936,925990784,map,-0.14797026212135775,0.11918389793817233,0.0,0.0,0.0,0.0
1729690937.1802604,2074,1729690937,125985664,map,-0.12174818280840954,0.14586767970612988,0.0,0.0,0.0,0.0
1729690937.273838,2075,1729690937,125985664,map,-0.12174818280840954,0.14586767970612988,0.0,0.0,0.0,0.0
1729690937.3817604,2076,1729690937,325998720,map,-0.11401728240904546,0.23366655582700743,0.0,0.0,0.0,0.0
1729690937.4819083,2077,1729690937,325986688,map,-0.11401728240904546,0.23366655582700743,0.0,0.0,0.0,0.0
1729690937.5815368,2078,1729690937,525974144,map,-0.06943824855942729,0.25055604091100897,0.0,0.0,0.0,0.0
1729690937.6733732,2079,1729690937,525974144,map,-0.06943824855942729,0.25055604091100897,0.0,0.0,0.0,0.0
1729690937.7737556,2080,1729690937,725975680,map,-0.032048422412043365,0.1156412496512349,0.0,0.0,0.0,0.0
1729690937.8703346,2081,1729690937,725970560,map,-0.032048422412043365,0.1156412496512349,0.0,0.0,0.0,0.0
1729690937.9730835,2082,1729690937,925966208,map,-0.04807263361806505,0.17346187447685235,0.0,0.0,0.0,0.0
1729690938.0724015,2083,1729690937,925961600,map,-0.04807263361806505,0.17346187447685235,0.0,0.0,0.0,0.0
1729690938.1712344,2084,1729690938,125957504,map,-0.026707018676702804,0.09636770804269576,0.0,0.0,0.0,0.0
1729690938.27123,2085,1729690938,125951616,map,-0.026707018676702804,0.09636770804269576,0.0,0.0,0.0,0.0
1729690938.3748765,2086,1729690938,325947776,map,-0.03738982614738393,0.13491479125977407,0.0,0.0,0.0,0.0
1729690938.4745238,2087,1729690938,325941120,map,-0.03738982614738393,0.13491479125977407,0.0,0.0,0.0,0.0
1729690938.5733633,2088,1729690938,525940608,map,-0.03738982614738393,0.13491479125977407,0.0,0.0,0.0,0.0
1729690938.6736138,2089,1729690938,525937024,map,-0.03738982614738393,0.13491479125977407,0.0,0.0,0.0,0.0
1729690938.774036,2090,1729690938,725931392,map,-0.032048422412043365,0.1156412496512349,0.0,0.0,0.0,0.0
1729690938.8756366,2091,1729690938,725926272,map,-0.032048422412043365,0.1156412496512349,0.0,0.0,0.0,0.0
1729690938.9779255,2092,1729690938,925920128,map,0.09387984993329608,0.1989637499056092,0.0,0.0,0.0,0.0
1729690939.0739448,2093,1729690938,925911936,map,0.09387984993329608,0.1989637499056092,0.0,0.0,0.0,0.0
1729690939.1739488,2094,1729690939,125912448,map,0.059741722684824784,0.1266132953944786,0.0,0.0,0.0,0.0
1729690939.2737231,2095,1729690939,125909632,map,0.059741722684824784,0.1266132953944786,0.0,0.0,0.0,0.0
1729690939.3730478,2096,1729690939,325905792,map,0.059741722684824784,0.1266132953944786,0.0,0.0,0.0,0.0
1729690939.4740627,2097,1729690939,325899904,map,0.059741722684824784,0.1266132953944786,0.0,0.0,0.0,0.0
1729690939.57606,2098,1729690939,525891456,map,0.025603595436353477,0.054262840883347964,0.0,0.0,0.0,0.0
1729690939.6731784,2099,1729690939,525891456,map,0.025603595436353477,0.054262840883347964,0.0,0.0,0.0,0.0
1729690939.7727332,2100,1729690939,725885056,map,0.0341381272484713,0.07235045451113062,0.0,0.0,0.0,0.0
1729690939.8715785,2101,1729690939,725879424,map,0.0341381272484713,0.07235045451113062,0.0,0.0,0.0,0.0
1729690939.9718337,2102,1729690939,925875584,map,0.008534531812117826,0.018087613627782655,0.0,0.0,0.0,0.0
1729690940.0761857,2103,1729690939,925872000,map,0.008534531812117826,0.018087613627782655,0.0,0.0,0.0,0.0
1729690940.1736288,2104,1729690940,125868416,map,0.25140226086735895,-0.09847285529921646,0.0,0.0,0.0,0.0
1729690940.2733562,2105,1729690940,125864832,map,0.25140226086735895,-0.09847285529921646,0.0,0.0,0.0,0.0
1729690940.3724902,2106,1729690940,325857920,map,0.1396679227040883,-0.05470714183289802,0.0,0.0,0.0,0.0
1729690940.4707448,2107,1729690940,325852544,map,0.1396679227040883,-0.05470714183289802,0.0,0.0,0.0,0.0
1729690940.5773687,2108,1729690940,525844864,map,0.046555974234696096,-0.018235713944299344,0.0,0.0,0.0,0.0
1729690940.6732795,2109,1729690940,525844864,map,0.046555974234696096,-0.018235713944299344,0.0,0.0,0.0,0.0
1729690940.7767508,2110,1729690940,725841280,map,0.07448955877551376,-0.029177142310878947,0.0,0.0,0.0,0.0
1729690940.870454,2111,1729690940,725834880,map,0.07448955877551376,-0.029177142310878947,0.0,0.0,0.0,0.0
1729690940.9715624,2112,1729690940,925829248,map,0.08380075362245297,-0.032824285099738816,0.0,0.0,0.0,0.0
1729690941.0711348,2113,1729690940,925820800,map,0.08380075362245297,-0.032824285099738816,0.0,0.0,0.0,0.0
1729690941.1782367,2114,1729690941,125811840,map,0.05586716908163531,-0.02188285673315921,0.0,0.0,0.0,0.0
1729690941.2746437,2115,1729690941,125811840,map,0.05586716908163531,-0.02188285673315921,0.0,0.0,0.0,0.0
1729690941.379827,2116,1729690941,325802368,map,0.03724477938775688,-0.014588571155439474,0.0,0.0,0.0,0.0
1729690941.476059,2117,1729690941,325802368,map,0.03724477938775688,-0.014588571155439474,0.0,0.0,0.0,0.0
1729690941.584157,2118,1729690941,525784448,map,0.10242314331633141,-0.040118570677458554,0.0,0.0,0.0,0.0
1729690941.6760805,2119,1729690941,525784448,map,0.10242314331633141,-0.040118570677458554,0.0,0.0,0.0,0.0
1729690941.7729685,2120,1729690941,725778048,map,0.14897911755102752,-0.058354284621757894,0.0,0.0,0.0,0.0
1729690941.8697484,2121,1729690941,725771648,map,0.14897911755102752,-0.058354284621757894,0.0,0.0,0.0,0.0
1729690941.9794457,2122,1729690941,925765248,map,0.2297128513250133,-0.2640681842557568,0.0,0.0,0.0,0.0
1729690942.0815315,2123,1729690941,925742976,map,0.2297128513250133,-0.2640681842557568,0.0,0.0,0.0,0.0
1729690942.182213,2124,1729690942,127733504,map,0.1443909351185798,-0.16598571581790428,0.0,0.0,0.0,0.0
1729690942.279271,2125,1729690942,127733504,map,0.1443909351185798,-0.16598571581790428,0.0,0.0,0.0,0.0
1729690942.3723822,2126,1729690942,327725056,map,0.152882542906901,-0.14396849681204413,0.0,0.0,0.0,0.0
1729690942.4748707,2127,1729690942,327720448,map,0.152882542906901,-0.14396849681204413,0.0,0.0,0.0,0.0
1729690942.5755978,2128,1729690942,527715840,map,0.21343315298513768,-0.13017791366749895,0.0,0.0,0.0,0.0
1729690942.673418,2129,1729690942,527712768,map,0.21343315298513768,-0.13017791366749895,0.0,0.0,0.0,0.0
1729690942.772471,2130,1729690942,727709440,map,0.17418752888232833,-0.15019555513352598,0.0,0.0,0.0,0.0
1729690942.8747115,2131,1729690942,727702016,map,0.17418752888232833,-0.15019555513352598,0.0,0.0,0.0,0.0
1729690942.9758031,2132,1729690942,927696384,map,0.17961680962204274,0.12703464764070807,0.0,0.0,0.0,0.0
1729690943.070991,2133,1729690942,927690496,map,0.17961680962204274,0.12703464764070807,0.0,0.0,0.0,0.0
1729690943.1748452,2134,1729690943,127680768,map,0.13963265493338736,0.18276411484822064,0.0,0.0,0.0,0.0
1729690943.2754712,2135,1729690943,127676160,map,0.13963265493338736,0.18276411484822064,0.0,0.0,0.0,0.0
1729690943.3747633,2136,1729690943,327668224,map,0.07285181996524558,0.09535519035559337,0.0,0.0,0.0,0.0
1729690943.4758837,2137,1729690943,327662080,map,0.07285181996524558,0.09535519035559337,0.0,0.0,0.0,0.0
1729690943.5777943,2138,1729690943,527655680,map,0.03642590998262279,0.04767759517779668,0.0,0.0,0.0,0.0
1729690943.6707733,2139,1729690943,527649024,map,0.03642590998262279,0.04767759517779668,0.0,0.0,0.0,0.0
1729690943.7780035,2140,1729690943,727636224,map,0.13963265493338736,0.18276411484822064,0.0,0.0,0.0,0.0
1729690943.869944,2141,1729690943,727636224,map,0.13963265493338736,0.18276411484822064,0.0,0.0,0.0,0.0
1729690943.9692247,2142,1729690943,927636480,map,0.16102470543073563,0.32197988173323006,0.0,0.0,0.0,0.0
1729690944.0710015,2143,1729690943,927632384,map,0.16102470543073563,0.32197988173323006,0.0,0.0,0.0,0.0
1729690944.1716895,2144,1729690944,127629312,map,0.09393107816792912,0.18782159767771753,0.0,0.0,0.0,0.0
1729690944.2740667,2145,1729690944,127623680,map,0.09393107816792912,0.18782159767771753,0.0,0.0,0.0,0.0
1729690944.3752048,2146,1729690944,327618816,map,0.026837450905122604,0.05366331362220501,0.0,0.0,0.0,0.0
1729690944.4734902,2147,1729690944,327613440,map,0.026837450905122604,0.05366331362220501,0.0,0.0,0.0,0.0
1729690944.5788548,2148,1729690944,527601920,map,0.06709362726280652,0.13415828405551253,0.0,0.0,0.0,0.0
1729690944.6713817,2149,1729690944,527601920,map,0.06709362726280652,0.13415828405551253,0.0,0.0,0.0,0.0
1729690944.7724047,2150,1729690944,727597824,map,0.08945816968374203,0.1788777120740167,0.0,0.0,0.0,0.0
1729690944.876116,2151,1729690944,727594240,map,0.08945816968374203,0.1788777120740167,0.0,0.0,0.0,0.0
1729690944.9738517,2152,1729690944,927590656,map,0.07956718696901019,0.24752588300587594,0.0,0.0,0.0,0.0
1729690945.073292,2153,1729690944,927582976,map,0.07956718696901019,0.24752588300587594,0.0,0.0,0.0,0.0
1729690945.1724339,2154,1729690945,127576320,map,0.006120552843770014,0.019040452538913535,0.0,0.0,0.0,0.0
1729690945.272328,2155,1729690945,127570176,map,0.006120552843770014,0.019040452538913535,0.0,0.0,0.0,0.0
1729690945.3716033,2156,1729690945,327566336,map,-0.13674472960221237,0.20928659518950998,0.0,0.0,0.0,0.0
1729690945.4721758,2157,1729690945,327558656,map,-0.13674472960221237,0.20928659518950998,0.0,0.0,0.0,0.0
1729690945.57892,2158,1729690945,527547648,map,-0.08751662694541593,0.1339434209212864,0.0,0.0,0.0,0.0
1729690945.671293,2159,1729690945,527547648,map,-0.08751662694541593,0.1339434209212864,0.0,0.0,0.0,0.0
1729690945.7764263,2160,1729690945,727544320,map,-0.06563747020906194,0.10045756569096478,0.0,0.0,0.0,0.0
1729690945.8712206,2161,1729690945,727539200,map,-0.06563747020906194,0.10045756569096478,0.0,0.0,0.0,0.0
1729690945.9726324,2162,1729690945,927532800,map,-0.06563747020906194,0.10045756569096478,0.0,0.0,0.0,0.0
