Time,header.seq,header.stamp.secs,header.stamp.nsecs,header.frame_id,status.status,status.service,latitude,longitude,altitude,position_covariance_0,position_covariance_1,position_covariance_2,position_covariance_3,position_covariance_4,position_covariance_5,position_covariance_6,position_covariance_7,position_covariance_8,position_covariance_type
1729690889.292206,1592,1729690888,926279936,base_link,0,1,33.6371302,72.9912722,508.63614338240006,1.0424409999999997,0.0,0.0,0.0,1.0424409999999997,0.0,0.0,0.0,2.0164,2
1729690889.292316,1593,1729690888,926276352,base_link,0,1,33.6371302,72.9912722,508.63614338240006,1.0424409999999997,0.0,0.0,0.0,1.0424409999999997,0.0,0.0,0.0,2.0164,2
1729690889.2926,1594,1729690889,126268416,base_link,0,1,33.6371298,72.9912729,509.0361437108319,1.0424409999999997,0.0,0.0,0.0,1.0424409999999997,0.0,0.0,0.0,2.0107239999999997,2
1729690889.292821,1595,1729690889,126264832,base_link,0,1,33.6371298,72.9912729,509.0361437108319,1.0424409999999997,0.0,0.0,0.0,1.0424409999999997,0.0,0.0,0.0,2.0107239999999997,2
1729690889.3740313,1596,1729690889,326264832,base_link,0,1,33.6371297,72.9912733,509.26614468660574,1.0404,0.0,0.0,0.0,1.0404,0.0,0.0,0.0,2.007889,2
1729690889.4741197,1597,1729690889,326257920,base_link,0,1,33.6371297,72.9912733,509.26614468660574,1.0404,0.0,0.0,0.0,1.0404,0.0,0.0,0.0,2.007889,2
1729690889.5740774,1598,1729690889,526254080,base_link,0,1,33.6371295,72.9912736,509.4561446522292,1.0424409999999997,0.0,0.0,0.0,1.0424409999999997,0.0,0.0,0.0,2.007889,2
1729690889.6743965,1599,1729690889,526248704,base_link,0,1,33.6371295,72.9912736,509.4561446522292,1.0424409999999997,0.0,0.0,0.0,1.0424409999999997,0.0,0.0,0.0,2.007889,2
1729690889.7732482,1600,1729690889,726244352,base_link,0,1,33.6371291,72.991274,509.7261437891072,1.0424409999999997,0.0,0.0,0.0,1.0424409999999997,0.0,0.0,0.0,2.002225,2
1729690889.8729594,1601,1729690889,726238976,base_link,0,1,33.6371291,72.991274,509.7261437891072,1.0424409999999997,0.0,0.0,0.0,1.0424409999999997,0.0,0.0,0.0,2.002225,2
1729690889.9748297,1602,1729690889,926233856,base_link,0,1,33.6371291,72.9912744,509.9161453778461,1.0404,0.0,0.0,0.0,1.0404,0.0,0.0,0.0,1.9993959999999997,2
1729690890.0734115,1603,1729690889,926228992,base_link,0,1,33.6371291,72.9912744,509.9161453778461,1.0404,0.0,0.0,0.0,1.0404,0.0,0.0,0.0,1.9993959999999997,2
1729690890.173007,1604,1729690890,126223872,base_link,0,1,33.6371289,72.9912748,510.0761457406546,1.0404,0.0,0.0,0.0,1.0404,0.0,0.0,0.0,1.996569,2
1729690890.2729325,1605,1729690890,126218752,base_link,0,1,33.6371289,72.9912748,510.0761457406546,1.0404,0.0,0.0,0.0,1.0404,0.0,0.0,0.0,1.996569,2
1729690890.3756948,1606,1729690890,326206976,base_link,0,1,33.6371291,72.9912751,510.1761481581402,1.0404,0.0,0.0,0.0,1.0404,0.0,0.0,0.0,1.9937439999999997,2
1729690890.4752898,1607,1729690890,326206976,base_link,0,1,33.6371291,72.9912751,510.1761481581402,1.0404,0.0,0.0,0.0,1.0404,0.0,0.0,0.0,1.9937439999999997,2
1729690890.575473,1608,1729690890,526195200,base_link,0,1,33.6371295,72.9912755,510.27615219874434,1.0404,0.0,0.0,0.0,1.0404,0.0,0.0,0.0,1.9909210000000002,2
1729690890.6738627,1609,1729690890,526195200,base_link,0,1,33.6371295,72.9912755,510.27615219874434,1.0404,0.0,0.0,0.0,1.0404,0.0,0.0,0.0,1.9909210000000002,2
1729690890.7743905,1610,1729690890,726191616,base_link,0,1,33.6371299,72.9912757,510.3761554449807,1.0383609999999999,0.0,0.0,0.0,1.0383609999999999,0.0,0.0,0.0,1.9880999999999998,2
1729690890.8748913,1611,1729690890,726188032,base_link,0,1,33.6371299,72.9912757,510.3761554449807,1.0383609999999999,0.0,0.0,0.0,1.0383609999999999,0.0,0.0,0.0,1.9880999999999998,2
1729690890.9738927,1612,1729690890,926183424,base_link,0,1,33.6371303,72.9912761,510.4961594855906,1.0383609999999999,0.0,0.0,0.0,1.0383609999999999,0.0,0.0,0.0,1.985281,2
1729690891.0765634,1613,1729690890,926175488,base_link,0,1,33.6371303,72.9912761,510.4961594855906,1.0383609999999999,0.0,0.0,0.0,1.0383609999999999,0.0,0.0,0.0,1.985281,2
1729690891.1716685,1614,1729690891,126175488,base_link,0,1,33.637131,72.9912763,510.50616457073505,1.036324,0.0,0.0,0.0,1.036324,0.0,0.0,0.0,1.9824639999999998,2
1729690891.272796,1615,1729690891,126168064,base_link,0,1,33.637131,72.9912763,510.50616457073505,1.036324,0.0,0.0,0.0,1.036324,0.0,0.0,0.0,1.9824639999999998,2
1729690891.3743107,1616,1729690891,326160384,base_link,0,1,33.6371316,72.9912763,510.50616824854393,1.0342889999999998,0.0,0.0,0.0,1.0342889999999998,0.0,0.0,0.0,1.979649,2
1729690891.4744864,1617,1729690891,326156032,base_link,0,1,33.6371316,72.9912763,510.50616824854393,1.0342889999999998,0.0,0.0,0.0,1.0342889999999998,0.0,0.0,0.0,1.979649,2
1729690891.575773,1618,1729690891,526149888,base_link,0,1,33.6371323,72.9912762,510.5061721421384,1.0342889999999998,0.0,0.0,0.0,1.0342889999999998,0.0,0.0,0.0,1.9740250000000001,2
1729690891.675419,1619,1729690891,526149888,base_link,0,1,33.6371323,72.9912762,510.5061721421384,1.0342889999999998,0.0,0.0,0.0,1.0342889999999998,0.0,0.0,0.0,1.9740250000000001,2
1729690891.7791843,1620,1729690891,726138112,base_link,0,1,33.6371329,72.9912758,510.4761742312067,1.032256,0.0,0.0,0.0,1.032256,0.0,0.0,0.0,1.9712159999999999,2
1729690891.875713,1621,1729690891,726135296,base_link,0,1,33.6371329,72.9912758,510.4761742312067,1.032256,0.0,0.0,0.0,1.032256,0.0,0.0,0.0,1.9712159999999999,2
1729690891.9741237,1622,1729690891,926135296,base_link,0,1,33.6371333,72.9912753,510.4761746971504,1.0302249999999997,0.0,0.0,0.0,1.0302249999999997,0.0,0.0,0.0,1.968409,2
1729690892.0740104,1623,1729690891,926130944,base_link,0,1,33.6371333,72.9912753,510.4761746971504,1.0302249999999997,0.0,0.0,0.0,1.0302249999999997,0.0,0.0,0.0,1.968409,2
1729690892.1724849,1624,1729690892,126128640,base_link,0,1,33.6371336,72.9912748,510.4761745501247,1.0302249999999997,0.0,0.0,0.0,1.0302249999999997,0.0,0.0,0.0,1.9656039999999997,2
1729690892.273683,1625,1729690892,126122240,base_link,0,1,33.6371336,72.9912748,510.4761745501247,1.0302249999999997,0.0,0.0,0.0,1.0302249999999997,0.0,0.0,0.0,1.9656039999999997,2
1729690892.3748775,1626,1729690892,326119168,base_link,0,1,33.6371339,72.9912741,510.4761736087255,1.028196,0.0,0.0,0.0,1.028196,0.0,0.0,0.0,1.962801,2
1729690892.477679,1627,1729690892,326110208,base_link,0,1,33.6371339,72.9912741,510.4761736087255,1.028196,0.0,0.0,0.0,1.028196,0.0,0.0,0.0,1.962801,2
1729690892.5733213,1628,1729690892,526110208,base_link,0,1,33.6371339,72.9912733,510.48617043123176,1.028196,0.0,0.0,0.0,1.028196,0.0,0.0,0.0,1.9599999999999997,2
1729690892.673321,1629,1729690892,526104064,base_link,0,1,33.6371339,72.9912733,510.48617043123176,1.028196,0.0,0.0,0.0,1.028196,0.0,0.0,0.0,1.9599999999999997,2
1729690892.7734952,1630,1729690892,726099456,base_link,0,1,33.6371338,72.9912725,510.49616664077064,1.028196,0.0,0.0,0.0,1.028196,0.0,0.0,0.0,1.9544039999999998,2
1729690892.8778849,1631,1729690892,726096384,base_link,0,1,33.6371338,72.9912725,510.49616664077064,1.028196,0.0,0.0,0.0,1.028196,0.0,0.0,0.0,1.9544039999999998,2
1729690892.9752934,1632,1729690892,926096384,base_link,0,1,33.6371335,72.9912717,510.50616162437547,1.0261689999999999,0.0,0.0,0.0,1.0261689999999999,0.0,0.0,0.0,1.9488159999999997,2
1729690893.0762348,1633,1729690892,926089216,base_link,0,1,33.6371335,72.9912717,510.50616162437547,1.0261689999999999,0.0,0.0,0.0,1.0261689999999999,0.0,0.0,0.0,1.9488159999999997,2
1729690893.1768363,1634,1729690893,126080000,base_link,0,1,33.637133,72.991271,510.4961557792356,1.024144,0.0,0.0,0.0,1.024144,0.0,0.0,0.0,1.9432359999999997,2
1729690893.2766297,1635,1729690893,126080000,base_link,0,1,33.637133,72.991271,510.4961557792356,1.024144,0.0,0.0,0.0,1.024144,0.0,0.0,0.0,1.9432359999999997,2
1729690893.3764262,1636,1729690893,326072576,base_link,0,1,33.6371324,72.9912705,510.49615011550617,1.024144,0.0,0.0,0.0,1.024144,0.0,0.0,0.0,1.940449,2
1729690893.4748359,1637,1729690893,326068992,base_link,0,1,33.6371324,72.9912705,510.49615011550617,1.024144,0.0,0.0,0.0,1.024144,0.0,0.0,0.0,1.940449,2
1729690893.5767539,1638,1729690893,526060800,base_link,0,1,33.6371317,72.9912701,510.4861442360022,1.0221209999999998,0.0,0.0,0.0,1.0221209999999998,0.0,0.0,0.0,1.9376639999999998,2
1729690893.6752014,1639,1729690893,526052608,base_link,0,1,33.6371317,72.9912701,510.4861442360022,1.0221209999999998,0.0,0.0,0.0,1.0221209999999998,0.0,0.0,0.0,1.9376639999999998,2
1729690893.7769105,1640,1729690893,726043904,base_link,0,1,33.6371309,72.9912699,510.49613853790953,1.0221209999999998,0.0,0.0,0.0,1.0221209999999998,0.0,0.0,0.0,1.934881,2
1729690893.8758357,1641,1729690893,726035968,base_link,0,1,33.6371309,72.9912699,510.49613853790953,1.0221209999999998,0.0,0.0,0.0,1.0221209999999998,0.0,0.0,0.0,1.934881,2
1729690893.977486,1642,1729690893,926027776,base_link,0,1,33.6371301,72.9912698,510.4961332370081,1.0201,0.0,0.0,0.0,1.0201,0.0,0.0,0.0,1.9320999999999997,2
1729690894.0792856,1643,1729690893,926017536,base_link,0,1,33.6371301,72.9912698,510.4961332370081,1.0201,0.0,0.0,0.0,1.0201,0.0,0.0,0.0,1.9320999999999997,2
1729690894.1747284,1644,1729690894,126017536,base_link,0,1,33.6371294,72.9912698,510.4861289462606,1.0180809999999998,0.0,0.0,0.0,1.0180809999999998,0.0,0.0,0.0,1.929321,2
1729690894.2733264,1645,1729690894,126014208,base_link,0,1,33.6371294,72.9912698,510.4861289462606,1.0180809999999998,0.0,0.0,0.0,1.0180809999999998,0.0,0.0,0.0,1.929321,2
1729690894.377238,1646,1729690894,326004736,base_link,0,1,33.6371287,72.99127,510.48612544988447,1.016064,0.0,0.0,0.0,1.016064,0.0,0.0,0.0,1.923769,2
1729690894.4761086,1647,1729690894,326001920,base_link,0,1,33.6371287,72.99127,510.48612544988447,1.016064,0.0,0.0,0.0,1.016064,0.0,0.0,0.0,1.923769,2
1729690894.5732307,1648,1729690894,526001920,base_link,0,1,33.6371281,72.9912702,510.4661225664743,1.012036,0.0,0.0,0.0,1.012036,0.0,0.0,0.0,1.9209959999999997,2
1729690894.6716444,1649,1729690894,526000128,base_link,0,1,33.6371281,72.9912702,510.4661225664743,1.012036,0.0,0.0,0.0,1.012036,0.0,0.0,0.0,1.9209959999999997,2
1729690894.773804,1650,1729690894,725997056,base_link,0,1,33.6371276,72.9912704,510.4661202960286,1.012036,0.0,0.0,0.0,1.012036,0.0,0.0,0.0,1.918225,2
1729690894.8785093,1651,1729690894,725993216,base_link,0,1,33.6371276,72.9912704,510.4661202960286,1.012036,0.0,0.0,0.0,1.012036,0.0,0.0,0.0,1.918225,2
1729690894.9737415,1652,1729690894,925993216,base_link,0,1,33.6371273,72.9912708,510.4561200458745,1.0100249999999997,0.0,0.0,0.0,1.0100249999999997,0.0,0.0,0.0,1.9154559999999998,2
1729690895.0748756,1653,1729690894,925989632,base_link,0,1,33.6371273,72.9912708,510.4561200458745,1.0100249999999997,0.0,0.0,0.0,1.0100249999999997,0.0,0.0,0.0,1.9154559999999998,2
1729690895.1773944,1654,1729690895,125979904,base_link,0,1,33.6371273,72.9912712,510.46612163460753,1.008016,0.0,0.0,0.0,1.008016,0.0,0.0,0.0,1.912689,2
1729690895.2764363,1655,1729690895,125977856,base_link,0,1,33.6371273,72.9912712,510.46612163460753,1.008016,0.0,0.0,0.0,1.008016,0.0,0.0,0.0,1.912689,2
1729690895.3758051,1656,1729690895,325977856,base_link,0,1,33.6371274,72.9912715,510.50612343911996,1.0060089999999997,0.0,0.0,0.0,1.0060089999999997,0.0,0.0,0.0,1.9099239999999997,2
1729690895.4742885,1657,1729690895,325972224,base_link,0,1,33.6371274,72.9912715,510.50612343911996,1.0060089999999997,0.0,0.0,0.0,1.0060089999999997,0.0,0.0,0.0,1.9099239999999997,2
1729690895.573256,1658,1729690895,525967360,base_link,0,1,33.6371278,72.9912719,510.54612747970543,1.0060089999999997,0.0,0.0,0.0,1.0060089999999997,0.0,0.0,0.0,1.9099239999999997,2
1729690895.6739748,1659,1729690895,525959680,base_link,0,1,33.6371278,72.9912719,510.54612747970543,1.0060089999999997,0.0,0.0,0.0,1.0060089999999997,0.0,0.0,0.0,1.9099239999999997,2
1729690895.776363,1660,1729690895,725952256,base_link,0,1,33.6371282,72.9912722,510.6061311231102,1.0060089999999997,0.0,0.0,0.0,1.0060089999999997,0.0,0.0,0.0,1.9099239999999997,2
1729690895.8745112,1661,1729690895,725952256,base_link,0,1,33.6371282,72.9912722,510.6061311231102,1.0060089999999997,0.0,0.0,0.0,1.0060089999999997,0.0,0.0,0.0,1.9099239999999997,2
1729690895.9735093,1662,1729690895,925947648,base_link,0,1,33.6371288,72.9912724,510.6861355952617,1.0060089999999997,0.0,0.0,0.0,1.0060089999999997,0.0,0.0,0.0,1.9099239999999997,2
1729690896.0741045,1663,1729690895,925945088,base_link,0,1,33.6371288,72.9912724,510.6861355952617,1.0060089999999997,0.0,0.0,0.0,1.0060089999999997,0.0,0.0,0.0,1.9099239999999997,2
1729690896.1740932,1664,1729690896,125943296,base_link,0,1,33.6371296,72.9912727,510.75614169053216,1.0060089999999997,0.0,0.0,0.0,1.0060089999999997,0.0,0.0,0.0,1.9099239999999997,2
1729690896.2762237,1665,1729690896,125936896,base_link,0,1,33.6371296,72.9912727,510.75614169053216,1.0060089999999997,0.0,0.0,0.0,1.0060089999999997,0.0,0.0,0.0,1.9099239999999997,2
1729690896.376494,1666,1729690896,325935360,base_link,0,1,33.6371304,72.991273,510.8461477858106,1.0060089999999997,0.0,0.0,0.0,1.0060089999999997,0.0,0.0,0.0,1.907161,2
1729690896.4729614,1667,1729690896,325935360,base_link,0,1,33.6371304,72.991273,510.8461477858106,1.0060089999999997,0.0,0.0,0.0,1.0060089999999997,0.0,0.0,0.0,1.907161,2
1729690896.5766568,1668,1729690896,525927168,base_link,0,1,33.6371311,72.9912729,510.94615167938866,1.008016,0.0,0.0,0.0,1.008016,0.0,0.0,0.0,1.907161,2
1729690896.6750243,1669,1729690896,525927168,base_link,0,1,33.6371311,72.9912729,510.94615167938866,1.008016,0.0,0.0,0.0,1.008016,0.0,0.0,0.0,1.907161,2
1729690896.776447,1670,1729690896,725918208,base_link,0,1,33.6371316,72.9912727,511.08615394985117,1.0100249999999997,0.0,0.0,0.0,1.0100249999999997,0.0,0.0,0.0,1.9043999999999996,2
1729690896.8754635,1671,1729690896,725918208,base_link,0,1,33.6371316,72.9912727,511.08615394985117,1.0100249999999997,0.0,0.0,0.0,1.0100249999999997,0.0,0.0,0.0,1.9043999999999996,2
1729690896.9804175,1672,1729690896,925910528,base_link,0,1,33.637132,72.9912727,511.2461564017194,1.0100249999999997,0.0,0.0,0.0,1.0100249999999997,0.0,0.0,0.0,1.901641,2
1729690897.079254,1673,1729690896,925906944,base_link,0,1,33.637132,72.9912727,511.2461564017194,1.0100249999999997,0.0,0.0,0.0,1.0100249999999997,0.0,0.0,0.0,1.901641,2
1729690897.1804385,1674,1729690897,125896960,base_link,0,1,33.6371324,72.9912726,511.3761584564031,1.008016,0.0,0.0,0.0,1.008016,0.0,0.0,0.0,1.8988839999999998,2
1729690897.2808871,1675,1729690897,125888256,base_link,0,1,33.6371324,72.9912726,511.3761584564031,1.008016,0.0,0.0,0.0,1.008016,0.0,0.0,0.0,1.8988839999999998,2
1729690897.3831499,1676,1729690897,325879552,base_link,0,1,33.6371326,72.9912724,511.48615888796655,1.008016,0.0,0.0,0.0,1.008016,0.0,0.0,0.0,1.896129,2
1729690897.4893336,1677,1729690897,325869568,base_link,0,1,33.6371326,72.9912724,511.48615888796655,1.008016,0.0,0.0,0.0,1.008016,0.0,0.0,0.0,1.896129,2
1729690897.5858395,1678,1729690897,525869568,base_link,0,1,33.6371327,72.9912721,511.6161583093767,1.008016,0.0,0.0,0.0,1.008016,0.0,0.0,0.0,1.8933759999999997,2
1729690897.6752934,1679,1729690897,525869568,base_link,0,1,33.6371327,72.9912721,511.6161583093767,1.008016,0.0,0.0,0.0,1.008016,0.0,0.0,0.0,1.8933759999999997,2
1729690897.7758052,1680,1729690897,725866496,base_link,0,1,33.6371326,72.9912719,511.76615690203755,1.008016,0.0,0.0,0.0,1.008016,0.0,0.0,0.0,1.890625,2
1729690897.8730912,1681,1729690897,725866496,base_link,0,1,33.6371326,72.9912719,511.76615690203755,1.008016,0.0,0.0,0.0,1.008016,0.0,0.0,0.0,1.890625,2
1729690897.975727,1682,1729690897,925860864,base_link,0,1,33.6371323,72.9912719,511.90615506313577,1.008016,0.0,0.0,0.0,1.008016,0.0,0.0,0.0,1.8878760000000003,2
1729690898.0728123,1683,1729690897,925854208,base_link,0,1,33.6371323,72.9912719,511.90615506313577,1.008016,0.0,0.0,0.0,1.008016,0.0,0.0,0.0,1.8878760000000003,2
1729690898.1755688,1684,1729690898,125847808,base_link,0,1,33.6371321,72.9912719,511.98615383720175,1.008016,0.0,0.0,0.0,1.008016,0.0,0.0,0.0,1.8878760000000003,2
1729690898.2728798,1685,1729690898,125843712,base_link,0,1,33.6371321,72.9912719,511.98615383720175,1.008016,0.0,0.0,0.0,1.008016,0.0,0.0,0.0,1.8878760000000003,2
1729690898.375559,1686,1729690898,325836800,base_link,0,1,33.6371321,72.9912719,512.0261538372017,1.0100249999999997,0.0,0.0,0.0,1.0100249999999997,0.0,0.0,0.0,1.885129,2
1729690898.4754272,1687,1729690898,325829888,base_link,0,1,33.6371321,72.9912719,512.0261538372017,1.0100249999999997,0.0,0.0,0.0,1.0100249999999997,0.0,0.0,0.0,1.885129,2
1729690898.575288,1688,1729690898,525822976,base_link,0,1,33.6371319,72.9912718,512.0561522140827,1.008016,0.0,0.0,0.0,1.008016,0.0,0.0,0.0,1.879641,2
1729690898.6747143,1689,1729690898,525817856,base_link,0,1,33.6371319,72.9912718,512.0561522140827,1.008016,0.0,0.0,0.0,1.008016,0.0,0.0,0.0,1.879641,2
1729690898.779348,1690,1729690898,725809920,base_link,0,1,33.6371317,72.9912717,512.066150590964,1.0060089999999997,0.0,0.0,0.0,1.0060089999999997,0.0,0.0,0.0,1.874161,2
1729690898.8779101,1691,1729690898,725809920,base_link,0,1,33.6371317,72.9912717,512.066150590964,1.0060089999999997,0.0,0.0,0.0,1.0060089999999997,0.0,0.0,0.0,1.874161,2
1729690898.9744546,1692,1729690898,925800704,base_link,0,1,33.6371313,72.9912718,512.0561485362839,1.004004,0.0,0.0,0.0,1.004004,0.0,0.0,0.0,1.8659560000000004,2
1729690899.0744593,1693,1729690898,925800192,base_link,0,1,33.6371313,72.9912718,512.0561485362839,1.004004,0.0,0.0,0.0,1.004004,0.0,0.0,0.0,1.8659560000000004,2
1729690899.1750953,1694,1729690899,125794048,base_link,0,1,33.637131,72.9912718,512.0661466973856,1.0020009999999997,0.0,0.0,0.0,1.0020009999999997,0.0,0.0,0.0,1.8604960000000004,2
1729690899.2720432,1695,1729690899,125787648,base_link,0,1,33.637131,72.9912718,512.0661466973856,1.0020009999999997,0.0,0.0,0.0,1.0020009999999997,0.0,0.0,0.0,1.8604960000000004,2
1729690899.3723378,1696,1729690899,325782272,base_link,0,1,33.6371307,72.9912718,512.0761448584883,1.0,0.0,0.0,0.0,1.0,0.0,0.0,0.0,1.8523209999999999,2
1729690899.4771726,1697,1729690899,325771776,base_link,0,1,33.6371307,72.9912718,512.0761448584883,1.0,0.0,0.0,0.0,1.0,0.0,0.0,0.0,1.8523209999999999,2
1729690899.5739267,1698,1729690899,525771776,base_link,0,1,33.6371305,72.991272,512.0461444269268,0.998001,0.0,0.0,0.0,0.998001,0.0,0.0,0.0,1.846881,2
1729690899.6709995,1699,1729690899,525767936,base_link,0,1,33.6371305,72.991272,512.0461444269268,0.998001,0.0,0.0,0.0,0.998001,0.0,0.0,0.0,1.846881,2
1729690899.7711458,1700,1729690899,725764864,base_link,0,1,33.6371303,72.9912722,512.0261439953655,0.996004,0.0,0.0,0.0,0.996004,0.0,0.0,0.0,1.8387360000000001,2
1729690899.8757985,1701,1729690899,725759744,base_link,0,1,33.6371303,72.9912722,512.0261439953655,0.996004,0.0,0.0,0.0,0.996004,0.0,0.0,0.0,1.8387360000000001,2
1729690899.97102,1702,1729690899,925759744,base_link,0,1,33.6371301,72.9912723,512.0261431666195,0.994009,0.0,0.0,0.0,0.994009,0.0,0.0,0.0,1.836025,2
1729690900.0759082,1703,1729690899,925753600,base_link,0,1,33.6371301,72.9912723,512.0261431666195,0.994009,0.0,0.0,0.0,0.994009,0.0,0.0,0.0,1.836025,2
1729690900.1744018,1704,1729690900,125753600,base_link,0,1,33.6371299,72.9912722,512.0061415435043,0.992016,0.0,0.0,0.0,0.992016,0.0,0.0,0.0,1.830609,2
1729690900.2717772,1705,1729690900,125749248,base_link,0,1,33.6371299,72.9912722,512.0061415435043,0.992016,0.0,0.0,0.0,0.992016,0.0,0.0,0.0,1.830609,2
1729690900.379064,1706,1729690900,325744640,base_link,0,1,33.6371298,72.9912722,511.98614093053925,0.990025,0.0,0.0,0.0,0.990025,0.0,0.0,0.0,1.8279040000000002,2
1729690900.4792235,1707,1729690900,325741312,base_link,0,1,33.6371298,72.9912722,511.98614093053925,0.990025,0.0,0.0,0.0,0.990025,0.0,0.0,0.0,1.8279040000000002,2
1729690900.5791712,1708,1729690900,525733632,base_link,0,1,33.6371298,72.9912721,511.9761405333547,0.988036,0.0,0.0,0.0,0.988036,0.0,0.0,0.0,1.8225000000000002,2
1729690900.67196,1709,1729690900,525733632,base_link,0,1,33.6371298,72.9912721,511.9761405333547,0.988036,0.0,0.0,0.0,0.988036,0.0,0.0,0.0,1.8225000000000002,2
1729690900.77268,1710,1729690900,725727744,base_link,0,1,33.6371299,72.9912722,511.97614154350435,0.988036,0.0,0.0,0.0,0.988036,0.0,0.0,0.0,1.8171040000000003,2
1729690900.8740866,1711,1729690900,725723392,base_link,0,1,33.6371299,72.9912722,511.97614154350435,0.988036,0.0,0.0,0.0,0.988036,0.0,0.0,0.0,1.8171040000000003,2
1729690900.9800675,1712,1729690900,925715200,base_link,0,1,33.6371299,72.9912723,511.98614194068904,0.986049,0.0,0.0,0.0,0.986049,0.0,0.0,0.0,1.814409,2
1729690901.08009,1713,1729690900,925710848,base_link,0,1,33.6371299,72.9912723,511.98614194068904,0.986049,0.0,0.0,0.0,0.986049,0.0,0.0,0.0,1.814409,2
1729690901.1849494,1714,1729690901,125710848,base_link,0,1,33.6371299,72.9912724,512.0061423378736,0.9840639999999999,0.0,0.0,0.0,0.9840639999999999,0.0,0.0,0.0,1.8117160000000003,2
1729690901.28004,1715,1729690901,125704704,base_link,0,1,33.6371299,72.9912724,512.0061423378736,0.9840639999999999,0.0,0.0,0.0,0.9840639999999999,0.0,0.0,0.0,1.8117160000000003,2
1729690901.3798535,1716,1729690901,325693184,base_link,0,1,33.6371298,72.9912725,511.9961421220931,0.982081,0.0,0.0,0.0,0.982081,0.0,0.0,0.0,1.8063360000000002,2
1729690901.4804358,1717,1729690901,325693184,base_link,0,1,33.6371298,72.9912725,511.9961421220931,0.982081,0.0,0.0,0.0,0.982081,0.0,0.0,0.0,1.8063360000000002,2
1729690901.580074,1718,1729690901,525682432,base_link,0,1,33.6371297,72.9912725,511.98614150912806,0.9801,0.0,0.0,0.0,0.9801,0.0,0.0,0.0,1.8009640000000002,2
1729690901.6823096,1719,1729690901,525670400,base_link,0,1,33.6371297,72.9912725,511.98614150912806,0.9801,0.0,0.0,0.0,0.9801,0.0,0.0,0.0,1.8009640000000002,2
1729690901.7792125,1720,1729690901,725670400,base_link,0,1,33.6371297,72.9912724,511.97614111194343,0.978121,0.0,0.0,0.0,0.978121,0.0,0.0,0.0,1.7956000000000003,2
1729690901.8761008,1721,1729690901,725666560,base_link,0,1,33.6371297,72.9912724,511.97614111194343,0.978121,0.0,0.0,0.0,0.978121,0.0,0.0,0.0,1.7956000000000003,2
1729690901.97368,1722,1729690901,925666560,base_link,0,1,33.6371297,72.9912724,511.94614111194335,0.976144,0.0,0.0,0.0,0.976144,0.0,0.0,0.0,1.792921,2
1729690902.0731218,1723,1729690901,925662720,base_link,0,1,33.6371297,72.9912724,511.94614111194335,0.976144,0.0,0.0,0.0,0.976144,0.0,0.0,0.0,1.792921,2
1729690902.1732385,1724,1729690902,127658624,base_link,0,1,33.6371297,72.9912723,511.92614071475884,0.974169,0.0,0.0,0.0,0.974169,0.0,0.0,0.0,1.7848960000000003,2
1729690902.2732818,1725,1729690902,127652736,base_link,0,1,33.6371297,72.9912723,511.92614071475884,0.974169,0.0,0.0,0.0,0.974169,0.0,0.0,0.0,1.7848960000000003,2
1729690902.3762543,1726,1729690902,327644544,base_link,0,1,33.6371296,72.9912723,511.91614010179387,0.972196,0.0,0.0,0.0,0.972196,0.0,0.0,0.0,1.7795560000000001,2
1729690902.4756327,1727,1729690902,327644544,base_link,0,1,33.6371296,72.9912723,511.91614010179387,0.972196,0.0,0.0,0.0,0.972196,0.0,0.0,0.0,1.7795560000000001,2
1729690902.5728614,1728,1729690902,527638400,base_link,0,1,33.6371295,72.9912722,511.90613909164455,0.970225,0.0,0.0,0.0,0.970225,0.0,0.0,0.0,1.7742240000000002,2
1729690902.6731958,1729,1729690902,527627392,base_link,0,1,33.6371295,72.9912722,511.90613909164455,0.970225,0.0,0.0,0.0,0.970225,0.0,0.0,0.0,1.7742240000000002,2
1729690902.7753136,1730,1729690902,727625344,base_link,0,1,33.6371295,72.991272,511.8861382972757,0.966289,0.0,0.0,0.0,0.966289,0.0,0.0,0.0,1.7689000000000001,2
1729690902.872218,1731,1729690902,727618432,base_link,0,1,33.6371295,72.991272,511.8861382972757,0.966289,0.0,0.0,0.0,0.966289,0.0,0.0,0.0,1.7689000000000001,2
1729690902.9782653,1732,1729690902,927605376,base_link,0,1,33.6371295,72.9912719,511.8861379000913,0.966289,0.0,0.0,0.0,0.966289,0.0,0.0,0.0,1.7635840000000003,2
1729690903.0727777,1733,1729690902,927605376,base_link,0,1,33.6371295,72.9912719,511.8861379000913,0.966289,0.0,0.0,0.0,0.966289,0.0,0.0,0.0,1.7635840000000003,2
1729690903.1754112,1734,1729690903,127596160,base_link,0,1,33.6371296,72.9912718,511.8861381158716,0.964324,0.0,0.0,0.0,0.964324,0.0,0.0,0.0,1.7582760000000002,2
1729690903.2751126,1735,1729690903,127596160,base_link,0,1,33.6371296,72.9912718,511.8861381158716,0.964324,0.0,0.0,0.0,0.964324,0.0,0.0,0.0,1.7582760000000002,2
1729690903.3724928,1736,1729690903,327589504,base_link,0,1,33.6371298,72.9912717,511.88613894461656,0.964324,0.0,0.0,0.0,0.964324,0.0,0.0,0.0,1.752976,2
1729690903.4741232,1737,1729690903,327582592,base_link,0,1,33.6371298,72.9912717,511.88613894461656,0.964324,0.0,0.0,0.0,0.964324,0.0,0.0,0.0,1.752976,2
1729690903.5726523,1738,1729690903,527577728,base_link,0,1,33.6371298,72.9912716,511.8661385474321,0.962361,0.0,0.0,0.0,0.962361,0.0,0.0,0.0,1.7476840000000002,2
1729690903.6716604,1739,1729690903,527571840,base_link,0,1,33.6371298,72.9912716,511.8661385474321,0.962361,0.0,0.0,0.0,0.962361,0.0,0.0,0.0,1.7476840000000002,2
1729690903.771726,1740,1729690903,727568000,base_link,0,1,33.6371299,72.9912716,511.866139160397,0.962361,0.0,0.0,0.0,0.962361,0.0,0.0,0.0,1.7424000000000002,2
1729690903.8722398,1741,1729690903,727565696,base_link,0,1,33.6371299,72.9912716,511.866139160397,0.962361,0.0,0.0,0.0,0.962361,0.0,0.0,0.0,1.7424000000000002,2
1729690903.974432,1742,1729690903,927560832,base_link,0,1,33.63713,72.9912716,511.84613977336187,0.9603999999999999,0.0,0.0,0.0,0.9603999999999999,0.0,0.0,0.0,1.739761,2
1729690904.0728316,1743,1729690903,927554944,base_link,0,1,33.63713,72.9912716,511.84613977336187,0.9603999999999999,0.0,0.0,0.0,0.9603999999999999,0.0,0.0,0.0,1.739761,2
1729690904.1767607,1744,1729690904,127545728,base_link,0,1,33.63713,72.9912715,511.83613937617724,0.9603999999999999,0.0,0.0,0.0,0.9603999999999999,0.0,0.0,0.0,1.734489,2
1729690904.2735891,1745,1729690904,127545728,base_link,0,1,33.63713,72.9912715,511.83613937617724,0.9603999999999999,0.0,0.0,0.0,0.9603999999999999,0.0,0.0,0.0,1.734489,2
1729690904.374046,1746,1729690904,327541632,base_link,0,1,33.63713,72.9912714,511.8561389789928,0.9603999999999999,0.0,0.0,0.0,0.9603999999999999,0.0,0.0,0.0,1.731856,2
1729690904.471883,1747,1729690904,327539072,base_link,0,1,33.63713,72.9912714,511.8561389789928,0.9603999999999999,0.0,0.0,0.0,0.9603999999999999,0.0,0.0,0.0,1.731856,2
1729690904.5727108,1748,1729690904,527532928,base_link,0,1,33.6371301,72.9912711,511.85613840040423,0.9603999999999999,0.0,0.0,0.0,0.9603999999999999,0.0,0.0,0.0,1.731856,2
1729690904.6741858,1749,1729690904,527527040,base_link,0,1,33.6371301,72.9912711,511.85613840040423,0.9603999999999999,0.0,0.0,0.0,0.9603999999999999,0.0,0.0,0.0,1.731856,2
1729690904.7960997,1750,1729690904,727517568,base_link,0,1,33.6371301,72.9912709,511.8661376060353,0.9603999999999999,0.0,0.0,0.0,0.9603999999999999,0.0,0.0,0.0,1.731856,2
1729690904.8823888,1751,1729690904,727510912,base_link,0,1,33.6371301,72.9912709,511.8661376060353,0.9603999999999999,0.0,0.0,0.0,0.9603999999999999,0.0,0.0,0.0,1.731856,2
1729690904.9853048,1752,1729690904,927510912,base_link,0,1,33.63713,72.9912708,511.87613659588624,0.962361,0.0,0.0,0.0,0.962361,0.0,0.0,0.0,1.731856,2
1729690905.079169,1753,1729690904,927510912,base_link,0,1,33.63713,72.9912708,511.87613659588624,0.962361,0.0,0.0,0.0,0.962361,0.0,0.0,0.0,1.731856,2
1729690905.1805322,1754,1729690905,127483520,base_link,0,1,33.63713,72.9912707,511.87613619870194,0.962361,0.0,0.0,0.0,0.962361,0.0,0.0,0.0,1.7292249999999998,2
1729690905.2708023,1755,1729690905,127483520,base_link,0,1,33.63713,72.9912707,511.87613619870194,0.962361,0.0,0.0,0.0,0.962361,0.0,0.0,0.0,1.7292249999999998,2
1729690905.3722916,1756,1729690905,327470208,base_link,0,1,33.6371299,72.9912708,511.8661359829217,0.9603999999999999,0.0,0.0,0.0,0.9603999999999999,0.0,0.0,0.0,1.7239689999999999,2
1729690905.4710114,1757,1729690905,327470208,base_link,0,1,33.6371299,72.9912708,511.8661359829217,0.9603999999999999,0.0,0.0,0.0,0.9603999999999999,0.0,0.0,0.0,1.7239689999999999,2
1729690905.5707588,1758,1729690905,527470464,base_link,0,1,33.6371298,72.9912709,511.86613576714154,0.9603999999999999,0.0,0.0,0.0,0.9603999999999999,0.0,0.0,0.0,1.7213440000000002,2
1729690905.6758926,1759,1729690905,527462528,base_link,0,1,33.6371298,72.9912709,511.86613576714154,0.9603999999999999,0.0,0.0,0.0,0.9603999999999999,0.0,0.0,0.0,1.7213440000000002,2
1729690905.7778459,1760,1729690905,727459712,base_link,0,1,33.6371298,72.9912711,511.8461365615102,0.9603999999999999,0.0,0.0,0.0,0.9603999999999999,0.0,0.0,0.0,1.718721,2
1729690905.872896,1761,1729690905,727459712,base_link,0,1,33.6371298,72.9912711,511.8461365615102,0.9603999999999999,0.0,0.0,0.0,0.9603999999999999,0.0,0.0,0.0,1.718721,2
1729690905.9758265,1762,1729690905,927454080,base_link,0,1,33.6371297,72.9912712,511.83613634572987,0.958441,0.0,0.0,0.0,0.958441,0.0,0.0,0.0,1.7134809999999998,2
1729690906.076013,1763,1729690905,927446400,base_link,0,1,33.6371297,72.9912712,511.83613634572987,0.958441,0.0,0.0,0.0,0.958441,0.0,0.0,0.0,1.7134809999999998,2
1729690906.177696,1764,1729690906,127435648,base_link,0,1,33.6371296,72.9912713,511.8161361299497,0.958441,0.0,0.0,0.0,0.958441,0.0,0.0,0.0,1.7108640000000002,2
1729690906.2749805,1765,1729690906,127435648,base_link,0,1,33.6371296,72.9912713,511.8161361299497,0.958441,0.0,0.0,0.0,0.958441,0.0,0.0,0.0,1.7108640000000002,2
1729690906.373488,1766,1729690906,327428480,base_link,0,1,33.6371295,72.9912713,511.8161355169853,0.956484,0.0,0.0,0.0,0.956484,0.0,0.0,0.0,1.708249,2
1729690906.4750276,1767,1729690906,327422848,base_link,0,1,33.6371295,72.9912713,511.8161355169853,0.956484,0.0,0.0,0.0,0.956484,0.0,0.0,0.0,1.708249,2
1729690906.5775385,1768,1729690906,527417216,base_link,0,1,33.6371293,72.9912713,511.8261342910567,0.956484,0.0,0.0,0.0,0.956484,0.0,0.0,0.0,1.7056360000000002,2
1729690906.6750124,1769,1729690906,527406720,base_link,0,1,33.6371293,72.9912713,511.8261342910567,0.956484,0.0,0.0,0.0,0.956484,0.0,0.0,0.0,1.7056360000000002,2
1729690906.7749937,1770,1729690906,727404160,base_link,0,1,33.6371292,72.9912714,511.8161340752767,0.956484,0.0,0.0,0.0,0.956484,0.0,0.0,0.0,1.7056360000000002,2
1729690906.8748965,1771,1729690906,727399040,base_link,0,1,33.6371292,72.9912714,511.8161340752767,0.956484,0.0,0.0,0.0,0.956484,0.0,0.0,0.0,1.7056360000000002,2
1729690906.9720054,1772,1729690906,927393408,base_link,0,1,33.6371291,72.9912715,511.82613385949674,0.954529,0.0,0.0,0.0,0.954529,0.0,0.0,0.0,1.7056360000000002,2
1729690907.0752525,1773,1729690906,927386496,base_link,0,1,33.6371291,72.9912715,511.82613385949674,0.954529,0.0,0.0,0.0,0.954529,0.0,0.0,0.0,1.7056360000000002,2
1729690907.1724167,1774,1729690907,127378304,base_link,0,1,33.637129,72.9912716,511.8061336437168,0.954529,0.0,0.0,0.0,0.954529,0.0,0.0,0.0,1.7056360000000002,2
1729690907.2738605,1775,1729690907,127373440,base_link,0,1,33.637129,72.9912716,511.8061336437168,0.954529,0.0,0.0,0.0,0.954529,0.0,0.0,0.0,1.7056360000000002,2
1729690907.372598,1776,1729690907,327368064,base_link,0,1,33.637129,72.9912716,511.7961336437168,0.952576,0.0,0.0,0.0,0.952576,0.0,0.0,0.0,1.7030249999999998,2
1729690907.4741652,1777,1729690907,327362688,base_link,0,1,33.637129,72.9912716,511.7961336437168,0.952576,0.0,0.0,0.0,0.952576,0.0,0.0,0.0,1.7030249999999998,2
1729690907.5784497,1778,1729690907,527352192,base_link,0,1,33.637129,72.9912715,511.79613324653275,0.952576,0.0,0.0,0.0,0.952576,0.0,0.0,0.0,1.7030249999999998,2
1729690907.6756387,1779,1729690907,527348864,base_link,0,1,33.637129,72.9912715,511.79613324653275,0.952576,0.0,0.0,0.0,0.952576,0.0,0.0,0.0,1.7030249999999998,2
1729690907.7730587,1780,1729690907,727348864,base_link,0,1,33.6371289,72.9912715,511.7761326335688,0.9506249999999999,0.0,0.0,0.0,0.9506249999999999,0.0,0.0,0.0,1.7004160000000001,2
1729690907.8736258,1781,1729690907,727345024,base_link,0,1,33.6371289,72.9912715,511.7761326335688,0.9506249999999999,0.0,0.0,0.0,0.9506249999999999,0.0,0.0,0.0,1.7004160000000001,2
1729690907.981513,1782,1729690907,927330176,base_link,0,1,33.6371288,72.9912715,511.7761320206049,0.9506249999999999,0.0,0.0,0.0,0.9506249999999999,0.0,0.0,0.0,1.697809,2
1729690908.0757196,1783,1729690907,927330176,base_link,0,1,33.6371288,72.9912715,511.7761320206049,0.9506249999999999,0.0,0.0,0.0,0.9506249999999999,0.0,0.0,0.0,1.697809,2
1729690908.1747737,1784,1729690908,127323520,base_link,0,1,33.6371288,72.9912715,511.7661320206049,0.9506249999999999,0.0,0.0,0.0,0.9506249999999999,0.0,0.0,0.0,1.6952040000000002,2
1729690908.274927,1785,1729690908,127316096,base_link,0,1,33.6371288,72.9912715,511.7661320206049,0.9506249999999999,0.0,0.0,0.0,0.9506249999999999,0.0,0.0,0.0,1.6952040000000002,2
1729690908.374766,1786,1729690908,327310720,base_link,0,1,33.6371287,72.9912716,511.7661318048251,0.9506249999999999,0.0,0.0,0.0,0.9506249999999999,0.0,0.0,0.0,1.6926009999999998,2
1729690908.4726994,1787,1729690908,327304064,base_link,0,1,33.6371287,72.9912716,511.7661318048251,0.9506249999999999,0.0,0.0,0.0,0.9506249999999999,0.0,0.0,0.0,1.6926009999999998,2
1729690908.5776358,1788,1729690908,527293568,base_link,0,1,33.6371287,72.9912716,511.78613180482506,0.948676,0.0,0.0,0.0,0.948676,0.0,0.0,0.0,1.6900000000000002,2
1729690908.674699,1789,1729690908,527293568,base_link,0,1,33.6371287,72.9912716,511.78613180482506,0.948676,0.0,0.0,0.0,0.948676,0.0,0.0,0.0,1.6900000000000002,2
1729690908.7751424,1790,1729690908,727288960,base_link,0,1,33.6371286,72.9912717,511.77613158904524,0.948676,0.0,0.0,0.0,0.948676,0.0,0.0,0.0,1.687401,2
1729690908.8748183,1791,1729690908,727282560,base_link,0,1,33.6371286,72.9912717,511.77613158904524,0.948676,0.0,0.0,0.0,0.948676,0.0,0.0,0.0,1.687401,2
1729690908.9775805,1792,1729690908,927274112,base_link,0,1,33.6371286,72.9912716,511.76613119186135,0.948676,0.0,0.0,0.0,0.948676,0.0,0.0,0.0,1.6848040000000002,2
1729690909.0826626,1793,1729690908,927265408,base_link,0,1,33.6371286,72.9912716,511.76613119186135,0.948676,0.0,0.0,0.0,0.948676,0.0,0.0,0.0,1.6848040000000002,2
1729690909.1874595,1794,1729690909,127261568,base_link,0,1,33.6371286,72.9912717,511.77613158904524,0.948676,0.0,0.0,0.0,0.948676,0.0,0.0,0.0,1.6822089999999998,2
1729690909.2807198,1795,1729690909,127255936,base_link,0,1,33.6371286,72.9912717,511.77613158904524,0.948676,0.0,0.0,0.0,0.948676,0.0,0.0,0.0,1.6822089999999998,2
1729690909.3835225,1796,1729690909,327251072,base_link,0,1,33.6371286,72.9912717,511.76613158904524,0.948676,0.0,0.0,0.0,0.948676,0.0,0.0,0.0,1.679616,2
1729690909.484281,1797,1729690909,327253120,base_link,0,1,33.6371286,72.9912717,511.76613158904524,0.948676,0.0,0.0,0.0,0.948676,0.0,0.0,0.0,1.679616,2
1729690909.5808928,1798,1729690909,527241344,base_link,0,1,33.6371286,72.9912718,511.75613198622926,0.948676,0.0,0.0,0.0,0.948676,0.0,0.0,0.0,1.6770249999999998,2
1729690909.6786323,1799,1729690909,527234944,base_link,0,1,33.6371286,72.9912718,511.75613198622926,0.948676,0.0,0.0,0.0,0.948676,0.0,0.0,0.0,1.6770249999999998,2
1729690909.772834,1800,1729690909,727234944,base_link,0,1,33.6371287,72.9912719,511.7361329963771,0.948676,0.0,0.0,0.0,0.948676,0.0,0.0,0.0,1.674436,2
1729690909.874356,1801,1729690909,727234944,base_link,0,1,33.6371287,72.9912719,511.7361329963771,0.948676,0.0,0.0,0.0,0.948676,0.0,0.0,0.0,1.674436,2
1729690909.9749599,1802,1729690909,927229056,base_link,0,1,33.6371289,72.991272,511.7061346194892,0.948676,0.0,0.0,0.0,0.948676,0.0,0.0,0.0,1.674436,2
1729690910.0720763,1803,1729690909,927222912,base_link,0,1,33.6371289,72.991272,511.7061346194892,0.948676,0.0,0.0,0.0,0.948676,0.0,0.0,0.0,1.674436,2
1729690910.1740205,1804,1729690910,127217536,base_link,0,1,33.637129,72.991272,511.6961352324534,0.9506249999999999,0.0,0.0,0.0,0.9506249999999999,0.0,0.0,0.0,1.674436,2
1729690910.2747297,1805,1729690910,127212160,base_link,0,1,33.637129,72.991272,511.6961352324534,0.9506249999999999,0.0,0.0,0.0,0.9506249999999999,0.0,0.0,0.0,1.674436,2
1729690910.3745816,1806,1729690910,327206528,base_link,0,1,33.6371291,72.991272,511.66613584541767,0.9506249999999999,0.0,0.0,0.0,0.9506249999999999,0.0,0.0,0.0,1.671849,2
1729690910.4766319,1807,1729690910,327199872,base_link,0,1,33.6371291,72.991272,511.66613584541767,0.9506249999999999,0.0,0.0,0.0,0.9506249999999999,0.0,0.0,0.0,1.671849,2
1729690910.5779998,1808,1729690910,527192704,base_link,0,1,33.6371292,72.991272,511.636136458382,0.9506249999999999,0.0,0.0,0.0,0.9506249999999999,0.0,0.0,0.0,1.669264,2
1729690910.6742175,1809,1729690910,527187072,base_link,0,1,33.6371292,72.991272,511.636136458382,0.9506249999999999,0.0,0.0,0.0,0.9506249999999999,0.0,0.0,0.0,1.669264,2
1729690910.7716763,1810,1729690910,727181440,base_link,0,1,33.6371293,72.991272,511.6361370713465,0.9506249999999999,0.0,0.0,0.0,0.9506249999999999,0.0,0.0,0.0,1.6666809999999999,2
1729690910.8729997,1811,1729690910,727174784,base_link,0,1,33.6371293,72.991272,511.6361370713465,0.9506249999999999,0.0,0.0,0.0,0.9506249999999999,0.0,0.0,0.0,1.6666809999999999,2
1729690910.9763978,1812,1729690910,927170176,base_link,0,1,33.6371293,72.9912721,511.6361374685309,0.9506249999999999,0.0,0.0,0.0,0.9506249999999999,0.0,0.0,0.0,1.6641000000000001,2
1729690911.0716703,1813,1729690910,927170176,base_link,0,1,33.6371293,72.9912721,511.6361374685309,0.9506249999999999,0.0,0.0,0.0,0.9506249999999999,0.0,0.0,0.0,1.6641000000000001,2
1729690911.1730475,1814,1729690911,127168384,base_link,0,1,33.6371293,72.9912721,511.6261374685309,0.9506249999999999,0.0,0.0,0.0,0.9506249999999999,0.0,0.0,0.0,1.6615209999999998,2
1729690911.27208,1815,1729690911,127165568,base_link,0,1,33.6371293,72.9912721,511.6261374685309,0.9506249999999999,0.0,0.0,0.0,0.9506249999999999,0.0,0.0,0.0,1.6615209999999998,2
1729690911.3731742,1816,1729690911,327157632,base_link,0,1,33.6371294,72.991272,511.61613768431107,0.9506249999999999,0.0,0.0,0.0,0.9506249999999999,0.0,0.0,0.0,1.6563689999999998,2
1729690911.470675,1817,1729690911,327155328,base_link,0,1,33.6371294,72.991272,511.61613768431107,0.9506249999999999,0.0,0.0,0.0,0.9506249999999999,0.0,0.0,0.0,1.6563689999999998,2
1729690911.575504,1818,1729690911,527151488,base_link,0,1,33.6371295,72.9912719,511.6161379000913,0.9506249999999999,0.0,0.0,0.0,0.9506249999999999,0.0,0.0,0.0,1.6563689999999998,2
1729690911.6745274,1819,1729690911,527144576,base_link,0,1,33.6371295,72.9912719,511.6161379000913,0.9506249999999999,0.0,0.0,0.0,0.9506249999999999,0.0,0.0,0.0,1.6563689999999998,2
1729690911.7742965,1820,1729690911,727139456,base_link,0,1,33.6371296,72.9912718,511.6161381158716,0.9506249999999999,0.0,0.0,0.0,0.9506249999999999,0.0,0.0,0.0,1.6563689999999998,2
1729690911.8716156,1821,1729690911,727137408,base_link,0,1,33.6371296,72.9912718,511.6161381158716,0.9506249999999999,0.0,0.0,0.0,0.9506249999999999,0.0,0.0,0.0,1.6563689999999998,2
1729690911.9756181,1822,1729690911,927133568,base_link,0,1,33.6371296,72.9912718,511.6161381158716,0.952576,0.0,0.0,0.0,0.952576,0.0,0.0,0.0,1.6563689999999998,2
1729690912.074215,1823,1729690911,927127168,base_link,0,1,33.6371296,72.9912718,511.6161381158716,0.952576,0.0,0.0,0.0,0.952576,0.0,0.0,0.0,1.6563689999999998,2
1729690912.1743548,1824,1729690912,127123072,base_link,0,1,33.6371296,72.9912719,511.61613851305594,0.954529,0.0,0.0,0.0,0.954529,0.0,0.0,0.0,1.6589440000000002,2
1729690912.2745667,1825,1729690912,127117952,base_link,0,1,33.6371296,72.9912719,511.61613851305594,0.954529,0.0,0.0,0.0,0.954529,0.0,0.0,0.0,1.6589440000000002,2
1729690912.372662,1826,1729690912,327113088,base_link,0,1,33.6371295,72.991272,511.59613829727573,0.956484,0.0,0.0,0.0,0.956484,0.0,0.0,0.0,1.6615209999999998,2
1729690912.474379,1827,1729690912,327109504,base_link,0,1,33.6371295,72.991272,511.59613829727573,0.956484,0.0,0.0,0.0,0.956484,0.0,0.0,0.0,1.6615209999999998,2
1729690912.5767684,1828,1729690912,527098240,base_link,0,1,33.6371294,72.991272,511.586137684311,0.958441,0.0,0.0,0.0,0.958441,0.0,0.0,0.0,1.6615209999999998,2
1729690912.6719506,1829,1729690912,527098240,base_link,0,1,33.6371294,72.991272,511.586137684311,0.958441,0.0,0.0,0.0,0.958441,0.0,0.0,0.0,1.6615209999999998,2
1729690912.7746608,1830,1729690912,727092096,base_link,0,1,33.6371294,72.9912721,511.5661380814954,0.9603999999999999,0.0,0.0,0.0,0.9603999999999999,0.0,0.0,0.0,1.6641000000000001,2
1729690912.87341,1831,1729690912,727088768,base_link,0,1,33.6371294,72.9912721,511.5661380814954,0.9603999999999999,0.0,0.0,0.0,0.9603999999999999,0.0,0.0,0.0,1.6641000000000001,2
1729690912.9790998,1832,1729690912,927074944,base_link,0,1,33.6371295,72.9912721,511.53613869446013,0.962361,0.0,0.0,0.0,0.962361,0.0,0.0,0.0,1.6641000000000001,2
1729690913.0744119,1833,1729690912,927074944,base_link,0,1,33.6371295,72.9912721,511.53613869446013,0.962361,0.0,0.0,0.0,0.962361,0.0,0.0,0.0,1.6641000000000001,2
1729690913.1796222,1834,1729690913,127069056,base_link,0,1,33.6371294,72.9912725,511.5161396702332,0.962361,0.0,0.0,0.0,0.962361,0.0,0.0,0.0,1.6641000000000001,2
1729690913.2738926,1835,1729690913,127069056,base_link,0,1,33.6371294,72.9912725,511.5161396702332,0.962361,0.0,0.0,0.0,0.962361,0.0,0.0,0.0,1.6641000000000001,2
1729690913.3800173,1836,1729690913,327058048,base_link,0,1,33.6371289,72.9912733,511.51613978288526,0.962361,0.0,0.0,0.0,0.962361,0.0,0.0,0.0,1.6615209999999998,2
1729690913.482437,1837,1729690913,327059072,base_link,0,1,33.6371289,72.9912733,511.51613978288526,0.962361,0.0,0.0,0.0,0.962361,0.0,0.0,0.0,1.6615209999999998,2
1729690913.5709767,1838,1729690913,527059072,base_link,0,1,33.6371279,72.9912748,511.49613961100556,0.962361,0.0,0.0,0.0,0.962361,0.0,0.0,0.0,1.6615209999999998,2
1729690913.6728346,1839,1729690913,527059072,base_link,0,1,33.6371279,72.9912748,511.49613961100556,0.962361,0.0,0.0,0.0,0.962361,0.0,0.0,0.0,1.6615209999999998,2
1729690913.7830465,1840,1729690913,727059072,base_link,0,1,33.6371263,72.991277,511.50613854163186,0.9603999999999999,0.0,0.0,0.0,0.9603999999999999,0.0,0.0,0.0,1.6589440000000002,2
1729690913.877507,1841,1729690913,727056256,base_link,0,1,33.6371263,72.991277,511.50613854163186,0.9603999999999999,0.0,0.0,0.0,0.9603999999999999,0.0,0.0,0.0,1.6589440000000002,2
1729690913.9729953,1842,1729690913,927056256,base_link,0,1,33.6371245,72.9912798,511.4461386294386,0.9603999999999999,0.0,0.0,0.0,0.9603999999999999,0.0,0.0,0.0,1.6589440000000002,2
1729690914.0717213,1843,1729690913,927052928,base_link,0,1,33.6371245,72.9912798,511.4461386294386,0.9603999999999999,0.0,0.0,0.0,0.9603999999999999,0.0,0.0,0.0,1.6589440000000002,2
1729690914.1761303,1844,1729690914,127048576,base_link,0,1,33.6371227,72.9912825,511.3961383200648,0.958441,0.0,0.0,0.0,0.958441,0.0,0.0,0.0,1.6589440000000002,2
1729690914.273104,1845,1729690914,127043968,base_link,0,1,33.6371227,72.9912825,511.3961383200648,0.958441,0.0,0.0,0.0,0.958441,0.0,0.0,0.0,1.6589440000000002,2
1729690914.379626,1846,1729690914,327036544,base_link,0,1,33.6371216,72.9912844,511.35613912396434,0.956484,0.0,0.0,0.0,0.956484,0.0,0.0,0.0,1.6563689999999998,2
1729690914.471365,1847,1729690914,327036544,base_link,0,1,33.6371216,72.9912844,511.35613912396434,0.956484,0.0,0.0,0.0,0.956484,0.0,0.0,0.0,1.6563689999999998,2
1729690914.5720372,1848,1729690914,527030656,base_link,0,1,33.6371214,72.9912853,511.3261414726932,0.954529,0.0,0.0,0.0,0.954529,0.0,0.0,0.0,1.6563689999999998,2
1729690914.6747603,1849,1729690914,527028352,base_link,0,1,33.6371214,72.9912853,511.3261414726932,0.954529,0.0,0.0,0.0,0.954529,0.0,0.0,0.0,1.6563689999999998,2
1729690914.7771652,1850,1729690914,727024000,base_link,0,1,33.637122,72.991285,511.30614395892167,0.952576,0.0,0.0,0.0,0.952576,0.0,0.0,0.0,1.653796,2
1729690914.870639,1851,1729690914,727018624,base_link,0,1,33.637122,72.991285,511.30614395892167,0.952576,0.0,0.0,0.0,0.952576,0.0,0.0,0.0,1.653796,2
1729690914.9814122,1852,1729690914,927004032,base_link,0,1,33.6371233,72.9912836,511.32614636687254,0.952576,0.0,0.0,0.0,0.952576,0.0,0.0,0.0,1.653796,2
1729690915.0705414,1853,1729690914,927004032,base_link,0,1,33.6371233,72.9912836,511.32614636687254,0.952576,0.0,0.0,0.0,0.952576,0.0,0.0,0.0,1.653796,2
1729690915.1706107,1854,1729690915,127001472,base_link,0,1,33.6371254,72.9912814,511.3161505010688,0.9506249999999999,0.0,0.0,0.0,0.9506249999999999,0.0,0.0,0.0,1.653796,2
1729690915.2729187,1855,1729690915,126995840,base_link,0,1,33.6371254,72.9912814,511.3161505010688,0.9506249999999999,0.0,0.0,0.0,0.9506249999999999,0.0,0.0,0.0,1.653796,2
1729690915.372845,1856,1729690915,326989184,base_link,0,1,33.637128,72.9912782,511.3261537282533,0.948676,0.0,0.0,0.0,0.948676,0.0,0.0,0.0,1.653796,2
1729690915.472825,1857,1729690915,326983552,base_link,0,1,33.637128,72.9912782,511.3261537282533,0.948676,0.0,0.0,0.0,0.948676,0.0,0.0,0.0,1.653796,2
1729690915.5745592,1858,1729690915,526977152,base_link,0,1,33.6371312,72.9912742,511.3161574557669,0.9467289999999999,0.0,0.0,0.0,0.9467289999999999,0.0,0.0,0.0,1.6512249999999997,2
1729690915.6724713,1859,1729690915,526971520,base_link,0,1,33.6371312,72.9912742,511.3161574557669,0.9467289999999999,0.0,0.0,0.0,0.9467289999999999,0.0,0.0,0.0,1.6512249999999997,2
1729690915.7796118,1860,1729690915,726957952,base_link,0,1,33.637135,72.9912694,511.31616168361825,0.9428409999999999,0.0,0.0,0.0,0.9428409999999999,0.0,0.0,0.0,1.6486560000000001,2
1729690915.8729858,1861,1729690915,726957952,base_link,0,1,33.637135,72.9912694,511.31616168361825,0.9428409999999999,0.0,0.0,0.0,0.9428409999999999,0.0,0.0,0.0,1.6486560000000001,2
1729690915.9716725,1862,1729690915,926952832,base_link,0,1,33.637139,72.9912643,511.3561659458725,0.9409,0.0,0.0,0.0,0.9409,0.0,0.0,0.0,1.6486560000000001,2
1729690916.073251,1863,1729690915,926946432,base_link,0,1,33.637139,72.9912643,511.3561659458725,0.9409,0.0,0.0,0.0,0.9409,0.0,0.0,0.0,1.6486560000000001,2
1729690916.1715994,1864,1729690916,126943104,base_link,0,1,33.6371432,72.9912592,511.41617143409445,0.9409,0.0,0.0,0.0,0.9409,0.0,0.0,0.0,1.6486560000000001,2
1729690916.273365,1865,1729690916,126940288,base_link,0,1,33.6371432,72.9912592,511.41617143409445,0.9409,0.0,0.0,0.0,0.9409,0.0,0.0,0.0,1.6486560000000001,2
1729690916.3737397,1866,1729690916,326934144,base_link,0,1,33.6371472,72.9912541,511.4761756964024,0.9409,0.0,0.0,0.0,0.9409,0.0,0.0,0.0,1.6460889999999997,2
1729690916.4754446,1867,1729690916,326930560,base_link,0,1,33.6371472,72.9912541,511.4761756964024,0.9409,0.0,0.0,0.0,0.9409,0.0,0.0,0.0,1.6460889999999997,2
1729690916.5755274,1868,1729690916,526924416,base_link,0,1,33.6371511,72.9912489,511.5161789485732,0.9409,0.0,0.0,0.0,0.9409,0.0,0.0,0.0,1.643524,2
1729690916.6743364,1869,1729690916,526917760,base_link,0,1,33.6371511,72.9912489,511.5161789485732,0.9409,0.0,0.0,0.0,0.9409,0.0,0.0,0.0,1.643524,2
1729690916.7793179,1870,1729690916,726907008,base_link,0,1,33.6371549,72.9912437,511.506181587791,0.9389609999999999,0.0,0.0,0.0,0.9389609999999999,0.0,0.0,0.0,1.640961,2
1729690916.8719103,1871,1729690916,726907008,base_link,0,1,33.6371549,72.9912437,511.506181587791,0.9389609999999999,0.0,0.0,0.0,0.9389609999999999,0.0,0.0,0.0,1.640961,2
1729690916.9857442,1872,1729690916,926898816,base_link,0,1,33.6371587,72.9912386,511.4861846242177,0.9389609999999999,0.0,0.0,0.0,0.9389609999999999,0.0,0.0,0.0,1.6358409999999999,2
1729690917.0809605,1873,1729690916,926894464,base_link,0,1,33.6371587,72.9912386,511.4861846242177,0.9389609999999999,0.0,0.0,0.0,0.9389609999999999,0.0,0.0,0.0,1.6358409999999999,2
1729690917.1839862,1874,1729690917,126898816,base_link,0,1,33.6371624,72.9912332,511.5161858561183,0.937024,0.0,0.0,0.0,0.937024,0.0,0.0,0.0,1.633284,2
1729690917.2724648,1875,1729690917,126898816,base_link,0,1,33.6371624,72.9912332,511.5161858561183,0.937024,0.0,0.0,0.0,0.937024,0.0,0.0,0.0,1.633284,2
1729690917.381406,1876,1729690917,326875776,base_link,0,1,33.6371659,72.9912281,511.5461870536489,0.935089,0.0,0.0,0.0,0.935089,0.0,0.0,0.0,1.6307289999999999,2
1729690917.4811435,1877,1729690917,326865792,base_link,0,1,33.6371659,72.9912281,511.5461870536489,0.935089,0.0,0.0,0.0,0.935089,0.0,0.0,0.0,1.6307289999999999,2
1729690917.5787623,1878,1729690917,526858368,base_link,0,1,33.6371692,72.991223,511.5661870252363,0.933156,0.0,0.0,0.0,0.933156,0.0,0.0,0.0,1.628176,2
1729690917.673929,1879,1729690917,526858368,base_link,0,1,33.6371692,72.991223,511.5661870252363,0.933156,0.0,0.0,0.0,0.933156,0.0,0.0,0.0,1.628176,2
1729690917.7796633,1880,1729690917,726852224,base_link,0,1,33.6371722,72.9912181,511.57618595227746,0.933156,0.0,0.0,0.0,0.933156,0.0,0.0,0.0,1.6256249999999999,2
1729690917.8739371,1881,1729690917,726852224,base_link,0,1,33.6371722,72.9912181,511.57618595227746,0.933156,0.0,0.0,0.0,0.933156,0.0,0.0,0.0,1.6256249999999999,2
1729690917.971124,1882,1729690917,926848896,base_link,0,1,33.6371751,72.9912133,511.5761846635376,0.931225,0.0,0.0,0.0,0.931225,0.0,0.0,0.0,1.6205289999999997,2
1729690918.0819972,1883,1729690917,926845568,base_link,0,1,33.6371751,72.9912133,511.5761846635376,0.931225,0.0,0.0,0.0,0.931225,0.0,0.0,0.0,1.6205289999999997,2
1729690918.17875,1884,1729690918,126840448,base_link,0,1,33.6371779,72.9912084,511.5761823646343,0.931225,0.0,0.0,0.0,0.931225,0.0,0.0,0.0,1.6154409999999997,2
1729690918.2710106,1885,1729690918,126840448,base_link,0,1,33.6371779,72.9912084,511.5761823646343,0.931225,0.0,0.0,0.0,0.931225,0.0,0.0,0.0,1.6154409999999997,2
1729690918.3782036,1886,1729690918,326835072,base_link,0,1,33.6371806,72.9912041,511.59618183590163,0.9292959999999999,0.0,0.0,0.0,0.9292959999999999,0.0,0.0,0.0,1.6129,2
1729690918.4711854,1887,1729690918,326835072,base_link,0,1,33.6371806,72.9912041,511.59618183590163,0.9292959999999999,0.0,0.0,0.0,0.9292959999999999,0.0,0.0,0.0,1.6129,2
1729690918.5708165,1888,1729690918,526832256,base_link,0,1,33.6371829,72.9912004,511.6261812383972,0.9273689999999999,0.0,0.0,0.0,0.9273689999999999,0.0,0.0,0.0,1.6078240000000001,2
1729690918.7043507,1889,1729690918,526828416,base_link,0,1,33.6371829,72.9912004,511.6261812383972,0.9273689999999999,0.0,0.0,0.0,0.9273689999999999,0.0,0.0,0.0,1.6078240000000001,2
1729690918.7738209,1890,1729690918,726824064,base_link,0,1,33.6371848,72.9911975,511.6361813665008,0.9273689999999999,0.0,0.0,0.0,0.9273689999999999,0.0,0.0,0.0,1.6078240000000001,2
1729690918.875483,1891,1729690918,726819200,base_link,0,1,33.6371848,72.9911975,511.6361813665008,0.9273689999999999,0.0,0.0,0.0,0.9273689999999999,0.0,0.0,0.0,1.6078240000000001,2
1729690918.9730997,1892,1729690918,926813824,base_link,0,1,33.6371861,72.9911958,511.63618258301227,0.9254439999999999,0.0,0.0,0.0,0.9254439999999999,0.0,0.0,0.0,1.6078240000000001,2
1729690919.074988,1893,1729690918,926805376,base_link,0,1,33.6371861,72.9911958,511.63618258301227,0.9254439999999999,0.0,0.0,0.0,0.9254439999999999,0.0,0.0,0.0,1.6078240000000001,2
1729690919.1728578,1894,1729690919,126805120,base_link,0,1,33.6371868,72.991195,511.62618369635584,0.9254439999999999,0.0,0.0,0.0,0.9254439999999999,0.0,0.0,0.0,1.6078240000000001,2
1729690919.2701552,1895,1729690919,126798208,base_link,0,1,33.6371868,72.991195,511.62618369635584,0.9254439999999999,0.0,0.0,0.0,0.9254439999999999,0.0,0.0,0.0,1.6078240000000001,2
1729690919.374784,1896,1729690919,326792320,base_link,0,1,33.637187,72.9911953,511.59618611389504,0.9254439999999999,0.0,0.0,0.0,0.9254439999999999,0.0,0.0,0.0,1.6052889999999997,2
1729690919.4747624,1897,1729690919,326787456,base_link,0,1,33.637187,72.9911953,511.59618611389504,0.9254439999999999,0.0,0.0,0.0,0.9254439999999999,0.0,0.0,0.0,1.6052889999999997,2
1729690919.5778778,1898,1729690919,526780032,base_link,0,1,33.6371865,72.9911966,511.5461882124734,0.9235209999999999,0.0,0.0,0.0,0.9235209999999999,0.0,0.0,0.0,1.602756,2
1729690919.6748517,1899,1729690919,526780032,base_link,0,1,33.6371865,72.9911966,511.5461882124734,0.9235209999999999,0.0,0.0,0.0,0.9235209999999999,0.0,0.0,0.0,1.602756,2
1729690919.7749677,1900,1729690919,726774912,base_link,0,1,33.6371855,72.9911989,511.47619121805633,0.9216,0.0,0.0,0.0,0.9216,0.0,0.0,0.0,1.6002249999999998,2
1729690919.8714297,1901,1729690919,726769792,base_link,0,1,33.6371855,72.9911989,511.47619121805633,0.9216,0.0,0.0,0.0,0.9216,0.0,0.0,0.0,1.6002249999999998,2
1729690919.9739697,1902,1729690919,926764928,base_link,0,1,33.6371837,72.9912022,511.42619329169673,0.9216,0.0,0.0,0.0,0.9216,0.0,0.0,0.0,1.6002249999999998,2
1729690920.0901592,1903,1729690919,926761344,base_link,0,1,33.6371837,72.9912022,511.42619329169673,0.9216,0.0,0.0,0.0,0.9216,0.0,0.0,0.0,1.6002249999999998,2
1729690920.171728,1904,1729690920,126756736,base_link,0,1,33.6371813,72.9912064,511.3861952621711,0.9216,0.0,0.0,0.0,0.9216,0.0,0.0,0.0,1.597696,2
1729690920.2734914,1905,1729690920,126753152,base_link,0,1,33.6371813,72.9912064,511.3861952621711,0.9216,0.0,0.0,0.0,0.9216,0.0,0.0,0.0,1.597696,2
1729690920.3762698,1906,1729690920,326750592,base_link,0,1,33.6371783,72.9912112,511.35619593790864,0.919681,0.0,0.0,0.0,0.919681,0.0,0.0,0.0,1.597696,2
1729690920.4732144,1907,1729690920,326742656,base_link,0,1,33.6371783,72.9912112,511.35619593790864,0.919681,0.0,0.0,0.0,0.919681,0.0,0.0,0.0,1.597696,2
1729690920.574716,1908,1729690920,526740352,base_link,0,1,33.6371747,72.9912167,511.33619571610734,0.919681,0.0,0.0,0.0,0.919681,0.0,0.0,0.0,1.5951689999999998,2
1729690920.6745079,1909,1729690920,526736256,base_link,0,1,33.6371747,72.9912167,511.33619571610734,0.919681,0.0,0.0,0.0,0.919681,0.0,0.0,0.0,1.5951689999999998,2
1729690920.7810423,1910,1729690920,726720384,base_link,0,1,33.6371707,72.9912229,511.326195822736,0.919681,0.0,0.0,0.0,0.919681,0.0,0.0,0.0,1.5951689999999998,2
1729690920.878084,1911,1729690920,726716800,base_link,0,1,33.6371707,72.9912229,511.326195822736,0.919681,0.0,0.0,0.0,0.919681,0.0,0.0,0.0,1.5951689999999998,2
1729690920.9785943,1912,1729690920,926716800,base_link,0,1,33.6371666,72.9912295,511.3161969051642,0.9177639999999999,0.0,0.0,0.0,0.9177639999999999,0.0,0.0,0.0,1.5951689999999998,2
1729690921.081262,1913,1729690920,926695808,base_link,0,1,33.6371666,72.9912295,511.3161969051642,0.9177639999999999,0.0,0.0,0.0,0.9177639999999999,0.0,0.0,0.0,1.5951689999999998,2
1729690921.1795156,1914,1729690921,126689152,base_link,0,1,33.6371625,72.991236,511.30619759041747,0.9177639999999999,0.0,0.0,0.0,0.9177639999999999,0.0,0.0,0.0,1.5901209999999997,2
1729690921.278803,1915,1729690921,126684288,base_link,0,1,33.6371625,72.991236,511.30619759041747,0.9177639999999999,0.0,0.0,0.0,0.9177639999999999,0.0,0.0,0.0,1.5901209999999997,2
1729690921.3860724,1916,1729690921,326680704,base_link,0,1,33.6371585,72.9912425,511.2961988886644,0.9177639999999999,0.0,0.0,0.0,0.9177639999999999,0.0,0.0,0.0,1.5876000000000001,2
1729690921.4716394,1917,1729690921,326680704,base_link,0,1,33.6371585,72.9912425,511.2961988886644,0.9177639999999999,0.0,0.0,0.0,0.9177639999999999,0.0,0.0,0.0,1.5876000000000001,2
1729690921.5715048,1918,1729690921,526675840,base_link,0,1,33.6371547,72.9912489,511.3062010156899,0.9177639999999999,0.0,0.0,0.0,0.9177639999999999,0.0,0.0,0.0,1.5850809999999997,2
1729690921.6716323,1919,1729690921,526675840,base_link,0,1,33.6371547,72.9912489,511.3062010156899,0.9177639999999999,0.0,0.0,0.0,0.9177639999999999,0.0,0.0,0.0,1.5850809999999997,2
1729690921.7739427,1920,1729690921,726675840,base_link,0,1,33.6371513,72.9912553,511.33620559463424,0.9158489999999999,0.0,0.0,0.0,0.9158489999999999,0.0,0.0,0.0,1.582564,2
1729690921.871709,1921,1729690921,726669440,base_link,0,1,33.6371513,72.9912553,511.33620559463424,0.9158489999999999,0.0,0.0,0.0,0.9158489999999999,0.0,0.0,0.0,1.582564,2
1729690921.9790232,1922,1729690921,926662016,base_link,0,1,33.6371481,72.9912618,511.3662117967309,0.9158489999999999,0.0,0.0,0.0,0.9158489999999999,0.0,0.0,0.0,1.5850809999999997,2
1729690922.0718613,1923,1729690921,926662016,base_link,0,1,33.6371481,72.9912618,511.3662117967309,0.9158489999999999,0.0,0.0,0.0,0.9158489999999999,0.0,0.0,0.0,1.5850809999999997,2
1729690922.1713076,1924,1729690922,126657408,base_link,0,1,33.6371454,72.9912684,511.36622146091145,0.9158489999999999,0.0,0.0,0.0,0.9158489999999999,0.0,0.0,0.0,1.5850809999999997,2
1729690922.2705517,1925,1729690922,126654336,base_link,0,1,33.6371454,72.9912684,511.36622146091145,0.9158489999999999,0.0,0.0,0.0,0.9158489999999999,0.0,0.0,0.0,1.5850809999999997,2
1729690922.3734257,1926,1729690922,326652544,base_link,0,1,33.6371428,72.9912748,511.3462309436992,0.9177639999999999,0.0,0.0,0.0,0.9177639999999999,0.0,0.0,0.0,1.5850809999999997,2
1729690922.4736485,1927,1729690922,326648704,base_link,0,1,33.6371428,72.9912748,511.3462309436992,0.9177639999999999,0.0,0.0,0.0,0.9177639999999999,0.0,0.0,0.0,1.5850809999999997,2
1729690922.573147,1928,1729690922,526645888,base_link,0,1,33.6371399,72.9912804,511.34623541003555,0.9177639999999999,0.0,0.0,0.0,0.9177639999999999,0.0,0.0,0.0,1.5850809999999997,2
1729690922.6747706,1929,1729690922,526642560,base_link,0,1,33.6371399,72.9912804,511.34623541003555,0.9177639999999999,0.0,0.0,0.0,0.9177639999999999,0.0,0.0,0.0,1.5850809999999997,2
1729690922.776745,1930,1729690922,726638208,base_link,0,1,33.6371366,72.9912852,511.35623424694404,0.9177639999999999,0.0,0.0,0.0,0.9177639999999999,0.0,0.0,0.0,1.5850809999999997,2
1729690922.8734298,1931,1729690922,726631040,base_link,0,1,33.6371366,72.9912852,511.35623424694404,0.9177639999999999,0.0,0.0,0.0,0.9177639999999999,0.0,0.0,0.0,1.5850809999999997,2
1729690922.9716833,1932,1729690922,926631296,base_link,0,1,33.6371327,72.991289,511.38622543411304,0.919681,0.0,0.0,0.0,0.919681,0.0,0.0,0.0,1.5850809999999997,2
1729690923.0735376,1933,1729690922,926627200,base_link,0,1,33.6371327,72.991289,511.38622543411304,0.919681,0.0,0.0,0.0,0.919681,0.0,0.0,0.0,1.5850809999999997,2
1729690923.175415,1934,1729690923,126624384,base_link,0,1,33.6371288,72.9912921,511.3962138410001,0.919681,0.0,0.0,0.0,0.919681,0.0,0.0,0.0,1.5850809999999997,2
1729690923.2723548,1935,1729690923,126617728,base_link,0,1,33.6371288,72.9912921,511.3962138410001,0.919681,0.0,0.0,0.0,0.919681,0.0,0.0,0.0,1.5850809999999997,2
1729690923.3758903,1936,1729690923,326611328,base_link,0,1,33.6371246,72.9912943,511.43619683434014,0.9216,0.0,0.0,0.0,0.9216,0.0,0.0,0.0,1.5850809999999997,2
1729690923.4725258,1937,1729690923,326604928,base_link,0,1,33.6371246,72.9912943,511.43619683434014,0.9216,0.0,0.0,0.0,0.9216,0.0,0.0,0.0,1.5850809999999997,2
1729690923.572489,1938,1729690923,526600576,base_link,0,1,33.6371208,72.9912959,511.4461798965201,0.9216,0.0,0.0,0.0,0.9216,0.0,0.0,0.0,1.5850809999999997,2
1729690923.6757278,1939,1729690923,526594176,base_link,0,1,33.6371208,72.9912959,511.4461798965201,0.9216,0.0,0.0,0.0,0.9216,0.0,0.0,0.0,1.5850809999999997,2
1729690923.7712836,1940,1729690923,726587520,base_link,0,1,33.6371176,72.9912972,511.45616544501587,0.919681,0.0,0.0,0.0,0.919681,0.0,0.0,0.0,1.5850809999999997,2
1729690923.8779492,1941,1729690923,726576512,base_link,0,1,33.6371176,72.9912972,511.45616544501587,0.919681,0.0,0.0,0.0,0.919681,0.0,0.0,0.0,1.5850809999999997,2
1729690923.976747,1942,1729690923,926571648,base_link,0,1,33.6371149,72.9912977,511.5161508809124,0.919681,0.0,0.0,0.0,0.919681,0.0,0.0,0.0,1.5850809999999997,2
1729690924.0722492,1943,1729690923,926571648,base_link,0,1,33.6371149,72.9912977,511.5161508809124,0.919681,0.0,0.0,0.0,0.919681,0.0,0.0,0.0,1.5850809999999997,2
1729690924.1766894,1944,1729690924,126564480,base_link,0,1,33.6371127,72.9912974,511.5061362042022,0.919681,0.0,0.0,0.0,0.919681,0.0,0.0,0.0,1.5850809999999997,2
1729690924.2737076,1945,1729690924,126564480,base_link,0,1,33.6371127,72.9912974,511.5061362042022,0.919681,0.0,0.0,0.0,0.919681,0.0,0.0,0.0,1.5850809999999997,2
1729690924.3788908,1946,1729690924,326561408,base_link,0,1,33.637111,72.9912964,511.50612181206066,0.9177639999999999,0.0,0.0,0.0,0.9177639999999999,0.0,0.0,0.0,1.5850809999999997,2
1729690924.4726126,1947,1729690924,326550144,base_link,0,1,33.637111,72.9912964,511.50612181206066,0.9177639999999999,0.0,0.0,0.0,0.9177639999999999,0.0,0.0,0.0,1.5850809999999997,2
1729690924.5755882,1948,1729690924,526544768,base_link,0,1,33.6371098,72.9912948,511.51610810166017,0.9158489999999999,0.0,0.0,0.0,0.9158489999999999,0.0,0.0,0.0,1.5850809999999997,2
1729690924.6745362,1949,1729690924,526537600,base_link,0,1,33.6371098,72.9912948,511.51610810166017,0.9158489999999999,0.0,0.0,0.0,0.9158489999999999,0.0,0.0,0.0,1.5850809999999997,2
