Time,header.seq,header.stamp.secs,header.stamp.nsecs,header.frame_id,pose.position.x,pose.position.y,pose.position.z,pose.orientation.x,pose.orientation.y,pose.orientation.z,pose.orientation.w
1729690889.2926452,0,1729690889,180268416,map,1.2776908874511719,5.151782035827637,0.23619335889816284,0.002624591171915181,0.030699141154467514,0.3548844469522695,-0.934402324250609
1729690889.2928517,1,1729690889,280264832,map,1.2969446182250977,5.152177333831787,0.38148924708366394,-0.0016266107405878655,0.03317212370135478,0.35745298925803204,-0.9333404120775752
1729690889.379429,2,1729690889,378257920,map,1.3147449493408203,5.152625560760498,0.504895031452179,-0.003078312065579739,0.036161055924440695,0.3562223750190455,-0.9336961612671688
1729690889.479064,3,1729690889,477254080,map,1.3311278820037842,5.1529669761657715,0.6221574544906616,-0.004352008957608194,0.0374923941922645,0.35243507280114,-0.9350748097641279
1729690889.5792735,4,1729690889,578248704,map,1.3451262712478638,5.150320529937744,0.7304766774177551,-0.007445962222356487,0.04031072127443219,0.3498980966538149,-0.9358904451670376
1729690889.67927,5,1729690889,678244352,map,1.3564491271972656,5.138973712921143,0.827825665473938,-0.00408259369586766,0.040635883912151415,0.3541414601912454,-0.9342996754473404
1729690889.7779565,6,1729690889,776238976,map,1.3679088354110718,5.129395008087158,0.9184777140617371,0.0001779169868575649,0.04238934549360584,0.35684958448429444,-0.9331995958998032
1729690889.8814075,7,1729690889,878233856,map,1.3811519145965576,5.1186089515686035,1.0074342489242554,-0.0029479566706822505,0.042865366565563535,0.3593956227925036,-0.9321956104907683
1729690889.981382,8,1729690889,978228992,map,1.3944376707077026,5.112812519073486,1.0886763334274292,-0.003804930607893903,0.045605120785285454,0.358614021838721,-0.932363490706219
1729690890.080758,9,1729690890,78223872,map,1.4082967042922974,5.109827518463135,1.158202052116394,-0.0042524605396267075,0.04828071701892354,0.3584915537718366,-0.932273937648024
1729690890.1801517,10,1729690890,179218752,map,1.4200652837753296,5.1083221435546875,1.2163801193237305,-0.003716175215032674,0.05034719941818496,0.3590763256743239,-0.9319418125037333
1729690890.2806022,11,1729690890,279212096,map,1.4301235675811768,5.107712268829346,1.2691460847854614,-0.004427768559377994,0.049286680081653184,0.35717862303954206,-0.9327243157952352
1729690890.3939302,12,1729690890,381206976,map,1.4403398036956787,5.114494800567627,1.3195356130599976,-0.006479337557047933,0.047548499422019545,0.3541785745616963,-0.9339457670062974
1729690890.4806044,13,1729690890,478198784,map,1.4514814615249634,5.129472255706787,1.3611631393432617,-0.008708039164071826,0.04608324208617738,0.3553288610333601,-0.9335640874463192
1729690890.5822353,14,1729690890,581195200,map,1.458514928817749,5.146907329559326,1.4078900814056396,-0.01207020880175827,0.044425096049234905,0.3566444099252733,-0.9331052918988038
1729690890.6804843,15,1729690890,679191616,map,1.462296485900879,5.169331073760986,1.4478833675384521,-0.014325455890515915,0.041260654354841934,0.3585205195082836,-0.9324995318000162
1729690890.7787895,16,1729690890,777188032,map,1.465246558189392,5.189923286437988,1.482793927192688,-0.0173078113211016,0.03962149183895448,0.3571894776428212,-0.9330306822998788
1729690890.8787642,17,1729690890,877183424,map,1.4718818664550781,5.2081685066223145,1.511904239654541,-0.019571844371509866,0.03948645302022428,0.35699195765997666,-0.9330672564729063
1729690890.9814906,18,1729690890,980178816,map,1.4822914600372314,5.228435039520264,1.539099931716919,-0.021823859143529547,0.04032124643898717,0.3555855284212841,-0.9335185312756498
1729690891.0813968,19,1729690891,80175488,map,1.4968554973602295,5.250274658203125,1.5660847425460815,-0.02480498705710298,0.0437339992181768,0.3547266128915648,-0.9336172020887143
1729690891.17657,20,1729690891,175168064,map,1.5044777393341064,5.2713518142700195,1.5816470384597778,-0.02711815940214534,0.04662095384121388,0.35472415303986926,-0.9334140921068863
1729690891.2785826,21,1729690891,277160384,map,1.5065348148345947,5.3026604652404785,1.5840084552764893,-0.030954627000000356,0.04731629530942631,0.3545681379331616,-0.9333190316435706
1729690891.3806047,22,1729690891,379156032,map,1.5041214227676392,5.334024906158447,1.5817253589630127,-0.03352972974413172,0.04511933775175941,0.35396755971822635,-0.9335667995656509
1729690891.4795394,23,1729690891,479151168,map,1.4966115951538086,5.363486289978027,1.577247142791748,-0.034195515081584735,0.041120256376078676,0.35299251327256514,-0.9340963959021514
1729690891.5810046,24,1729690891,579149888,map,1.484309434890747,5.393497943878174,1.5720064640045166,-0.035086210683846965,0.03438684530246593,0.35227390477320003,-0.9346066545375308
1729690891.6805022,25,1729690891,679144000,map,1.4681142568588257,5.427645683288574,1.567177176475525,-0.035412110018613246,0.030406503355544703,0.3517632882466854,-0.9349246044786703
1729690891.7836208,26,1729690891,782138112,map,1.44890296459198,5.458678722381592,1.5636587142944336,-0.037314263858402,0.028914119023172976,0.3506629174795209,-0.9353112517972667
1729690891.8777897,27,1729690891,877135296,map,1.4292556047439575,5.485836505889893,1.5610902309417725,-0.03969193589228722,0.02725532220016486,0.34962624554482613,-0.935651209619865
1729690891.9785793,28,1729690891,977130944,map,1.406872272491455,5.512964725494385,1.560474157333374,-0.0396083555203628,0.024192115262136472,0.34881723998883507,-0.9360408392899784
1729690892.0785937,29,1729690892,77128640,map,1.3840831518173218,5.5325703620910645,1.5629658699035645,-0.037491230009403013,0.021933211449460803,0.34910625802666256,-0.9360759384336919
1729690892.1795974,30,1729690892,178122240,map,1.3601821660995483,5.547556400299072,1.5659406185150146,-0.03698403471301209,0.022072744666969304,0.3500354279724729,-0.935745785073778
1729690892.2786012,31,1729690892,278119168,map,1.3351366519927979,5.561756610870361,1.5675110816955566,-0.03587912951362798,0.02154136549792808,0.3510747124955592,-0.9354117830581294
1729690892.3817341,32,1729690892,380114560,map,1.309740424156189,5.5694122314453125,1.5682663917541504,-0.03856804706599598,0.021058690909946207,0.35051290752002845,-0.9355264501576267
1729690892.481735,33,1729690892,480110208,map,1.2794251441955566,5.579174518585205,1.5685806274414062,-0.035568806514859386,0.02130594510087863,0.3503512468035626,-0.9357002300788728
1729690892.5795877,34,1729690892,578104064,map,1.251199722290039,5.582353591918945,1.5682796239852905,-0.03271952731987132,0.01872062378806971,0.34915087212080054,-0.936307983130676
1729690892.6817644,35,1729690892,680099456,map,1.2185271978378296,5.5832953453063965,1.567816138267517,-0.029434226459081687,0.01929934659051335,0.3473586809401143,-0.9370715598658828
1729690892.7796328,36,1729690892,778096384,map,1.1895034313201904,5.578215599060059,1.5673081874847412,-0.027362727423440737,0.01749340325828108,0.3449934620866635,-0.938043055039507
1729690892.8798695,37,1729690892,878096384,map,1.1570940017700195,5.569163799285889,1.56511390209198,-0.02613225066218246,0.01862343560616174,0.3426837046342636,-0.9389026316395586
1729690892.9809067,38,1729690892,979089216,map,1.1286566257476807,5.554992198944092,1.5597708225250244,-0.024719697388429433,0.016891945413517417,0.34206389395647946,-0.9391996013587854
1729690893.0805986,39,1729690893,79083584,map,1.0962159633636475,5.538790225982666,1.552558183670044,-0.02270170192534719,0.01857813715179628,0.34562787749403284,-0.9379130321349796
1729690893.183666,40,1729690893,182080000,map,1.0658491849899292,5.517112731933594,1.5444566011428833,-0.017950362259056635,0.018366907569464918,0.3509183491386835,-0.9360538197341457
1729690893.2807171,41,1729690893,280072576,map,1.043179988861084,5.4926958084106445,1.540495753288269,-0.014165896380059937,0.018778074229946633,0.3547814372227134,-0.934653327769259
1729690893.3793268,42,1729690893,377068992,map,1.0233532190322876,5.466832160949707,1.532305359840393,-0.011322989530590261,0.021104951748201393,0.35618900382096097,-0.9341069341766113
1729690893.479166,43,1729690893,478060800,map,1.0047240257263184,5.438451766967773,1.5284321308135986,-0.012266686834428425,0.023374418611942893,0.35585063723662136,-0.9341699464909745
1729690893.5781066,44,1729690893,575060800,map,0.9914146661758423,5.40939998626709,1.5301575660705566,-0.011675567300427302,0.023091000879681092,0.35308323044566214,-0.9352340451377095
1729690893.6801674,45,1729690893,678043904,map,0.9774297475814819,5.373377799987793,1.5354317426681519,-0.011980155554193083,0.020571165041992346,0.35158492057088203,-0.9358532719763708
1729690893.782766,46,1729690893,782035968,map,0.9656230807304382,5.335365295410156,1.5453544855117798,-0.010074159666663552,0.026296542762348784,0.3510392729566014,-0.9359371944675878
1729690893.879914,47,1729690893,879027776,map,0.95908522605896,5.30033016204834,1.5575923919677734,-0.0073382153741773865,0.032610750330956985,0.35115910766666003,-0.9357189592290676
1729690893.9809139,48,1729690893,980019840,map,0.9550907611846924,5.264688491821289,1.5717519521713257,-0.0015068681574006838,0.03416352890285989,0.3492862987930685,-0.9363918325768861
1729690894.081834,49,1729690894,80017536,map,0.9518312215805054,5.226529121398926,1.5831526517868042,0.0018039426059134169,0.0358626927046492,0.3475598810234211,-0.9369699793301982
1729690894.1798232,50,1729690894,178014208,map,0.9523330330848694,5.192412853240967,1.5982683897018433,0.002130776335617162,0.03649742502159436,0.32133228570014616,-0.9462605137728828
1729690894.2829401,51,1729690894,282010880,map,0.9517674446105957,5.153110504150391,1.6100353002548218,-0.0018860133376978302,0.03610862968648094,0.35903825235732734,-0.9326221867187434
1729690894.3845627,52,1729690894,383004736,map,0.958877682685852,5.120675563812256,1.6173123121261597,0.000502222713265558,0.034264044336890204,0.43866339787997827,-0.8979978543395402
1729690894.4840481,53,1729690894,480001920,map,0.9689354300498962,5.08564567565918,1.6224424839019775,-0.0025262854294197095,0.04178563728496233,0.47597497052363735,-0.8784619546876468
1729690894.582885,54,1729690894,581000128,map,0.9824506044387817,5.052845001220703,1.627232551574707,-0.0007100733919342968,0.05023268680347359,0.4597914702038961,-0.8866047467163831
1729690894.6838007,55,1729690894,677997056,map,0.9929558038711548,5.02322244644165,1.6232672929763794,0.0009545989358032079,0.055333284761109006,0.41512846598039016,-0.9080780104546007
1729690894.7800946,56,1729690894,778993728,map,1.004242181777954,4.9986724853515625,1.6172727346420288,0.001863554407560995,0.055890224729499526,0.36545828936933106,-0.9291464086331597
1729690894.8815954,57,1729690894,879993216,map,1.0125809907913208,4.975971698760986,1.6099365949630737,0.0016756144037327557,0.05159415229145619,0.32914970694495294,-0.94286568830547
1729690894.9772015,58,1729690894,975989632,map,1.0204360485076904,4.958563327789307,1.6038578748703003,0.004526569833810961,0.046444425928377005,0.312198025243777,-0.9488702853918489
1729690895.0815508,59,1729690895,79985024,map,1.0311455726623535,4.942019462585449,1.5956538915634155,0.004716718801654539,0.043298839023413214,0.31137324439248604,-0.9492890317387364
1729690895.1819186,60,1729690895,180979904,map,1.0419102907180786,4.933189392089844,1.5945045948028564,0.006150986096092314,0.04262245649972621,0.32176151951880877,-0.9458409042375582
1729690895.2831204,61,1729690895,281977856,map,1.0534625053405762,4.933592319488525,1.5972726345062256,0.004482544571720163,0.043564073000538085,0.3337414124160152,-0.9416468276250547
1729690895.3821504,62,1729690895,380972224,map,1.0652852058410645,4.938704013824463,1.6026508808135986,0.0010108786920152478,0.0439942287177644,0.3443687540732981,-0.9378025630066298
1729690895.4792001,63,1729690895,477967360,map,1.0784111022949219,4.951318740844727,1.6103800535202026,-0.001991918005034114,0.04521526069856937,0.3517440785310567,-0.9350014522346795
1729690895.578338,64,1729690895,576959680,map,1.0922601222991943,4.969532012939453,1.6217474937438965,-0.006081820982478384,0.045154514897515464,0.3533340254637271,-0.9343870438354256
1729690895.6791475,65,1729690895,677954560,map,1.1073687076568604,4.994152069091797,1.6402753591537476,-0.01051905540358896,0.0445838002417804,0.3504375020555992,-0.9354652272438828
1729690895.7801464,66,1729690895,778952256,map,1.1203200817108154,5.021952152252197,1.6662448644638062,-0.013618228477726398,0.04456168537862872,0.3433128936408329,-0.9380645271564758
1729690895.8791103,67,1729690895,877947648,map,1.1277177333831787,5.050347805023193,1.705750823020935,-0.017466625964547268,0.04578243554753183,0.3354458170264988,-0.9407842416899719
1729690895.978097,68,1729690895,976945088,map,1.1325548887252808,5.080656051635742,1.7545428276062012,-0.01711180419822588,0.04129873432749027,0.331199737614595,-0.9425011058370447
1729690896.0785234,69,1729690896,76943296,map,1.1363048553466797,5.1147565841674805,1.8085393905639648,-0.01647386935754231,0.03635358839278155,0.33029812102560013,-0.943032438194104
1729690896.1816533,70,1729690896,179940224,map,1.1397991180419922,5.151647567749023,1.866866111755371,-0.021283937304018376,0.03219906961583611,0.3325562875448816,-0.942293229065708
1729690896.281272,71,1729690896,279936896,map,1.1508514881134033,5.200556755065918,1.9251320362091064,-0.02209746797603801,0.029323919153603065,0.33900704225172257,-0.940067037491614
1729690896.383278,72,1729690896,381935360,map,1.1595795154571533,5.246189117431641,1.9830987453460693,-0.030116405424103716,0.03096891673009267,0.34186916085882574,-0.9387541771808944
1729690896.4782593,73,1729690896,476929472,map,1.1691192388534546,5.2910261154174805,2.0313119888305664,-0.0359201143051714,0.032591647729765014,0.3409828763719611,-0.9388174518550805
1729690896.5813181,74,1729690896,579927168,map,1.172546625137329,5.330298900604248,2.0837454795837402,-0.0406687155101753,0.03234307148624598,0.3381426214483292,-0.9396592727503092
1729690896.680178,75,1729690896,678921024,map,1.1692776679992676,5.364472389221191,2.131305456161499,-0.03858870409304922,0.03057246874310192,0.3329102572690069,-0.9416724465951283
1729690896.78018,76,1729690896,778918208,map,1.1621758937835693,5.393616676330566,2.1835741996765137,-0.040802394391380996,0.02816958354631944,0.32719166404813227,-0.9436563220538352
1729690896.8802652,77,1729690896,878911296,map,1.1526902914047241,5.4202046394348145,2.2392959594726562,-0.03652017036224701,0.026565604487940413,0.3240635945126331,-0.9449567887085919
1729690896.9852257,78,1729690896,983910528,map,1.1430234909057617,5.440173149108887,2.3024635314941406,-0.03558652755046993,0.022135721655109585,0.3227200648561898,-0.9455661630065471
1729690897.0843704,79,1729690897,82906944,map,1.1396418809890747,5.452084064483643,2.3673038482666016,-0.033129243451612535,0.020927767616059745,0.32030720433826765,-0.9465029194988968
1729690897.185324,80,1729690897,183896960,map,1.134606957435608,5.461016654968262,2.432659864425659,-0.03297892446416518,0.023705959085815125,0.3176071347013402,-0.9473521657925383
1729690897.2871933,81,1729690897,285888256,map,1.1288858652114868,5.469977378845215,2.493107318878174,-0.026861261874078383,0.025871213603368273,0.31418426007392236,-0.9486292234793439
1729690897.3873816,82,1729690897,385879552,map,1.1208646297454834,5.475122451782227,2.552859306335449,-0.027818578820038565,0.02862156966505953,0.312012807098625,-0.9492391377460043
1729690897.4910283,83,1729690897,488869568,map,1.1103371381759644,5.4756550788879395,2.613839626312256,-0.029151953416871032,0.0284616754673642,0.3111816915861136,-0.9494767250771214
1729690897.5904071,84,1729690897,589869568,map,1.0988929271697998,5.474165916442871,2.6712515354156494,-0.029746645955995164,0.026405670236363362,0.31437269739946255,-0.9484659639457407
1729690897.6875212,85,1729690897,686869568,map,1.0868128538131714,5.467561721801758,2.7291672229766846,-0.0225703944977703,0.024503065129099937,0.3209336809327423,-0.9465155833553165
1729690897.7854116,86,1729690897,783866496,map,1.0771058797836304,5.458094120025635,2.787938356399536,-0.019021648903585785,0.023858756133067503,0.32597287191867863,-0.9448865664204673
1729690897.8863494,87,1729690897,884860864,map,1.0737742185592651,5.446186542510986,2.8420279026031494,-0.01486452097362022,0.02406124634618749,0.3294144955741834,-0.9437617244549067
1729690897.9823782,88,1729690897,980854208,map,1.0731563568115234,5.430830001831055,2.8909409046173096,-0.016993702376565938,0.026436272673785836,0.33102042218329886,-0.9431001100966134
1729690898.07926,89,1729690898,78847808,map,1.0762169361114502,5.412553787231445,2.9312586784362793,-0.01575990377421635,0.030290433827912244,0.32999591386218197,-0.9433646229776733
1729690898.182568,90,1729690898,180843712,map,1.079204797744751,5.396775245666504,2.96921443939209,-0.01278212568531785,0.03251685391137968,0.32770172214508486,-0.9441349759318401
1729690898.2777374,91,1729690898,276836800,map,1.0835388898849487,5.390714168548584,2.9965717792510986,-0.008947437687275989,0.033415932529279144,0.32484462197739583,-0.9451345356002994
1729690898.379352,92,1729690898,378829888,map,1.0849270820617676,5.3804473876953125,3.0220816135406494,-0.015557071881095511,0.033019566108172055,0.32383574648779884,-0.9454089565183971
1729690898.4793696,93,1729690898,477822976,map,1.0828967094421387,5.374431133270264,3.0412797927856445,-0.014860599491421904,0.032691675611010974,0.3255882246673025,-0.9448294686801922
1729690898.5823972,94,1729690898,580817856,map,1.0811022520065308,5.3675761222839355,3.0552194118499756,-0.01726296724205687,0.03296924814431836,0.3253581454128266,-0.9448582411411375
1729690898.6795247,95,1729690898,678812480,map,1.080008864402771,5.360276222229004,3.069864511489868,-0.017769138234181643,0.03494841178870933,0.32427562920911773,-0.9451498201559856
1729690898.7846112,96,1729690898,783809920,map,1.0794403553009033,5.345948219299316,3.083845376968384,-0.013265396179350212,0.03669587335963597,0.3232122124015312,-0.9455217120178077
1729690898.8825252,97,1729690898,880800704,map,1.0809547901153564,5.332989692687988,3.0964441299438477,-0.005366242775240919,0.03512049370820743,0.3260160477366644,-0.9446964014848018
1729690898.9813218,98,1729690898,978800192,map,1.0856707096099854,5.317702293395996,3.1105878353118896,0.0004858080289078678,0.03731433812023705,0.3318594276566953,-0.9425904330283532
1729690899.0795417,99,1729690899,78794048,map,1.0947225093841553,5.302673816680908,3.1208181381225586,-0.0006615717761525401,0.04213543837244545,0.33571074492952,-0.9410220310358381
1729690899.1794572,100,1729690899,178787648,map,1.1054407358169556,5.289529800415039,3.1249842643737793,-0.0033060892084964114,0.048415972756454435,0.3378071982435813,-0.9399634355500289
1729690899.2795238,101,1729690899,277782272,map,1.1175651550292969,5.279208660125732,3.123889684677124,-0.008394598555060216,0.05344396767076479,0.3360194150555164,-0.9403000721793304
1729690899.3784838,102,1729690899,377777152,map,1.1278271675109863,5.268467426300049,3.1182446479797363,-0.01670058917795653,0.0554963064938587,0.33014094631096397,-0.9421508402880878
1729690899.4817073,103,1729690899,479771776,map,1.132112741470337,5.259912014007568,3.112436532974243,-0.014606724880087836,0.056431568620731516,0.32418484616318066,-0.9441961169002107
1729690899.5817075,104,1729690899,579767936,map,1.1360641717910767,5.249204635620117,3.10797381401062,-0.009752357027620855,0.057041225374838626,0.321596764775996,-0.9451067193845122
1729690899.6757581,105,1729690899,674764864,map,1.1415780782699585,5.23952054977417,3.1053719520568848,-0.011059542417395178,0.05210948446806542,0.31978289542372346,-0.9459921711855813
1729690899.776801,106,1729690899,774762816,map,1.1467549800872803,5.23028039932251,3.1043620109558105,-0.008060019749730111,0.052233496652044506,0.3216521763741832,-0.9453817088049072
1729690899.882715,107,1729690899,881759744,map,1.1519726514816284,5.21932315826416,3.1042802333831787,-0.008893496112607436,0.05599832934133455,0.32476841679919694,-0.9440924574889992
1729690899.9811146,108,1729690899,979756672,map,1.1542041301727295,5.210821151733398,3.095363140106201,-0.00628792150614089,0.060167528538472,0.3284978711143184,-0.9425653713276683
1729690900.081,109,1729690900,79753600,map,1.1529803276062012,5.204951763153076,3.082874059677124,-0.005469639893113383,0.059558392562035094,0.3306442282096365,-0.9418584157220872
1729690900.1786056,110,1729690900,176749248,map,1.1499261856079102,5.201070785522461,3.07171630859375,-0.005643109792975639,0.05675524285512428,0.3302750656333781,-0.942159953904425
1729690900.2789907,111,1729690900,276746176,map,1.1466081142425537,5.202206134796143,3.0593409538269043,-0.005089631676764935,0.05265644645382341,0.32936527957905265,-0.9427194210920145
1729690900.382804,112,1729690900,381744640,map,1.1425907611846924,5.202998638153076,3.05313777923584,-0.007695557612716569,0.05009628332308345,0.3295574562458869,-0.9427741107089136
1729690900.4828024,113,1729690900,481741312,map,1.1394201517105103,5.2072248458862305,3.0458712577819824,-0.014776369203554489,0.05036401958093468,0.33003741618637394,-0.942507521647352
1729690900.5837932,114,1729690900,582733632,map,1.1360993385314941,5.211611270904541,3.0404980182647705,-0.015919345397189942,0.04955205028134662,0.3329023731351092,-0.9415238598761331
1729690900.6787512,115,1729690900,676727744,map,1.1328073740005493,5.216578960418701,3.040156602859497,-0.01593142221596992,0.049300867598836194,0.33424806228959447,-0.9410599593521287
1729690900.778916,116,1729690900,777723392,map,1.131325364112854,5.2213006019592285,3.042034864425659,-0.016125742374223113,0.047800366820370026,0.3356608855777911,-0.9406310941372558
1729690900.8788784,117,1729690900,877719296,map,1.1326264142990112,5.2254638671875,3.0458767414093018,-0.01554357812722442,0.04962719576814433,0.3363373010979409,-0.9403046094268315
1729690900.9848106,118,1729690900,983715200,map,1.1337674856185913,5.227161407470703,3.0470733642578125,-0.018645339559112215,0.049646851862500695,0.33673366520945647,-0.9401053026802231
1729690901.0840712,119,1729690901,82710848,map,1.1350750923156738,5.228338718414307,3.0528903007507324,-0.020307377664795616,0.05145535722162365,0.3343665839899352,-0.9408182311884034
1729690901.1897173,120,1729690901,188710848,map,1.1359951496124268,5.225527286529541,3.06194806098938,-0.017454761251159703,0.05315250029874105,0.33059666305914437,-0.9421125141912804
1729690901.2849636,121,1729690901,282704704,map,1.1371660232543945,5.2202606201171875,3.069247245788574,-0.012341524920272346,0.05444875423701268,0.3291321204410511,-0.9426319892824861
1729690901.385244,122,1729690901,383693184,map,1.1386744976043701,5.2142839431762695,3.0708699226379395,-0.00930782882153962,0.05637816209599445,0.3301876478205956,-0.9421841563027946
1729690901.4879634,123,1729690901,486682432,map,1.1399112939834595,5.207984447479248,3.075864791870117,-0.007939868096345148,0.056828779683338874,0.33219660198643974,-0.9414631516543694
1729690901.5899189,124,1729690901,588682432,map,1.1394795179367065,5.201286792755127,3.08212947845459,-0.007130630426672876,0.05726828375751696,0.33261897499602905,-0.9412938517050762
1729690901.690136,125,1729690901,688670400,map,1.1397700309753418,5.198060035705566,3.0895931720733643,-0.008053541894816633,0.05570879027647287,0.33368575640166986,-0.9410023842283959
1729690901.787933,126,1729690901,786670400,map,1.1403363943099976,5.196021556854248,3.0926740169525146,-0.007788550868652748,0.05672355386181271,0.3325022364914832,-0.9413628628965635
1729690901.8801494,127,1729690901,878666560,map,1.1403924226760864,5.194680690765381,3.0913641452789307,-0.007278917471128392,0.057270834460460655,0.330799740692842,-0.941933437371346
1729690901.981098,128,1729690901,978662720,map,1.1390007734298706,5.19265604019165,3.0901379585266113,-0.010174575573988808,0.05616656100371663,0.33114034290256683,-0.9418534221094467
1729690902.0800238,129,1729690902,78658624,map,1.1364489793777466,5.191161155700684,3.084230422973633,-0.010403327338954755,0.05671867729504126,0.3309542028862322,-0.9418832613536128
1729690902.1784441,130,1729690902,176652736,map,1.131967544555664,5.189631938934326,3.0780587196350098,-0.00916038489234428,0.0574185838169815,0.329724161801472,-0.9422850793180337
1729690902.2801387,131,1729690902,278647872,map,1.1256588697433472,5.188930988311768,3.065627098083496,-0.008705076279581366,0.05484761934205243,0.32965977730374874,-0.9424650611707146
1729690902.3809943,132,1729690902,379644544,map,1.1184757947921753,5.186765670776367,3.062721014022827,-0.009097080292274714,0.05358942244510688,0.3316461306001187,-0.9418366424121141
1729690902.4783049,133,1729690902,476638400,map,1.111651062965393,5.183520793914795,3.0648152828216553,-0.00827400549847108,0.05220676932242905,0.3325210794719532,-0.9416133632105765
1729690902.5794427,134,1729690902,576638400,map,1.1037020683288574,5.180174827575684,3.066193103790283,-0.007212024709354273,0.05099958254012681,0.33448634776942593,-0.9409919831944347
1729690902.6780226,135,1729690902,676625344,map,1.0954556465148926,5.177129745483398,3.064931869506836,-0.004575697128914666,0.047511838286971704,0.3364725898329147,-0.9404827933085793
1729690902.7830698,136,1729690902,780618432,map,1.0852291584014893,5.174282073974609,3.0636203289031982,-0.004267767374427116,0.04812464148526454,0.3368241001676862,-0.9403272465422773
1729690902.880102,137,1729690902,878612032,map,1.0775989294052124,5.173965930938721,3.062040328979492,-0.0018414040890437204,0.04544958315308272,0.33637155947753944,-0.940630171000718
1729690902.9851313,138,1729690902,983605376,map,1.0711066722869873,5.175363540649414,3.0615487098693848,-0.004535184323228944,0.04401702334803178,0.3348793604612965,-0.9412214126844789
1729690903.0801454,139,1729690903,78600000,map,1.0689339637756348,5.17941427230835,3.0617222785949707,-0.004950400005968104,0.04507478671200277,0.3335771724970019,-0.9416315771741905
1729690903.1802459,140,1729690903,178596160,map,1.065760612487793,5.183718204498291,3.0627448558807373,-0.007674502021800913,0.0464417630685021,0.33141045376738787,-0.9423117190163246
1729690903.2803216,141,1729690903,278589504,map,1.061950922012329,5.189619064331055,3.0650572776794434,-0.008960207271700016,0.04687595716645193,0.3321908766685147,-0.9420040237618844
1729690903.3792293,142,1729690903,378582592,map,1.0587538480758667,5.194658279418945,3.071019411087036,-0.010063936452570104,0.047019323845859225,0.3327608347694635,-0.9417845439439353
1729690903.4791672,143,1729690903,477577728,map,1.0577417612075806,5.199991703033447,3.0764102935791016,-0.010870111595061982,0.04819083879023969,0.331968971980187,-0.9419957990208989
1729690903.5772288,144,1729690903,575571840,map,1.0571869611740112,5.204132556915283,3.082247257232666,-0.010619853839875822,0.04873813947017613,0.33245271829417133,-0.9417998739457452
1729690903.6821017,145,1729690903,680568000,map,1.0572243928909302,5.207677364349365,3.082470417022705,-0.010837809424236617,0.04932508748880033,0.33176057445068996,-0.9420108804420754
1729690903.7908766,146,1729690903,775565696,map,1.057311773300171,5.210341930389404,3.078153610229492,-0.011127816094705966,0.049031406578105716,0.33099100768092665,-0.9422935029555811
1729690903.877095,147,1729690903,875560832,map,1.0577646493911743,5.213047504425049,3.0736873149871826,-0.011605279511319152,0.049035903093161394,0.32825987101866927,-0.9432424156992247
1729690903.9813142,148,1729690903,978554944,map,1.0560716390609741,5.215520858764648,3.073185443878174,-0.01383235084567048,0.049065120211731816,0.32553645275161786,-0.9441542765769714
1729690904.077676,149,1729690904,76550592,map,1.0539638996124268,5.218422889709473,3.076561689376831,-0.012583727854468514,0.04650601319749222,0.3247114741967742,-0.9445852524016649
1729690904.1811295,150,1729690904,179545728,map,1.0487864017486572,5.220261096954346,3.0776476860046387,-0.012097778013148078,0.04604744867253784,0.3233804798817449,-0.9450705484086079
1729690904.2783077,151,1729690904,277541632,map,1.04355788230896,5.221987247467041,3.0762717723846436,-0.007622144893877974,0.04498173394069393,0.32427344598398194,-0.9448625713555273
1729690904.3812368,152,1729690904,380539072,map,1.0362151861190796,5.222742557525635,3.0743799209594727,-0.008683961145580189,0.041356323067448776,0.3238846391287335,-0.9451523601502634
1729690904.476596,153,1729690904,475532928,map,1.0290054082870483,5.223003387451172,3.0676567554473877,-0.008624043365819659,0.04105552084467066,0.3213414005241923,-0.94603370679556
1729690904.5803256,154,1729690904,578527040,map,1.019716501235962,5.222535133361816,3.0632200241088867,-0.010494595756055224,0.03874033427542824,0.3186688262502392,-0.9470159603388106
1729690904.67926,155,1729690904,678520896,map,1.0096410512924194,5.221734046936035,3.0623536109924316,-0.004968395404900889,0.037244011486431604,0.31806724848667106,-0.9473232943908945
1729690904.7965446,156,1729690904,786517568,map,0.999496579170227,5.220370769500732,3.066089391708374,-0.003491974075263245,0.034426396951246614,0.3179076577468113,-0.9474900265733404
1729690904.8873315,157,1729690904,886510912,map,0.991426944732666,5.219400405883789,3.0729258060455322,-0.005355349144369083,0.034214958142871114,0.31774237736943794,-0.9475444256067581
1729690904.9904506,158,1729690904,989510912,map,0.9841901659965515,5.217044830322266,3.0808169841766357,-0.0056920992090231295,0.03383937511705972,0.31882700962488736,-0.9471915511827232
1729690905.0871968,159,1729690905,86497600,map,0.9799576997756958,5.213293075561523,3.0862011909484863,-0.0030323416220301696,0.03385857556744163,0.32165364776714694,-0.9462469723295919
1729690905.1865284,160,1729690905,184483520,map,0.978130578994751,5.2103071212768555,3.0910956859588623,-0.0032340898909058954,0.03544013403034788,0.3256724955576136,-0.9448126603722904
1729690905.2834044,161,1729690905,282470208,map,0.9775588512420654,5.208159446716309,3.0960898399353027,-0.0031377203682333315,0.037744067391067594,0.330226375498528,-0.9431416017824549
1729690905.3836293,162,1729690905,382470208,map,0.9795446395874023,5.205979824066162,3.092252731323242,-0.004293999036890624,0.04093810905467148,0.32983204337280975,-0.9431418005601362
1729690905.4813073,163,1729690905,480470464,map,0.9856351613998413,5.202818870544434,3.088348388671875,-0.007956391800020926,0.0420974919078723,0.32615727513836534,-0.9443441792476448
1729690905.5787094,164,1729690905,576464832,map,0.9909979701042175,5.199488162994385,3.088608503341675,-0.011210842932308337,0.04170220802919374,0.32009985868455837,-0.9463991353104475
1729690905.687541,165,1729690905,685462528,map,0.9976204037666321,5.194639205932617,3.0877716541290283,-0.011879246837617144,0.04232601498894819,0.31507830627322453,-0.948046967647554
1729690905.7885633,166,1729690905,787459712,map,1.0019052028656006,5.189511775970459,3.0862202644348145,-0.006189158576094181,0.04461087126147099,0.31569106514509776,-0.94779254896257
1729690905.8826487,167,1729690905,880454080,map,1.0083832740783691,5.184479236602783,3.0887725353240967,-0.0010505707334705506,0.04179546017120402,0.3202411672239393,-0.9464130338415994
1729690905.9805713,168,1729690905,978446400,map,1.0133390426635742,5.180047035217285,3.091338872909546,0.0001934795755236233,0.04180965387748509,0.32573333196437393,-0.944536771044773
1729690906.0798235,169,1729690906,78439744,map,1.0183640718460083,5.176534652709961,3.0942118167877197,-0.0016435724008977471,0.04195046441155869,0.32902112539533096,-0.9433888679908236
1729690906.1825593,170,1729690906,180435648,map,1.0223984718322754,5.1735920906066895,3.0936896800994873,-0.004916929106864079,0.040400569281233985,0.33155670015006034,-0.9425570393326408
1729690906.2816596,171,1729690906,280428480,map,1.0268644094467163,5.1714301109313965,3.098926305770874,-0.008105951907746494,0.04129959915209954,0.3313018926994148,-0.9425856420226921
1729690906.379562,172,1729690906,378422848,map,1.030197024345398,5.168007850646973,3.1065993309020996,-0.007383623128087312,0.044470070863837315,0.3294192166570636,-0.943107032422044
1729690906.4778483,173,1729690906,475417216,map,1.0329688787460327,5.1616291999816895,3.1144051551818848,-0.0066844892628075085,0.04412343424558702,0.32921957385624084,-0.9431982359735338
1729690906.5798323,174,1729690906,578406720,map,1.0341304540634155,5.155169486999512,3.12723445892334,-0.003159606286302299,0.04587595216057588,0.32868092243688635,-0.9433208707155342
1729690906.6799455,175,1729690906,678404160,map,1.0355864763259888,5.148351192474365,3.1393818855285645,0.001925130921406623,0.04399593780225113,0.3277862712735816,-0.9437249661275247
1729690906.7829168,176,1729690906,780399040,map,1.0367261171340942,5.142529487609863,3.1542341709136963,0.00276101077750796,0.04377067185618467,0.32454918064339294,-0.9448514880384361
1729690906.8848999,177,1729690906,880393408,map,1.0385022163391113,5.138215065002441,3.17130184173584,0.004082640626339151,0.03993501416525428,0.3238610482682029,-0.9452526371842387
1729690906.979643,178,1729690906,978386496,map,1.0409414768218994,5.135481834411621,3.1886723041534424,0.004249315847373375,0.04033219621248235,0.3234636914397058,-0.9453710898814843
1729690907.0801034,179,1729690907,78378304,map,1.0455844402313232,5.133788108825684,3.196655511856079,0.001912788012476378,0.04273284743953837,0.32362629504416146,-0.9452175760890813
1729690907.179248,180,1729690907,178373440,map,1.0486048460006714,5.134639263153076,3.1996991634368896,0.0025499375504545083,0.04363692643305734,0.3242000382366904,-0.9449781223273337
1729690907.2789788,181,1729690907,277368064,map,1.05124831199646,5.13747501373291,3.1961631774902344,-0.0014524630515510197,0.04283229341188058,0.3212125753161045,-0.9460368737268956
1729690907.3788152,182,1729690907,377362688,map,1.052769660949707,5.140255451202393,3.190803050994873,-0.003465964280030651,0.041437299347432906,0.31930222231774735,-0.9467402115350064
1729690907.4780817,183,1729690907,476358848,map,1.0553035736083984,5.140015125274658,3.1848862171173096,-0.00842769992099444,0.039619423922684506,0.31876637837766464,-0.9469674076429788
1729690907.5829628,184,1729690907,582352192,map,1.0555340051651,5.139041423797607,3.1798036098480225,-0.00859529364701171,0.040782329437105865,0.3205920008127506,-0.9463000008177547
1729690907.679971,185,1729690907,679348864,map,1.0535327196121216,5.136667251586914,3.172377586364746,-0.004847679758705136,0.04096072766498183,0.3239435979027665,-0.9451768428013474
1729690907.7790833,186,1729690907,777345024,map,1.052174687385559,5.134966850280762,3.1655068397521973,-0.001451719570873351,0.0429310527498298,0.3260139607836945,-0.9443885400587019
1729690907.8812313,187,1729690907,879342976,map,1.0512840747833252,5.134505748748779,3.15838623046875,0.003087452305826113,0.042029322638768594,0.3259333118013831,-0.944453005678402
1729690907.9860718,188,1729690907,984330176,map,1.0506622791290283,5.134720802307129,3.1546621322631836,-0.0008078380848658816,0.04089052654382202,0.324221867077401,-0.9450965522873531
1729690908.0801105,189,1729690908,78323520,map,1.0519953966140747,5.134528160095215,3.1526999473571777,-0.0014832699915044035,0.041002078928384936,0.32259808975262055,-0.9456463937020239
1729690908.180311,190,1729690908,178316096,map,1.053335428237915,5.135249137878418,3.1517558097839355,0.001257243959829157,0.041720337890197544,0.32224197594850407,-0.9457367190083913
1729690908.2791724,191,1729690908,277310720,map,1.05556321144104,5.135663032531738,3.1512959003448486,-0.0024164586971949214,0.041842581139927774,0.32267379729572954,-0.945581820716572
1729690908.3802602,192,1729690908,378304064,map,1.0579354763031006,5.135193824768066,3.151827812194824,-0.006175358421797393,0.04161406442370653,0.32501304671624637,-0.9447733347500473
1729690908.4792154,193,1729690908,478299200,map,1.0602895021438599,5.134871006011963,3.149700164794922,-0.0016132823553349305,0.04357438702669896,0.32671928851009274,-0.944115022987532
1729690908.582128,194,1729690908,580293568,map,1.0619326829910278,5.135772705078125,3.1472437381744385,-0.0016258539824069874,0.04380621625550041,0.3269019712563335,-0.9440410336446863
1729690908.679365,195,1729690908,678288960,map,1.0653847455978394,5.136899471282959,3.149601697921753,-0.0033456029869619514,0.041220123732781194,0.32840618611334726,-0.9436307992337858
1729690908.7793834,196,1729690908,778282560,map,1.0677350759506226,5.138518810272217,3.155796527862549,-0.0014191583476164762,0.04217328276106185,0.32812972009797625,-0.9436897196638119
1729690908.8829625,197,1729690908,878277952,map,1.0696462392807007,5.139305591583252,3.161628246307373,-0.0006822805332904038,0.045638073889188675,0.32750672623652527,-0.9437457522949666
1729690908.9831343,198,1729690908,981274112,map,1.0712414979934692,5.140441417694092,3.1733314990997314,-0.0037268904305023617,0.04705794518624663,0.3288384647027671,-0.9432056637947497
1729690909.0870798,199,1729690909,85265408,map,1.0720038414001465,5.141142845153809,3.179727792739868,-0.003855258740576398,0.049041844033163536,0.32924985647427946,-0.9429605328567768
1729690909.1921563,200,1729690909,191261568,map,1.072969675064087,5.142995834350586,3.181823968887329,-0.0016549274793579865,0.05038597919763803,0.32909987272714225,-0.9429484546285187
1729690909.2851956,201,1729690909,283255936,map,1.0758718252182007,5.145005226135254,3.1816041469573975,-0.0023990597998900264,0.04815913936647948,0.32999716646171207,-0.9427496019276793
1729690909.3902075,202,1729690909,388251072,map,1.0785578489303589,5.1465888023376465,3.182589292526245,-0.0052557139911603625,0.046724755055693616,0.3314579849374403,-0.9422976063625761
1729690909.4893446,203,1729690909,488253120,map,1.0798348188400269,5.147856712341309,3.1806442737579346,-0.00618378780312757,0.046402805750156685,0.33298731383640756,-0.9417685433326666
1729690909.584313,204,1729690909,583241344,map,1.0818815231323242,5.149419784545898,3.1778645515441895,-0.002748917017103522,0.046359480156606965,0.33355002058263195,-0.9415878216205686
1729690909.6893582,205,1729690909,688234944,map,1.0850285291671753,5.152064323425293,3.1751177310943604,-0.003103346714861776,0.046237447730832375,0.332943194559631,-0.9418074627347852
1729690909.787375,206,1729690909,786234944,map,1.0885231494903564,5.155210494995117,3.17512583732605,-0.004933752030724327,0.04713483466206333,0.33163269814751484,-0.9422174478174763
1729690909.8862667,207,1729690909,884229056,map,1.0932049751281738,5.159207820892334,3.173509120941162,-0.006145747594835464,0.04520494240239669,0.3312278579314432,-0.9424472659512809
1729690909.9810057,208,1729690909,980222912,map,1.0970749855041504,5.163552284240723,3.175255060195923,-0.004099155899157771,0.04712845818134445,0.3310153003857752,-0.9424388448386869
1729690910.0792148,209,1729690910,78217536,map,1.1017279624938965,5.1678314208984375,3.1708178520202637,-0.005191880481625713,0.048014591960652796,0.33123413229619275,-0.9423118342342437
1729690910.1811101,210,1729690910,180212160,map,1.1052850484848022,5.172842025756836,3.1630172729492188,-0.004720426371435395,0.05019116265275126,0.33273081569818,-0.9416733876728494
1729690910.281158,211,1729690910,280206528,map,1.1091368198394775,5.177183151245117,3.1502394676208496,-0.005030107787750953,0.0506763058551121,0.332794106399076,-0.9416234347054895
1729690910.3763163,212,1729690910,375199872,map,1.1111842393875122,5.1816205978393555,3.1390345096588135,-0.010949915691704342,0.05168662911985635,0.3324081776253915,-0.9416546050247603
1729690910.4797728,213,1729690910,477192704,map,1.1119277477264404,5.186323165893555,3.1263091564178467,-0.014125134778258516,0.04994345803443178,0.33318828409030593,-0.9414306660142406
1729690910.5794885,214,1729690910,577187072,map,1.1117596626281738,5.190195083618164,3.1121881008148193,-0.012452716808746728,0.05019794235060411,0.3346376617761625,-0.9409265283478989
1729690910.679109,215,1729690910,677181440,map,1.1121939420700073,5.192478656768799,3.1014912128448486,-0.011816508235653129,0.048630601617176354,0.33537038757549675,-0.9407561521759662
1729690910.779288,216,1729690910,777174784,map,1.1117466688156128,5.193663120269775,3.0998361110687256,-0.010269517501402614,0.04978497428145633,0.3327106415677212,-0.9416579115229047
1729690910.8812175,217,1729690910,880173760,map,1.1118186712265015,5.192552089691162,3.1036832332611084,-0.009404800889479469,0.05227150505304282,0.329755264738241,-0.942571326137779
1729690910.983601,218,1729690910,980170176,map,1.1104968786239624,5.191540241241455,3.107208728790283,-0.0053292531285169305,0.050674069138778886,0.3282440264223372,-0.9432176826671892
1729690911.0762837,219,1729690911,75168384,map,1.109497308731079,5.190483093261719,3.1098079681396484,-0.005392935885164868,0.050665725462617224,0.3283020912399653,-0.9431975601078232
1729690911.1782372,220,1729690911,177165568,map,1.1078462600708008,5.189450263977051,3.112527847290039,-0.0040190409232726074,0.05077428067006283,0.3293635869898558,-0.9428284294067879
1729690911.2801273,221,1729690911,279157632,map,1.105394959449768,5.188614368438721,3.110790252685547,-0.005587198169385367,0.04977282270022609,0.329397907861344,-0.9428618497073883
1729690911.378261,222,1729690911,377155328,map,1.1007018089294434,5.18883752822876,3.1139187812805176,-0.006640335361577923,0.050109900637267994,0.32914211681859,-0.9429264927557114
1729690911.4772775,223,1729690911,476151488,map,1.0933259725570679,5.190277099609375,3.1212141513824463,-0.003169727718407673,0.046581490454309885,0.32893266158675016,-0.9431985059968568
1729690911.579202,224,1729690911,578144576,map,1.0854523181915283,5.191751003265381,3.1260428428649902,-0.007734268394802008,0.043789109078746266,0.3292902432567767,-0.943181122963336
1729690911.6791525,225,1729690911,678139456,map,1.0796685218811035,5.193929672241211,3.134544610977173,-0.007251370678282529,0.043337391375038496,0.328380016730525,-0.9435231066296963
1729690911.7815237,226,1729690911,778137408,map,1.0747255086898804,5.194568157196045,3.1470627784729004,-0.005939914013944893,0.04512256719497105,0.32610137631662356,-0.9442386158782355
1729690911.877789,227,1729690911,876133568,map,1.0709986686706543,5.193860054016113,3.160297393798828,-0.007607288184296167,0.04469930601843836,0.3259206797900104,-0.9443091716663397
1729690911.980178,228,1729690911,979127168,map,1.068400502204895,5.192565441131592,3.1703741550445557,-0.006124591488572846,0.04506051990545815,0.327913357217525,-0.9436126689925692
1729690912.0791924,229,1729690912,78123072,map,1.0685335397720337,5.191246509552002,3.174548625946045,-0.0027738585716220476,0.045408757504301824,0.332879761476191,-0.9418712305034559
1729690912.1823545,230,1729690912,180117952,map,1.0694615840911865,5.190460681915283,3.180417776107788,-0.001058226628340728,0.0468979575765805,0.3375474453001478,-0.9401389173430126
1729690912.2819252,231,1729690912,278113088,map,1.0736712217330933,5.189854621887207,3.1880650520324707,-0.00487221450536044,0.049088389498693215,0.3368641515486248,-0.9402601421647434
1729690912.3776948,232,1729690912,376109504,map,1.0782526731491089,5.189918041229248,3.1978354454040527,-0.003029357864143696,0.05070546912321438,0.3341956944267357,-0.9411338991974296
1729690912.4792304,233,1729690912,478104640,map,1.0847190618515015,5.188610553741455,3.207228660583496,-0.005700146048478716,0.052509036919941146,0.33201772236065097,-0.9417932583190494
1729690912.5813637,234,1729690912,580098240,map,1.0887701511383057,5.1878485679626465,3.209974765777588,-0.007795347128106039,0.053327604578270314,0.3312185924221561,-0.9420136109350976
1729690912.6785026,235,1729690912,677092096,map,1.091818928718567,5.185079574584961,3.2068564891815186,-0.008932749863760135,0.05202652997214149,0.3293762119825391,-0.9427219935585267
1729690912.7791212,236,1729690912,777088768,map,1.0941818952560425,5.183460235595703,3.2009875774383545,-0.009078187020167808,0.052225529346214605,0.3280394228001106,-0.9431756027876808
1729690912.8786037,237,1729690912,877083904,map,1.097259283065796,5.182679176330566,3.195697546005249,-0.010075623097454385,0.0526237632106527,0.3266375813859305,-0.9436297535533187
1729690912.9847212,238,1729690912,983074944,map,1.1013203859329224,5.179163932800293,3.1886236667633057,-0.017569099343570874,0.038491091819471086,0.32675276046435325,-0.9441622721374362
1729690913.0785568,239,1729690913,77069312,map,1.1111255884170532,5.172079086303711,3.182152032852173,-0.030262623866873582,-0.0027888643832324365,0.32547882193890093,-0.9450608087850269
1729690913.1846244,240,1729690913,183069056,map,1.1364587545394897,5.153645992279053,3.184715509414673,-0.037628380608419186,-0.05656187273521136,0.3204228800540138,-0.9448354552319493
1729690913.2814522,241,1729690913,280064448,map,1.1825716495513916,5.121148586273193,3.1907522678375244,-0.03930546635764562,-0.08892714567801832,0.3154623695895423,-0.9439441384154676
1729690913.3876686,242,1729690913,386058048,map,1.253749132156372,5.069849491119385,3.1939260959625244,-0.03868856044571742,-0.10714824524621964,0.3122733463758565,-0.9431372148179279
1729690913.4873943,243,1729690913,486059072,map,1.3487962484359741,5.002919673919678,3.205375909805298,-0.04030817260918294,-0.11201079902229798,0.31045250763162857,-0.9431055469185452
1729690913.5855513,244,1729690913,584059072,map,1.4639456272125244,4.920385837554932,3.2141685485839844,-0.03683033355144414,-0.11004568410732912,0.31172810173168003,-0.9430583569061898
1729690913.6857147,245,1729690913,684059072,map,1.6007449626922607,4.819118022918701,3.2256522178649902,-0.03161295293478819,-0.06650979639282263,0.3172650205598818,-0.945473413121525
1729690913.7956967,246,1729690913,794059072,map,1.7574658393859863,4.703412055969238,3.2309176921844482,-0.006413488395157848,0.017644063913344464,0.3220670307412535,-0.9465307083685871
1729690913.8809855,247,1729690913,879056256,map,1.8772190809249878,4.614757061004639,3.2247824668884277,0.011255942710479904,0.06674748943414648,0.32644200482759766,-0.9427903764316199
1729690913.9905627,248,1729690913,989052928,map,2.0224082469940186,4.507274627685547,3.2060792446136475,0.026283412027030953,0.11870746185561473,0.32779809332397347,-0.9368917390847156
1729690914.0789847,249,1729690914,77048576,map,2.12308406829834,4.431119918823242,3.1869266033172607,0.043419051614649026,0.16392148094488956,0.33030565928614974,-0.9285164002241751
1729690914.17892,250,1729690914,177043968,map,2.2226452827453613,4.360165596008301,3.159635305404663,0.0546859372035744,0.18495687327376648,0.3292977464278475,-0.9243178011368707
1729690914.2780192,251,1729690914,277040640,map,2.294832229614258,4.312358856201172,3.1347193717956543,0.0593553599712179,0.19925467345569345,0.3232646068593149,-0.9231871480370839
1729690914.3839147,252,1729690914,382036544,map,2.3431930541992188,4.288478851318359,3.105847120285034,0.05940530936316701,0.20521094117135125,0.31522971616214607,-0.9246565334714116
1729690914.4782875,253,1729690914,477030656,map,2.3617894649505615,4.290625095367432,3.084901809692383,0.0567513941559517,0.204865252680508,0.3082604315977664,-0.9272459295228349
1729690914.5790682,254,1729690914,578028352,map,2.353522539138794,4.315365314483643,3.063075065612793,0.055166769134803624,0.20329471831473875,0.30465774833447135,-0.9288764941951799
1729690914.6790469,255,1729690914,677024000,map,2.3183720111846924,4.362192630767822,3.0426485538482666,0.055797021852287194,0.20299548271275134,0.3053817984501862,-0.9286665082396168
1729690914.7829545,256,1729690914,781018624,map,2.252781629562378,4.433380126953125,3.0196077823638916,0.05443028210705359,0.2015648876566822,0.3090975446283025,-0.9278295362610796
1729690914.8783174,257,1729690914,877018624,map,2.1696550846099854,4.519562244415283,3.0042686462402344,0.05661762405955239,0.19257409942105033,0.31715813918683644,-0.9268874665381799
1729690914.9831142,258,1729690914,982004032,map,2.054612636566162,4.635634422302246,3.0036699771881104,0.05472358932348299,0.18708021918991122,0.32267775879121446,-0.926221023482456
1729690915.0762568,259,1729690915,75001472,map,1.9402999877929688,4.756037712097168,3.010319948196411,0.05063919366164189,0.19056831521087045,0.32616950667351335,-0.9245176267759019
1729690915.1804166,260,1729690915,178995840,map,1.7919740676879883,4.910283088684082,3.01405668258667,0.05192612367264529,0.20098325869738207,0.32576385078546194,-0.9223813316221993
1729690915.2783766,261,1729690915,275989184,map,1.6389682292938232,5.065894603729248,3.008505344390869,0.05681163948934644,0.20986856790804562,0.32676805425490474,-0.9197555439034997
1729690915.3783526,262,1729690915,376983552,map,1.4593586921691895,5.244597911834717,2.9915390014648438,0.05245020725996168,0.21644786108663153,0.3254696069440502,-0.9189498539882874
1729690915.4792223,263,1729690915,477977152,map,1.2562150955200195,5.445888519287109,2.9727072715759277,0.04877410756163895,0.21531709413904188,0.325932754311913,-0.9192537598888213
1729690915.5842273,264,1729690915,582971520,map,1.0241308212280273,5.672342300415039,2.9573278427124023,0.04575997597947232,0.21066055395495148,0.3267347641362539,-0.9202024502850326
1729690915.6774912,265,1729690915,674967168,map,0.8039065599441528,5.883382797241211,2.946932554244995,0.03840659062081024,0.19403933285643019,0.32786853527653037,-0.9237834674192538
1729690915.7840507,266,1729690915,782957952,map,0.5350794792175293,6.138131618499756,2.9375343322753906,0.01068487635007243,0.12983722451169155,0.3295882114950442,-0.9350934388562367
1729690915.8791492,267,1729690915,876952832,map,0.29613935947418213,6.363217830657959,2.944143295288086,-0.00964984859324987,0.0803982792602775,0.3235773560799413,-0.9427304449026925
1729690915.9761417,268,1729690915,973952832,map,0.054224371910095215,6.592588424682617,2.9594380855560303,-0.016765559388113967,0.057630920893250795,0.31261003860567577,-0.9479834158561833
1729690916.0781615,269,1729690916,76943104,map,-0.1824781894683838,6.823890686035156,2.983786106109619,-0.021030277663009196,0.05444067374210929,0.3020405077064231,-0.9515069480399858
1729690916.1763074,270,1729690916,174940288,map,-0.4104245901107788,7.042305946350098,3.0073297023773193,-0.01965068392034257,0.061122254649774936,0.29709593032662246,-0.9526866897313877
1729690916.2783887,271,1729690916,276934144,map,-0.6352649927139282,7.262228488922119,3.0286219120025635,-0.022347856422317083,0.06697578300005384,0.29566787769187897,-0.9526779749243903
1729690916.38045,272,1729690916,378930560,map,-0.8614846467971802,7.475417137145996,3.0510430335998535,-0.02108449984377387,0.07846259010014577,0.2975750394444411,-0.9512350717465972
1729690916.4802854,273,1729690916,478924416,map,-1.0839388370513916,7.677830219268799,3.074225902557373,-0.009596212957349278,0.1277942877808514,0.3020849007625526,-0.9446275697007477
1729690916.582372,274,1729690916,579917760,map,-1.322527527809143,7.886718273162842,3.0844781398773193,-0.005683588217961508,0.17087279391019045,0.3060219565144598,-0.9365472477442641
1729690916.6792312,275,1729690916,677912128,map,-1.5591020584106445,8.089455604553223,3.0827386379241943,-0.0050843009110392665,0.15867444812462458,0.3148369924326371,-0.9357746724466118
1729690916.7864156,276,1729690916,784907008,map,-1.828719139099121,8.313254356384277,3.0873570442199707,-0.012131468482866817,0.11137428651809053,0.32257789838836987,-0.9398894058592095
1729690916.8793721,277,1729690916,877902656,map,-2.060724973678589,8.504568099975586,3.096620559692383,-0.014232515663402766,0.07756330267765194,0.32527808659468893,-0.9423245385518326
1729690916.9862676,278,1729690916,980898816,map,-2.3149402141571045,8.712028503417969,3.109502077102661,-0.019330713100757044,0.06551516098957928,0.3232474196400923,-0.9438459582514236
1729690917.086083,279,1729690917,84894464,map,-2.5665395259857178,8.920692443847656,3.121457099914551,-0.01421979068459422,0.06360562087686415,0.3220027057962294,-0.9444926574651928
1729690917.188909,280,1729690917,187898816,map,-2.810532331466675,9.123559951782227,3.1352291107177734,-0.023472526683369275,0.06663479366543366,0.3166095562161255,-0.9459213675971654
1729690917.283066,281,1729690917,281886528,map,-3.0288946628570557,9.3047456741333,3.1405019760131836,-0.029167157203539244,0.06775654176052792,0.3090907148724333,-0.9481673153874088
1729690917.3861768,282,1729690917,384875776,map,-3.2630226612091064,9.496866226196289,3.142545461654663,-0.026745492673597486,0.07334068547673644,0.3018218740090202,-0.950162817018816
1729690917.486327,283,1729690917,483865792,map,-3.487565279006958,9.676844596862793,3.1424810886383057,-0.02621148944244049,0.07710470026777591,0.2983322095035323,-0.9509814487099977
1729690917.5851028,284,1729690917,583858368,map,-3.7110462188720703,9.850048065185547,3.1417477130889893,-0.025340363976133328,0.07060731396104668,0.2992244340841399,-0.9512293157886744
1729690917.6780615,285,1729690917,676855296,map,-3.915442943572998,10.003786087036133,3.142948865890503,-0.026703622853927522,0.06574807608101885,0.3008619956478354,-0.9510237465978028
1729690917.7903512,286,1729690917,788852224,map,-4.161320686340332,10.185456275939941,3.145137071609497,-0.017813811983573714,0.06503790709477272,0.3049598178294182,-0.9499748671690181
1729690917.8786442,287,1729690917,876848896,map,-4.349834442138672,10.321924209594727,3.148571014404297,-0.01161725476781294,0.08867151854771078,0.3085435735201933,-0.9469969717108349
1729690917.9814663,288,1729690917,979845568,map,-4.57793664932251,10.484884262084961,3.151057720184326,-0.005298733365819077,0.11497712741353726,0.3115243560324341,-0.9432416229127225
1729690918.0824592,289,1729690918,79842240,map,-4.797036170959473,10.638895034790039,3.144744396209717,-0.005056641807644495,0.11938789312375707,0.31488088859407787,-0.9415789862498543
1729690918.1837804,290,1729690918,181840448,map,-5.024397850036621,10.800078392028809,3.1410484313964844,-0.014865322810932802,0.08157146338711556,0.3191766829826106,-0.9440611016130414
1729690918.2785664,291,1729690918,276836352,map,-5.226334571838379,10.943021774291992,3.13810658454895,-0.03545727908614372,0.017231781650933992,0.31862848172914254,-0.9470595217260228
1729690918.380392,292,1729690918,378835072,map,-5.423348426818848,11.08749008178711,3.1354074478149414,-0.051604299746159536,-0.04200254179647478,0.31108108063480494,-0.9480513403826956
1729690918.475838,293,1729690918,473832256,map,-5.577182292938232,11.204841613769531,3.1443042755126953,-0.06259226628699505,-0.07363125781150817,0.29887515453927377,-0.9493862691619666
1729690918.577658,294,1729690918,575828416,map,-5.722975730895996,11.3187894821167,3.1629645824432373,-0.0681939621489653,-0.0746073691895454,0.2844988910747064,-0.9533329454950683
1729690918.7044187,295,1729690918,676824064,map,-5.836480617523193,11.407079696655273,3.187248706817627,-0.06980081081637562,-0.07918638721544191,0.2747698676088286,-0.9556981127654116
1729690918.7786045,296,1729690918,777819200,map,-5.925675392150879,11.481257438659668,3.2174904346466064,-0.060364764658132196,-0.07988184549895229,0.2712774842235994,-0.95727922389487
1729690918.8796124,297,1729690918,877813824,map,-5.987837791442871,11.535974502563477,3.2540533542633057,-0.05771793705439448,-0.08215534348205815,0.2738203507490053,-0.9565257731996675
1729690918.9781103,298,1729690918,975813824,map,-6.024763584136963,11.575738906860352,3.2912917137145996,-0.06337215396494247,-0.08157713972512326,0.27990343982937294,-0.9544544016074292
1729690919.0826814,299,1729690919,81805120,map,-6.035904407501221,11.597984313964844,3.319746494293213,-0.0665520783771908,-0.08140661434543306,0.28744497060623003,-0.9520079689150054
1729690919.1778486,300,1729690919,175798208,map,-6.024490833282471,11.607269287109375,3.3343522548675537,-0.06686904374161812,-0.08281005864015939,0.2955317645577991,-0.9493850648258845
1729690919.2778907,301,1729690919,275792320,map,-5.989002227783203,11.597506523132324,3.349832534790039,-0.062298400501247436,-0.0838234776379685,0.30674402823311453,-0.9460447320475842
1729690919.3796544,302,1729690919,377787456,map,-5.929778099060059,11.574531555175781,3.3512485027313232,-0.06368555457219116,-0.08448596623387572,0.3196716248344682,-0.9416030607023598
1729690919.479585,303,1729690919,477783872,map,-5.851385593414307,11.534324645996094,3.3450188636779785,-0.06767063146410164,-0.08781461840012315,0.3309961631412512,-0.9370970165453845
1729690919.5817473,304,1729690919,580780032,map,-5.745306491851807,11.475434303283691,3.3325142860412598,-0.07443469388847854,-0.09528087053578638,0.3392438892528321,-0.932895822511969
1729690919.6796994,305,1729690919,677774912,map,-5.625439643859863,11.401243209838867,3.3171257972717285,-0.07922921671377517,-0.0956114465061134,0.34100609296153434,-0.9318240322502096
1729690919.7797048,306,1729690919,777769792,map,-5.479126453399658,11.305107116699219,3.29618763923645,-0.08251883320620346,-0.09461445949112587,0.3378025793091974,-0.932806605697849
1729690919.8770504,307,1729690919,874764928,map,-5.316938877105713,11.190664291381836,3.270803213119507,-0.07639920502056095,-0.09569251479143122,0.3319674693883484,-0.9353094158368203
1729690919.9787612,308,1729690919,977761344,map,-5.124598503112793,11.05154037475586,3.2407193183898926,-0.07210427880304852,-0.0933870293851456,0.3253543556306845,-0.9382027387473628
1729690920.0906005,309,1729690920,74756736,map,-4.924692153930664,10.902063369750977,3.213561773300171,-0.06565067103428734,-0.09253623714845181,0.3185395406192871,-0.941094891745358
1729690920.178976,310,1729690920,176753152,map,-4.696900844573975,10.729759216308594,3.186783790588379,-0.06541371725364212,-0.08968598227319698,0.31352972524263584,-0.9430676442164843
1729690920.277762,311,1729690920,276750592,map,-4.458789825439453,10.548574447631836,3.160979747772217,-0.06594640298448712,-0.08898928541506271,0.30966198633584996,-0.9443735665684738
1729690920.3808334,312,1729690920,378742656,map,-4.19504976272583,10.345657348632812,3.1348142623901367,-0.06437245981049512,-0.08784660047859606,0.30701905510990446,-0.9454514588289138
1729690920.4798965,313,1729690920,478740352,map,-3.9247727394104004,10.132192611694336,3.1139423847198486,-0.06485270384635601,-0.0849271481833442,0.30740337688777086,-0.9455605058288212
1729690920.5789666,314,1729690920,577736256,map,-3.645482063293457,9.91143798828125,3.0991628170013428,-0.05855225970952244,-0.08714364316114512,0.30958806604747097,-0.945057060552694
1729690920.6788485,315,1729690920,676731904,map,-3.350663185119629,9.678557395935059,3.0907390117645264,-0.05388614945839265,-0.08161891413824102,0.31260994824427707,-0.9448331365961679
1729690920.7858763,316,1729690920,784720384,map,-3.0220742225646973,9.420389175415039,3.088704824447632,-0.030653215528114924,-0.017714941052625936,0.31225468007871826,-0.9493384939052172
1729690920.882895,317,1729690920,880716800,map,-2.721963882446289,9.187193870544434,3.086880922317505,-0.009757758248468373,0.022847044516088145,0.30651415939045545,-0.9515418376529782
1729690920.9848099,318,1729690920,983706304,map,-2.4093899726867676,8.947488784790039,3.095592737197876,-0.0027091265765312876,0.03721083549654345,0.3003634541876849,-0.9530948587330036
1729690921.08586,319,1729690921,84695808,map,-2.1089282035827637,8.722820281982422,3.105738639831543,-0.004624093229356086,0.03549402763358577,0.29592259862329134,-0.9545410454182633
1729690921.1828992,320,1729690921,181689152,map,-1.8181514739990234,8.508302688598633,3.112790822982788,-0.006878231868734901,0.031700634722411844,0.2934199488247868,-0.9554331443466967
1729690921.2860801,321,1729690921,284684288,map,-1.518144130706787,8.289210319519043,3.1197798252105713,-0.010439866528980483,0.02621879859884071,0.2920072284552739,-0.955999666483603
1729690921.3922665,322,1729690921,389680704,map,-1.2111399173736572,8.066866874694824,3.118536949157715,-0.014293309347960578,0.023566108045065627,0.2927290618632631,-0.955798114771182
1729690921.4859843,323,1729690921,484675840,map,-0.9332626461982727,7.867382526397705,3.1171438694000244,-0.010399002130823449,0.02333602149689325,0.2940405991256886,-0.955451420492526
