Time,header.seq,header.stamp.secs,header.stamp.nsecs,header.frame_id,child_frame_id,pose.pose.position.x,pose.pose.position.y,pose.pose.position.z,pose.pose.orientation.x,pose.pose.orientation.y,pose.pose.orientation.z,pose.pose.orientation.w,pose.covariance,twist.twist.linear.x,twist.twist.linear.y,twist.twist.linear.z,twist.twist.angular.x,twist.twist.angular.y,twist.twist.angular.z,twist.covariance
1729690889.2921517,1592,1729690888,967279936,map,base_link,-0.8907172032426576,0.46588332969091983,0.832,-0.002019748935761172,0.02242588692597103,0.44978366452897334,-0.8928536584080887,"(1.0424409999999997, 0.0, 0.0, 0.0, 0.0, 0.0, 0.0, 1.0424409999999997, 0.0, 0.0, 0.0, 0.0, 0.0, 0.0, 2.022084, 0.0, 0.0, 0.0, 0.0, 0.0, 0.0, 99999.0, 0.0, 0.0, 0.0, 0.0, 0.0, 0.0, 99999.0, 0.0, 0.0, 0.0, 0.0, 0.0, 0.0, 99999.0)",0.17,-0.07,-1.35,0.0,0.0,0.0,"(-1.0, 0.0, 0.0, 0.0, 0.0, 0.0, 0.0, 0.0, 0.0, 0.0, 0.0, 0.0, 0.0, 0.0, 0.0, 0.0, 0.0, 0.0, 0.0, 0.0, 0.0, 0.0, 0.0, 0.0, 0.0, 0.0, 0.0, 0.0, 0.0, 0.0, 0.0, 0.0, 0.0, 0.0, 0.0, 0.0)"
1729690889.2922685,1593,1729690889,67276352,map,base_link,-0.881438919951535,0.4547908785237714,0.976,-0.00010936978784520324,0.026364254552480593,0.35120219788203877,-0.9359283788426156,"(1.0424409999999997, 0.0, 0.0, 0.0, 0.0, 0.0, 0.0, 1.0424409999999997, 0.0, 0.0, 0.0, 0.0, 0.0, 0.0, 2.0164, 0.0, 0.0, 0.0, 0.0, 0.0, 0.0, 99999.0, 0.0, 0.0, 0.0, 0.0, 0.0, 0.0, 99999.0, 0.0, 0.0, 0.0, 0.0, 0.0, 0.0, 99999.0)",0.18,-0.05,-1.37,0.0,0.0,0.0,"(-1.0, 0.0, 0.0, 0.0, 0.0, 0.0, 0.0, 0.0, 0.0, 0.0, 0.0, 0.0, 0.0, 0.0, 0.0, 0.0, 0.0, 0.0, 0.0, 0.0, 0.0, 0.0, 0.0, 0.0, 0.0, 0.0, 0.0, 0.0, 0.0, 0.0, 0.0, 0.0, 0.0, 0.0, 0.0, 0.0)"
1729690889.2924604,1594,1729690889,167272256,map,base_link,-0.8721606355665732,0.4547908878419147,1.118,0.002624591171915181,0.030699141154467514,0.3548844469522695,-0.934402324250609,"(1.0424409999999997, 0.0, 0.0, 0.0, 0.0, 0.0, 0.0, 1.0424409999999997, 0.0, 0.0, 0.0, 0.0, 0.0, 0.0, 2.0164, 0.0, 0.0, 0.0, 0.0, 0.0, 0.0, 99999.0, 0.0, 0.0, 0.0, 0.0, 0.0, 0.0, 99999.0, 0.0, 0.0, 0.0, 0.0, 0.0, 0.0, 99999.0)",0.17,-0.04,-1.37,0.0,0.0,0.0,"(-1.0, 0.0, 0.0, 0.0, 0.0, 0.0, 0.0, 0.0, 0.0, 0.0, 0.0, 0.0, 0.0, 0.0, 0.0, 0.0, 0.0, 0.0, 0.0, 0.0, 0.0, 0.0, 0.0, 0.0, 0.0, 0.0, 0.0, 0.0, 0.0, 0.0, 0.0, 0.0, 0.0, 0.0, 0.0, 0.0)"
1729690889.292708,1595,1729690889,267268416,map,base_link,-0.8536040462358739,0.45479089692093644,1.264,-0.0016266107405878655,0.03317212370135478,0.35745298925803204,-0.9333404120775752,"(1.0424409999999997, 0.0, 0.0, 0.0, 0.0, 0.0, 0.0, 1.0424409999999997, 0.0, 0.0, 0.0, 0.0, 0.0, 0.0, 2.0107239999999997, 0.0, 0.0, 0.0, 0.0, 0.0, 0.0, 99999.0, 0.0, 0.0, 0.0, 0.0, 0.0, 0.0, 99999.0, 0.0, 0.0, 0.0, 0.0, 0.0, 0.0, 99999.0)",0.17,-0.02,-1.3,0.0,0.0,0.0,"(-1.0, 0.0, 0.0, 0.0, 0.0, 0.0, 0.0, 0.0, 0.0, 0.0, 0.0, 0.0, 0.0, 0.0, 0.0, 0.0, 0.0, 0.0, 0.0, 0.0, 0.0, 0.0, 0.0, 0.0, 0.0, 0.0, 0.0, 0.0, 0.0, 0.0, 0.0, 0.0, 0.0, 0.0, 0.0, 0.0)"
1729690889.3668323,1596,1729690889,365264832,map,base_link,-0.8350474516862618,0.45479090397323596,1.388,-0.003078312065579739,0.036161055924440695,0.3562223750190455,-0.9336961612671688,"(1.0424409999999997, 0.0, 0.0, 0.0, 0.0, 0.0, 0.0, 1.0424409999999997, 0.0, 0.0, 0.0, 0.0, 0.0, 0.0, 2.0107239999999997, 0.0, 0.0, 0.0, 0.0, 0.0, 0.0, 99999.0, 0.0, 0.0, 0.0, 0.0, 0.0, 0.0, 99999.0, 0.0, 0.0, 0.0, 0.0, 0.0, 0.0, 99999.0)",0.16,-0.01,-1.25,0.0,0.0,0.0,"(-1.0, 0.0, 0.0, 0.0, 0.0, 0.0, 0.0, 0.0, 0.0, 0.0, 0.0, 0.0, 0.0, 0.0, 0.0, 0.0, 0.0, 0.0, 0.0, 0.0, 0.0, 0.0, 0.0, 0.0, 0.0, 0.0, 0.0, 0.0, 0.0, 0.0, 0.0, 0.0, 0.0, 0.0, 0.0, 0.0)"
1729690889.466567,1597,1729690889,465257920,map,base_link,-0.8164908566415751,0.4547909101822463,1.507,-0.004352008957608194,0.0374923941922645,0.35243507280114,-0.9350748097641279,"(1.0404, 0.0, 0.0, 0.0, 0.0, 0.0, 0.0, 1.0404, 0.0, 0.0, 0.0, 0.0, 0.0, 0.0, 2.007889, 0.0, 0.0, 0.0, 0.0, 0.0, 0.0, 99999.0, 0.0, 0.0, 0.0, 0.0, 0.0, 0.0, 99999.0, 0.0, 0.0, 0.0, 0.0, 0.0, 0.0, 99999.0)",0.16,0.0,-1.18,0.0,0.0,0.0,"(-1.0, 0.0, 0.0, 0.0, 0.0, 0.0, 0.0, 0.0, 0.0, 0.0, 0.0, 0.0, 0.0, 0.0, 0.0, 0.0, 0.0, 0.0, 0.0, 0.0, 0.0, 0.0, 0.0, 0.0, 0.0, 0.0, 0.0, 0.0, 0.0, 0.0, 0.0, 0.0, 0.0, 0.0, 0.0, 0.0)"
1729690889.5670707,1598,1729690889,565254080,map,base_link,-0.8072125659244668,0.45479091727460774,1.616,-0.007445962222356487,0.04031072127443219,0.3498980966538149,-0.9358904451670376,"(1.0404, 0.0, 0.0, 0.0, 0.0, 0.0, 0.0, 1.0404, 0.0, 0.0, 0.0, 0.0, 0.0, 0.0, 2.007889, 0.0, 0.0, 0.0, 0.0, 0.0, 0.0, 99999.0, 0.0, 0.0, 0.0, 0.0, 0.0, 0.0, 99999.0, 0.0, 0.0, 0.0, 0.0, 0.0, 0.0, 99999.0)",0.15,0.01,-1.08,0.0,0.0,0.0,"(-1.0, 0.0, 0.0, 0.0, 0.0, 0.0, 0.0, 0.0, 0.0, 0.0, 0.0, 0.0, 0.0, 0.0, 0.0, 0.0, 0.0, 0.0, 0.0, 0.0, 0.0, 0.0, 0.0, 0.0, 0.0, 0.0, 0.0, 0.0, 0.0, 0.0, 0.0, 0.0, 0.0, 0.0, 0.0, 0.0)"
1729690889.6672873,1599,1729690889,665248704,map,base_link,-0.7886559683468255,0.44369846316140055,1.715,-0.00408259369586766,0.040635883912151415,0.3541414601912454,-0.9342996754473404,"(1.0424409999999997, 0.0, 0.0, 0.0, 0.0, 0.0, 0.0, 1.0424409999999997, 0.0, 0.0, 0.0, 0.0, 0.0, 0.0, 2.007889, 0.0, 0.0, 0.0, 0.0, 0.0, 0.0, 99999.0, 0.0, 0.0, 0.0, 0.0, 0.0, 0.0, 99999.0, 0.0, 0.0, 0.0, 0.0, 0.0, 0.0, 99999.0)",0.12,0.01,-1.04,0.0,0.0,0.0,"(-1.0, 0.0, 0.0, 0.0, 0.0, 0.0, 0.0, 0.0, 0.0, 0.0, 0.0, 0.0, 0.0, 0.0, 0.0, 0.0, 0.0, 0.0, 0.0, 0.0, 0.0, 0.0, 0.0, 0.0, 0.0, 0.0, 0.0, 0.0, 0.0, 0.0, 0.0, 0.0, 0.0, 0.0, 0.0, 0.0)"
1729690889.7688353,1600,1729690889,766244352,map,base_link,-0.77937767395727,0.4326060078148914,1.808,0.0001779169868575649,0.04238934549360584,0.35684958448429444,-0.9331995958998032,"(1.0424409999999997, 0.0, 0.0, 0.0, 0.0, 0.0, 0.0, 1.0424409999999997, 0.0, 0.0, 0.0, 0.0, 0.0, 0.0, 2.007889, 0.0, 0.0, 0.0, 0.0, 0.0, 0.0, 99999.0, 0.0, 0.0, 0.0, 0.0, 0.0, 0.0, 99999.0, 0.0, 0.0, 0.0, 0.0, 0.0, 0.0, 99999.0)",0.11,0.02,-0.99,0.0,0.0,0.0,"(-1.0, 0.0, 0.0, 0.0, 0.0, 0.0, 0.0, 0.0, 0.0, 0.0, 0.0, 0.0, 0.0, 0.0, 0.0, 0.0, 0.0, 0.0, 0.0, 0.0, 0.0, 0.0, 0.0, 0.0, 0.0, 0.0, 0.0, 0.0, 0.0, 0.0, 0.0, 0.0, 0.0, 0.0, 0.0, 0.0)"
1729690889.8687017,1601,1729690889,866238976,map,base_link,-0.7700993804347793,0.42151355254094325,1.897,-0.0029479566706822505,0.042865366565563535,0.3593956227925036,-0.9321956104907683,"(1.0424409999999997, 0.0, 0.0, 0.0, 0.0, 0.0, 0.0, 1.0424409999999997, 0.0, 0.0, 0.0, 0.0, 0.0, 0.0, 2.002225, 0.0, 0.0, 0.0, 0.0, 0.0, 0.0, 99999.0, 0.0, 0.0, 0.0, 0.0, 0.0, 0.0, 99999.0, 0.0, 0.0, 0.0, 0.0, 0.0, 0.0, 99999.0)",0.11,0.01,-0.89,0.0,0.0,0.0,"(-1.0, 0.0, 0.0, 0.0, 0.0, 0.0, 0.0, 0.0, 0.0, 0.0, 0.0, 0.0, 0.0, 0.0, 0.0, 0.0, 0.0, 0.0, 0.0, 0.0, 0.0, 0.0, 0.0, 0.0, 0.0, 0.0, 0.0, 0.0, 0.0, 0.0, 0.0, 0.0, 0.0, 0.0, 0.0, 0.0)"
1729690889.970077,1602,1729690889,966233856,map,base_link,-0.7515427781102453,0.42151355599543133,1.979,-0.003804930607893903,0.045605120785285454,0.358614021838721,-0.932363490706219,"(1.0424409999999997, 0.0, 0.0, 0.0, 0.0, 0.0, 0.0, 1.0424409999999997, 0.0, 0.0, 0.0, 0.0, 0.0, 0.0, 2.002225, 0.0, 0.0, 0.0, 0.0, 0.0, 0.0, 99999.0, 0.0, 0.0, 0.0, 0.0, 0.0, 0.0, 99999.0, 0.0, 0.0, 0.0, 0.0, 0.0, 0.0, 99999.0)",0.09,0.02,-0.81,0.0,0.0,0.0,"(-1.0, 0.0, 0.0, 0.0, 0.0, 0.0, 0.0, 0.0, 0.0, 0.0, 0.0, 0.0, 0.0, 0.0, 0.0, 0.0, 0.0, 0.0, 0.0, 0.0, 0.0, 0.0, 0.0, 0.0, 0.0, 0.0, 0.0, 0.0, 0.0, 0.0, 0.0, 0.0, 0.0, 0.0, 0.0, 0.0)"
1729690890.068896,1603,1729690890,66228992,map,base_link,-0.7422644820013586,0.42151356046677113,2.05,-0.0042524605396267075,0.04828071701892354,0.3584915537718366,-0.932273937648024,"(1.0404, 0.0, 0.0, 0.0, 0.0, 0.0, 0.0, 1.0404, 0.0, 0.0, 0.0, 0.0, 0.0, 0.0, 1.9993959999999997, 0.0, 0.0, 0.0, 0.0, 0.0, 0.0, 99999.0, 0.0, 0.0, 0.0, 0.0, 0.0, 0.0, 99999.0, 0.0, 0.0, 0.0, 0.0, 0.0, 0.0, 99999.0)",0.07,0.02,-0.76,0.0,0.0,0.0,"(-1.0, 0.0, 0.0, 0.0, 0.0, 0.0, 0.0, 0.0, 0.0, 0.0, 0.0, 0.0, 0.0, 0.0, 0.0, 0.0, 0.0, 0.0, 0.0, 0.0, 0.0, 0.0, 0.0, 0.0, 0.0, 0.0, 0.0, 0.0, 0.0, 0.0, 0.0, 0.0, 0.0, 0.0, 0.0, 0.0)"
1729690890.170351,1604,1729690890,166223872,map,base_link,-0.723707876442338,0.41042110048295494,2.109,-0.003716175215032674,0.05034719941818496,0.3590763256743239,-0.9319418125037333,"(1.0404, 0.0, 0.0, 0.0, 0.0, 0.0, 0.0, 1.0404, 0.0, 0.0, 0.0, 0.0, 0.0, 0.0, 1.9993959999999997, 0.0, 0.0, 0.0, 0.0, 0.0, 0.0, 99999.0, 0.0, 0.0, 0.0, 0.0, 0.0, 0.0, 99999.0, 0.0, 0.0, 0.0, 0.0, 0.0, 0.0, 99999.0)",0.05,0.05,-0.72,0.0,0.0,0.0,"(-1.0, 0.0, 0.0, 0.0, 0.0, 0.0, 0.0, 0.0, 0.0, 0.0, 0.0, 0.0, 0.0, 0.0, 0.0, 0.0, 0.0, 0.0, 0.0, 0.0, 0.0, 0.0, 0.0, 0.0, 0.0, 0.0, 0.0, 0.0, 0.0, 0.0, 0.0, 0.0, 0.0, 0.0, 0.0, 0.0)"
1729690890.2679384,1605,1729690890,266218752,map,base_link,-0.7051512712128594,0.399328642059801,2.162,-0.004427768559377994,0.049286680081653184,0.35717862303954206,-0.9327243157952352,"(1.0404, 0.0, 0.0, 0.0, 0.0, 0.0, 0.0, 1.0404, 0.0, 0.0, 0.0, 0.0, 0.0, 0.0, 1.996569, 0.0, 0.0, 0.0, 0.0, 0.0, 0.0, 99999.0, 0.0, 0.0, 0.0, 0.0, 0.0, 0.0, 99999.0, 0.0, 0.0, 0.0, 0.0, 0.0, 0.0, 99999.0)",0.03,0.06,-0.64,0.0,0.0,0.0,"(-1.0, 0.0, 0.0, 0.0, 0.0, 0.0, 0.0, 0.0, 0.0, 0.0, 0.0, 0.0, 0.0, 0.0, 0.0, 0.0, 0.0, 0.0, 0.0, 0.0, 0.0, 0.0, 0.0, 0.0, 0.0, 0.0, 0.0, 0.0, 0.0, 0.0, 0.0, 0.0, 0.0, 0.0, 0.0, 0.0)"
1729690890.367836,1606,1729690890,366212096,map,base_link,-0.7051512758974543,0.41042110585565544,2.212,-0.006479337557047933,0.047548499422019545,0.3541785745616963,-0.9339457670062974,"(1.0404, 0.0, 0.0, 0.0, 0.0, 0.0, 0.0, 1.0404, 0.0, 0.0, 0.0, 0.0, 0.0, 0.0, 1.996569, 0.0, 0.0, 0.0, 0.0, 0.0, 0.0, 99999.0, 0.0, 0.0, 0.0, 0.0, 0.0, 0.0, 99999.0, 0.0, 0.0, 0.0, 0.0, 0.0, 0.0, 99999.0)",0.03,0.07,-0.56,0.0,0.0,0.0,"(-1.0, 0.0, 0.0, 0.0, 0.0, 0.0, 0.0, 0.0, 0.0, 0.0, 0.0, 0.0, 0.0, 0.0, 0.0, 0.0, 0.0, 0.0, 0.0, 0.0, 0.0, 0.0, 0.0, 0.0, 0.0, 0.0, 0.0, 0.0, 0.0, 0.0, 0.0, 0.0, 0.0, 0.0, 0.0, 0.0)"
1729690890.4679947,1607,1729690890,466206976,map,base_link,-0.6958729738404726,0.4215135705800844,2.256,-0.008708039164071826,0.04608324208617738,0.3553288610333601,-0.9335640874463192,"(1.0404, 0.0, 0.0, 0.0, 0.0, 0.0, 0.0, 1.0404, 0.0, 0.0, 0.0, 0.0, 0.0, 0.0, 1.9937439999999997, 0.0, 0.0, 0.0, 0.0, 0.0, 0.0, 99999.0, 0.0, 0.0, 0.0, 0.0, 0.0, 0.0, 99999.0, 0.0, 0.0, 0.0, 0.0, 0.0, 0.0, 99999.0)",0.0,0.09,-0.56,0.0,0.0,0.0,"(-1.0, 0.0, 0.0, 0.0, 0.0, 0.0, 0.0, 0.0, 0.0, 0.0, 0.0, 0.0, 0.0, 0.0, 0.0, 0.0, 0.0, 0.0, 0.0, 0.0, 0.0, 0.0, 0.0, 0.0, 0.0, 0.0, 0.0, 0.0, 0.0, 0.0, 0.0, 0.0, 0.0, 0.0, 0.0, 0.0)"
1729690890.5678682,1608,1729690890,566198784,map,base_link,-0.6865946706472033,0.44369849618273544,2.301,-0.01207020880175827,0.044425096049234905,0.3566444099252733,-0.9331052918988038,"(1.0404, 0.0, 0.0, 0.0, 0.0, 0.0, 0.0, 1.0404, 0.0, 0.0, 0.0, 0.0, 0.0, 0.0, 1.9937439999999997, 0.0, 0.0, 0.0, 0.0, 0.0, 0.0, 99999.0, 0.0, 0.0, 0.0, 0.0, 0.0, 0.0, 99999.0, 0.0, 0.0, 0.0, 0.0, 0.0, 0.0, 99999.0)",0.0,0.11,-0.48,0.0,0.0,0.0,"(-1.0, 0.0, 0.0, 0.0, 0.0, 0.0, 0.0, 0.0, 0.0, 0.0, 0.0, 0.0, 0.0, 0.0, 0.0, 0.0, 0.0, 0.0, 0.0, 0.0, 0.0, 0.0, 0.0, 0.0, 0.0, 0.0, 0.0, 0.0, 0.0, 0.0, 0.0, 0.0, 0.0, 0.0, 0.0, 0.0)"
1729690890.667782,1609,1729690890,666195200,map,base_link,-0.6865946733400392,0.46588342318003584,2.343,-0.014325455890515915,0.041260654354841934,0.3585205195082836,-0.9324995318000162,"(1.0404, 0.0, 0.0, 0.0, 0.0, 0.0, 0.0, 1.0404, 0.0, 0.0, 0.0, 0.0, 0.0, 0.0, 1.9909210000000002, 0.0, 0.0, 0.0, 0.0, 0.0, 0.0, 99999.0, 0.0, 0.0, 0.0, 0.0, 0.0, 0.0, 99999.0, 0.0, 0.0, 0.0, 0.0, 0.0, 0.0, 99999.0)",-0.05,0.11,-0.45,0.0,0.0,0.0,"(-1.0, 0.0, 0.0, 0.0, 0.0, 0.0, 0.0, 0.0, 0.0, 0.0, 0.0, 0.0, 0.0, 0.0, 0.0, 0.0, 0.0, 0.0, 0.0, 0.0, 0.0, 0.0, 0.0, 0.0, 0.0, 0.0, 0.0, 0.0, 0.0, 0.0, 0.0, 0.0, 0.0, 0.0, 0.0, 0.0)"
1729690890.769596,1610,1729690890,767191616,map,base_link,-0.6865946749123089,0.48806834944198874,2.379,-0.0173078113211016,0.03962149183895448,0.3571894776428212,-0.9330306822998788,"(1.0404, 0.0, 0.0, 0.0, 0.0, 0.0, 0.0, 1.0404, 0.0, 0.0, 0.0, 0.0, 0.0, 0.0, 1.9909210000000002, 0.0, 0.0, 0.0, 0.0, 0.0, 0.0, 99999.0, 0.0, 0.0, 0.0, 0.0, 0.0, 0.0, 99999.0, 0.0, 0.0, 0.0, 0.0, 0.0, 0.0, 99999.0)",-0.05,0.11,-0.38,0.0,0.0,0.0,"(-1.0, 0.0, 0.0, 0.0, 0.0, 0.0, 0.0, 0.0, 0.0, 0.0, 0.0, 0.0, 0.0, 0.0, 0.0, 0.0, 0.0, 0.0, 0.0, 0.0, 0.0, 0.0, 0.0, 0.0, 0.0, 0.0, 0.0, 0.0, 0.0, 0.0, 0.0, 0.0, 0.0, 0.0, 0.0, 0.0)"
1729690890.8696291,1611,1729690890,867188032,map,base_link,-0.6773163715854174,0.49916081261330325,2.409,-0.019571844371509866,0.03948645302022428,0.35699195765997666,-0.9330672564729063,"(1.0383609999999999, 0.0, 0.0, 0.0, 0.0, 0.0, 0.0, 1.0383609999999999, 0.0, 0.0, 0.0, 0.0, 0.0, 0.0, 1.9880999999999998, 0.0, 0.0, 0.0, 0.0, 0.0, 0.0, 99999.0, 0.0, 0.0, 0.0, 0.0, 0.0, 0.0, 99999.0, 0.0, 0.0, 0.0, 0.0, 0.0, 0.0, 99999.0)",-0.05,0.11,-0.32,0.0,0.0,0.0,"(-1.0, 0.0, 0.0, 0.0, 0.0, 0.0, 0.0, 0.0, 0.0, 0.0, 0.0, 0.0, 0.0, 0.0, 0.0, 0.0, 0.0, 0.0, 0.0, 0.0, 0.0, 0.0, 0.0, 0.0, 0.0, 0.0, 0.0, 0.0, 0.0, 0.0, 0.0, 0.0, 0.0, 0.0, 0.0, 0.0)"
1729690890.9699736,1612,1729690890,967183424,map,base_link,-0.6680380660514529,0.5213457383970026,2.435,-0.021823859143529547,0.04032124643898717,0.3555855284212841,-0.9335185312756498,"(1.0383609999999999, 0.0, 0.0, 0.0, 0.0, 0.0, 0.0, 1.0383609999999999, 0.0, 0.0, 0.0, 0.0, 0.0, 0.0, 1.9880999999999998, 0.0, 0.0, 0.0, 0.0, 0.0, 0.0, 99999.0, 0.0, 0.0, 0.0, 0.0, 0.0, 0.0, 99999.0, 0.0, 0.0, 0.0, 0.0, 0.0, 0.0, 99999.0)",-0.06,0.09,-0.21,0.0,0.0,0.0,"(-1.0, 0.0, 0.0, 0.0, 0.0, 0.0, 0.0, 0.0, 0.0, 0.0, 0.0, 0.0, 0.0, 0.0, 0.0, 0.0, 0.0, 0.0, 0.0, 0.0, 0.0, 0.0, 0.0, 0.0, 0.0, 0.0, 0.0, 0.0, 0.0, 0.0, 0.0, 0.0, 0.0, 0.0, 0.0, 0.0)"
1729690891.0697575,1613,1729690891,68178816,map,base_link,-0.6494814555644182,0.5435306641806767,2.462,-0.02480498705710298,0.0437339992181768,0.3547266128915648,-0.9336172020887143,"(1.0383609999999999, 0.0, 0.0, 0.0, 0.0, 0.0, 0.0, 1.0383609999999999, 0.0, 0.0, 0.0, 0.0, 0.0, 0.0, 1.985281, 0.0, 0.0, 0.0, 0.0, 0.0, 0.0, 99999.0, 0.0, 0.0, 0.0, 0.0, 0.0, 0.0, 99999.0, 0.0, 0.0, 0.0, 0.0, 0.0, 0.0, 99999.0)",-0.05,0.1,-0.16,0.0,0.0,0.0,"(-1.0, 0.0, 0.0, 0.0, 0.0, 0.0, 0.0, 0.0, 0.0, 0.0, 0.0, 0.0, 0.0, 0.0, 0.0, 0.0, 0.0, 0.0, 0.0, 0.0, 0.0, 0.0, 0.0, 0.0, 0.0, 0.0, 0.0, 0.0, 0.0, 0.0, 0.0, 0.0, 0.0, 0.0, 0.0, 0.0)"
1729690891.1668994,1614,1729690891,165175488,map,base_link,-0.6402031488601063,0.5657155886979781,2.48,-0.02711815940214534,0.04662095384121388,0.35472415303986926,-0.9334140921068863,"(1.0383609999999999, 0.0, 0.0, 0.0, 0.0, 0.0, 0.0, 1.0383609999999999, 0.0, 0.0, 0.0, 0.0, 0.0, 0.0, 1.985281, 0.0, 0.0, 0.0, 0.0, 0.0, 0.0, 99999.0, 0.0, 0.0, 0.0, 0.0, 0.0, 0.0, 99999.0, 0.0, 0.0, 0.0, 0.0, 0.0, 0.0, 99999.0)",-0.06,0.09,-0.12,0.0,0.0,0.0,"(-1.0, 0.0, 0.0, 0.0, 0.0, 0.0, 0.0, 0.0, 0.0, 0.0, 0.0, 0.0, 0.0, 0.0, 0.0, 0.0, 0.0, 0.0, 0.0, 0.0, 0.0, 0.0, 0.0, 0.0, 0.0, 0.0, 0.0, 0.0, 0.0, 0.0, 0.0, 0.0, 0.0, 0.0, 0.0, 0.0)"
1729690891.266781,1615,1729690891,265168064,map,base_link,-0.6402031466682995,0.5989929756163768,2.484,-0.030954627000000356,0.04731629530942631,0.3545681379331616,-0.9333190316435706,"(1.036324, 0.0, 0.0, 0.0, 0.0, 0.0, 0.0, 1.036324, 0.0, 0.0, 0.0, 0.0, 0.0, 0.0, 1.9824639999999998, 0.0, 0.0, 0.0, 0.0, 0.0, 0.0, 99999.0, 0.0, 0.0, 0.0, 0.0, 0.0, 0.0, 99999.0, 0.0, 0.0, 0.0, 0.0, 0.0, 0.0, 99999.0)",-0.07,0.08,-0.02,0.0,0.0,0.0,"(-1.0, 0.0, 0.0, 0.0, 0.0, 0.0, 0.0, 0.0, 0.0, 0.0, 0.0, 0.0, 0.0, 0.0, 0.0, 0.0, 0.0, 0.0, 0.0, 0.0, 0.0, 0.0, 0.0, 0.0, 0.0, 0.0, 0.0, 0.0, 0.0, 0.0, 0.0, 0.0, 0.0, 0.0, 0.0, 0.0)"
1729690891.3676746,1616,1729690891,366160384,map,base_link,-0.6309248392813818,0.621177899561973,2.482,-0.03352972974413172,0.04511933775175941,0.35396755971822635,-0.9335667995656509,"(1.036324, 0.0, 0.0, 0.0, 0.0, 0.0, 0.0, 1.036324, 0.0, 0.0, 0.0, 0.0, 0.0, 0.0, 1.9824639999999998, 0.0, 0.0, 0.0, 0.0, 0.0, 0.0, 99999.0, 0.0, 0.0, 0.0, 0.0, 0.0, 0.0, 99999.0, 0.0, 0.0, 0.0, 0.0, 0.0, 0.0, 99999.0)",-0.11,0.07,-0.01,0.0,0.0,0.0,"(-1.0, 0.0, 0.0, 0.0, 0.0, 0.0, 0.0, 0.0, 0.0, 0.0, 0.0, 0.0, 0.0, 0.0, 0.0, 0.0, 0.0, 0.0, 0.0, 0.0, 0.0, 0.0, 0.0, 0.0, 0.0, 0.0, 0.0, 0.0, 0.0, 0.0, 0.0, 0.0, 0.0, 0.0, 0.0, 0.0)"
1729690891.4679852,1617,1729690891,466156032,map,base_link,-0.6402031418126657,0.6544552844310669,2.477,-0.034195515081584735,0.041120256376078676,0.35299251327256514,-0.9340963959021514,"(1.0342889999999998, 0.0, 0.0, 0.0, 0.0, 0.0, 0.0, 1.0342889999999998, 0.0, 0.0, 0.0, 0.0, 0.0, 0.0, 1.979649, 0.0, 0.0, 0.0, 0.0, 0.0, 0.0, 99999.0, 0.0, 0.0, 0.0, 0.0, 0.0, 0.0, 99999.0, 0.0, 0.0, 0.0, 0.0, 0.0, 0.0, 99999.0)",-0.12,0.07,0.02,0.0,0.0,0.0,"(-1.0, 0.0, 0.0, 0.0, 0.0, 0.0, 0.0, 0.0, 0.0, 0.0, 0.0, 0.0, 0.0, 0.0, 0.0, 0.0, 0.0, 0.0, 0.0, 0.0, 0.0, 0.0, 0.0, 0.0, 0.0, 0.0, 0.0, 0.0, 0.0, 0.0, 0.0, 0.0, 0.0, 0.0, 0.0, 0.0)"
1729690891.568835,1618,1729690891,566151168,map,base_link,-0.6494814467768741,0.6877326723587691,2.472,-0.035086210683846965,0.03438684530246593,0.35227390477320003,-0.9346066545375308,"(1.0342889999999998, 0.0, 0.0, 0.0, 0.0, 0.0, 0.0, 1.0342889999999998, 0.0, 0.0, 0.0, 0.0, 0.0, 0.0, 1.979649, 0.0, 0.0, 0.0, 0.0, 0.0, 0.0, 99999.0, 0.0, 0.0, 0.0, 0.0, 0.0, 0.0, 99999.0, 0.0, 0.0, 0.0, 0.0, 0.0, 0.0, 99999.0)",-0.16,0.04,0.0,0.0,0.0,0.0,"(-1.0, 0.0, 0.0, 0.0, 0.0, 0.0, 0.0, 0.0, 0.0, 0.0, 0.0, 0.0, 0.0, 0.0, 0.0, 0.0, 0.0, 0.0, 0.0, 0.0, 0.0, 0.0, 0.0, 0.0, 0.0, 0.0, 0.0, 0.0, 0.0, 0.0, 0.0, 0.0, 0.0, 0.0, 0.0, 0.0)"
1729690891.6688473,1619,1729690891,666149888,map,base_link,-0.6680380553509397,0.7210100584257995,2.467,-0.035412110018613246,0.030406503355544703,0.3517632882466854,-0.9349246044786703,"(1.0342889999999998, 0.0, 0.0, 0.0, 0.0, 0.0, 0.0, 1.0342889999999998, 0.0, 0.0, 0.0, 0.0, 0.0, 0.0, 1.9740250000000001, 0.0, 0.0, 0.0, 0.0, 0.0, 0.0, 99999.0, 0.0, 0.0, 0.0, 0.0, 0.0, 0.0, 99999.0, 0.0, 0.0, 0.0, 0.0, 0.0, 0.0, 99999.0)",-0.15,0.03,0.02,0.0,0.0,0.0,"(-1.0, 0.0, 0.0, 0.0, 0.0, 0.0, 0.0, 0.0, 0.0, 0.0, 0.0, 0.0, 0.0, 0.0, 0.0, 0.0, 0.0, 0.0, 0.0, 0.0, 0.0, 0.0, 0.0, 0.0, 0.0, 0.0, 0.0, 0.0, 0.0, 0.0, 0.0, 0.0, 0.0, 0.0, 0.0, 0.0)"
1729690891.7710671,1620,1729690891,769144000,map,base_link,-0.6865946665349234,0.7431949845240747,2.463,-0.037314263858402,0.028914119023172976,0.3506629174795209,-0.9353112517972667,"(1.0342889999999998, 0.0, 0.0, 0.0, 0.0, 0.0, 0.0, 1.0342889999999998, 0.0, 0.0, 0.0, 0.0, 0.0, 0.0, 1.9740250000000001, 0.0, 0.0, 0.0, 0.0, 0.0, 0.0, 99999.0, 0.0, 0.0, 0.0, 0.0, 0.0, 0.0, 99999.0, 0.0, 0.0, 0.0, 0.0, 0.0, 0.0, 99999.0)",-0.16,0.01,0.0,0.0,0.0,0.0,"(-1.0, 0.0, 0.0, 0.0, 0.0, 0.0, 0.0, 0.0, 0.0, 0.0, 0.0, 0.0, 0.0, 0.0, 0.0, 0.0, 0.0, 0.0, 0.0, 0.0, 0.0, 0.0, 0.0, 0.0, 0.0, 0.0, 0.0, 0.0, 0.0, 0.0, 0.0, 0.0, 0.0, 0.0, 0.0, 0.0)"
1729690891.8693564,1621,1729690891,867138112,map,base_link,-0.7051512766015458,0.7764723721064928,2.461,-0.03969193589228722,0.02725532220016486,0.34962624554482613,-0.935651209619865,"(1.032256, 0.0, 0.0, 0.0, 0.0, 0.0, 0.0, 1.032256, 0.0, 0.0, 0.0, 0.0, 0.0, 0.0, 1.9712159999999999, 0.0, 0.0, 0.0, 0.0, 0.0, 0.0, 99999.0, 0.0, 0.0, 0.0, 0.0, 0.0, 0.0, 99999.0, 0.0, 0.0, 0.0, 0.0, 0.0, 0.0, 99999.0)",-0.17,-0.01,0.01,0.0,0.0,0.0,"(-1.0, 0.0, 0.0, 0.0, 0.0, 0.0, 0.0, 0.0, 0.0, 0.0, 0.0, 0.0, 0.0, 0.0, 0.0, 0.0, 0.0, 0.0, 0.0, 0.0, 0.0, 0.0, 0.0, 0.0, 0.0, 0.0, 0.0, 0.0, 0.0, 0.0, 0.0, 0.0, 0.0, 0.0, 0.0, 0.0)"
1729690891.9669752,1622,1729690891,965135296,map,base_link,-0.7237078877855293,0.7986572974293839,2.46,-0.0396083555203628,0.024192115262136472,0.34881723998883507,-0.9360408392899784,"(1.032256, 0.0, 0.0, 0.0, 0.0, 0.0, 0.0, 1.032256, 0.0, 0.0, 0.0, 0.0, 0.0, 0.0, 1.9712159999999999, 0.0, 0.0, 0.0, 0.0, 0.0, 0.0, 99999.0, 0.0, 0.0, 0.0, 0.0, 0.0, 0.0, 99999.0, 0.0, 0.0, 0.0, 0.0, 0.0, 0.0, 99999.0)",-0.18,-0.04,-0.02,0.0,0.0,0.0,"(-1.0, 0.0, 0.0, 0.0, 0.0, 0.0, 0.0, 0.0, 0.0, 0.0, 0.0, 0.0, 0.0, 0.0, 0.0, 0.0, 0.0, 0.0, 0.0, 0.0, 0.0, 0.0, 0.0, 0.0, 0.0, 0.0, 0.0, 0.0, 0.0, 0.0, 0.0, 0.0, 0.0, 0.0, 0.0, 0.0)"
1729690892.0670285,1623,1729690892,65130944,map,base_link,-0.7515428045670013,0.8208422240256641,2.462,-0.037491230009403013,0.021933211449460803,0.34910625802666256,-0.9360759384336919,"(1.0302249999999997, 0.0, 0.0, 0.0, 0.0, 0.0, 0.0, 1.0302249999999997, 0.0, 0.0, 0.0, 0.0, 0.0, 0.0, 1.968409, 0.0, 0.0, 0.0, 0.0, 0.0, 0.0, 99999.0, 0.0, 0.0, 0.0, 0.0, 0.0, 0.0, 99999.0, 0.0, 0.0, 0.0, 0.0, 0.0, 0.0, 99999.0)",-0.17,-0.07,0.0,0.0,0.0,0.0,"(-1.0, 0.0, 0.0, 0.0, 0.0, 0.0, 0.0, 0.0, 0.0, 0.0, 0.0, 0.0, 0.0, 0.0, 0.0, 0.0, 0.0, 0.0, 0.0, 0.0, 0.0, 0.0, 0.0, 0.0, 0.0, 0.0, 0.0, 0.0, 0.0, 0.0, 0.0, 0.0, 0.0, 0.0, 0.0, 0.0)"
1729690892.1676085,1624,1729690892,165128640,map,base_link,-0.7700994153554728,0.8430271499550588,2.465,-0.03698403471301209,0.022072744666969304,0.3500354279724729,-0.935745785073778,"(1.0302249999999997, 0.0, 0.0, 0.0, 0.0, 0.0, 0.0, 1.0302249999999997, 0.0, 0.0, 0.0, 0.0, 0.0, 0.0, 1.968409, 0.0, 0.0, 0.0, 0.0, 0.0, 0.0, 99999.0, 0.0, 0.0, 0.0, 0.0, 0.0, 0.0, 99999.0, 0.0, 0.0, 0.0, 0.0, 0.0, 0.0, 99999.0)",-0.14,-0.1,0.0,0.0,0.0,0.0,"(-1.0, 0.0, 0.0, 0.0, 0.0, 0.0, 0.0, 0.0, 0.0, 0.0, 0.0, 0.0, 0.0, 0.0, 0.0, 0.0, 0.0, 0.0, 0.0, 0.0, 0.0, 0.0, 0.0, 0.0, 0.0, 0.0, 0.0, 0.0, 0.0, 0.0, 0.0, 0.0, 0.0, 0.0, 0.0, 0.0)"
1729690892.2670622,1625,1729690892,265122240,map,base_link,-0.7979343328090127,0.8541196132041885,2.467,-0.03587912951362798,0.02154136549792808,0.3510747124955592,-0.9354117830581294,"(1.0302249999999997, 0.0, 0.0, 0.0, 0.0, 0.0, 0.0, 1.0302249999999997, 0.0, 0.0, 0.0, 0.0, 0.0, 0.0, 1.9656039999999997, 0.0, 0.0, 0.0, 0.0, 0.0, 0.0, 99999.0, 0.0, 0.0, 0.0, 0.0, 0.0, 0.0, 99999.0, 0.0, 0.0, 0.0, 0.0, 0.0, 0.0, 99999.0)",-0.14,-0.13,-0.04,0.0,0.0,0.0,"(-1.0, 0.0, 0.0, 0.0, 0.0, 0.0, 0.0, 0.0, 0.0, 0.0, 0.0, 0.0, 0.0, 0.0, 0.0, 0.0, 0.0, 0.0, 0.0, 0.0, 0.0, 0.0, 0.0, 0.0, 0.0, 0.0, 0.0, 0.0, 0.0, 0.0, 0.0, 0.0, 0.0, 0.0, 0.0, 0.0)"
1729690892.3682556,1626,1729690892,366119168,map,base_link,-0.8257692507534992,0.8763045401428862,2.468,-0.03856804706599598,0.021058690909946207,0.35051290752002845,-0.9355264501576267,"(1.0302249999999997, 0.0, 0.0, 0.0, 0.0, 0.0, 0.0, 1.0302249999999997, 0.0, 0.0, 0.0, 0.0, 0.0, 0.0, 1.9656039999999997, 0.0, 0.0, 0.0, 0.0, 0.0, 0.0, 99999.0, 0.0, 0.0, 0.0, 0.0, 0.0, 0.0, 99999.0, 0.0, 0.0, 0.0, 0.0, 0.0, 0.0, 99999.0)",-0.13,-0.16,-0.02,0.0,0.0,0.0,"(-1.0, 0.0, 0.0, 0.0, 0.0, 0.0, 0.0, 0.0, 0.0, 0.0, 0.0, 0.0, 0.0, 0.0, 0.0, 0.0, 0.0, 0.0, 0.0, 0.0, 0.0, 0.0, 0.0, 0.0, 0.0, 0.0, 0.0, 0.0, 0.0, 0.0, 0.0, 0.0, 0.0, 0.0, 0.0, 0.0)"
1729690892.4680872,1627,1729690892,466114560,map,base_link,-0.8536041680341736,0.8873970047361771,2.468,-0.035568806514859386,0.02130594510087863,0.3503512468035626,-0.9357002300788728,"(1.028196, 0.0, 0.0, 0.0, 0.0, 0.0, 0.0, 1.028196, 0.0, 0.0, 0.0, 0.0, 0.0, 0.0, 1.962801, 0.0, 0.0, 0.0, 0.0, 0.0, 0.0, 99999.0, 0.0, 0.0, 0.0, 0.0, 0.0, 0.0, 99999.0, 0.0, 0.0, 0.0, 0.0, 0.0, 0.0, 99999.0)",-0.1,-0.17,-0.02,0.0,0.0,0.0,"(-1.0, 0.0, 0.0, 0.0, 0.0, 0.0, 0.0, 0.0, 0.0, 0.0, 0.0, 0.0, 0.0, 0.0, 0.0, 0.0, 0.0, 0.0, 0.0, 0.0, 0.0, 0.0, 0.0, 0.0, 0.0, 0.0, 0.0, 0.0, 0.0, 0.0, 0.0, 0.0, 0.0, 0.0, 0.0, 0.0)"
1729690892.5680997,1628,1729690892,566110208,map,base_link,-0.8814390861860408,0.8873970077188269,2.468,-0.03271952731987132,0.01872062378806971,0.34915087212080054,-0.936307983130676,"(1.028196, 0.0, 0.0, 0.0, 0.0, 0.0, 0.0, 1.028196, 0.0, 0.0, 0.0, 0.0, 0.0, 0.0, 1.962801, 0.0, 0.0, 0.0, 0.0, 0.0, 0.0, 99999.0, 0.0, 0.0, 0.0, 0.0, 0.0, 0.0, 99999.0, 0.0, 0.0, 0.0, 0.0, 0.0, 0.0, 99999.0)",-0.1,-0.2,-0.01,0.0,0.0,0.0,"(-1.0, 0.0, 0.0, 0.0, 0.0, 0.0, 0.0, 0.0, 0.0, 0.0, 0.0, 0.0, 0.0, 0.0, 0.0, 0.0, 0.0, 0.0, 0.0, 0.0, 0.0, 0.0, 0.0, 0.0, 0.0, 0.0, 0.0, 0.0, 0.0, 0.0, 0.0, 0.0, 0.0, 0.0, 0.0, 0.0)"
1729690892.6680896,1629,1729690892,666104064,map,base_link,-0.9185523113445797,0.8873970108930134,2.467,-0.029434226459081687,0.01929934659051335,0.3473586809401143,-0.9370715598658828,"(1.028196, 0.0, 0.0, 0.0, 0.0, 0.0, 0.0, 1.028196, 0.0, 0.0, 0.0, 0.0, 0.0, 0.0, 1.9599999999999997, 0.0, 0.0, 0.0, 0.0, 0.0, 0.0, 99999.0, 0.0, 0.0, 0.0, 0.0, 0.0, 0.0, 99999.0, 0.0, 0.0, 0.0, 0.0, 0.0, 0.0, 99999.0)",-0.08,-0.21,-0.02,0.0,0.0,0.0,"(-1.0, 0.0, 0.0, 0.0, 0.0, 0.0, 0.0, 0.0, 0.0, 0.0, 0.0, 0.0, 0.0, 0.0, 0.0, 0.0, 0.0, 0.0, 0.0, 0.0, 0.0, 0.0, 0.0, 0.0, 0.0, 0.0, 0.0, 0.0, 0.0, 0.0, 0.0, 0.0, 0.0, 0.0, 0.0, 0.0)"
1729690892.7679887,1630,1729690892,766099456,map,base_link,-0.9463872291742377,0.8873970132389811,2.467,-0.027362727423440737,0.01749340325828108,0.3449934620866635,-0.938043055039507,"(1.028196, 0.0, 0.0, 0.0, 0.0, 0.0, 0.0, 1.028196, 0.0, 0.0, 0.0, 0.0, 0.0, 0.0, 1.9599999999999997, 0.0, 0.0, 0.0, 0.0, 0.0, 0.0, 99999.0, 0.0, 0.0, 0.0, 0.0, 0.0, 0.0, 99999.0, 0.0, 0.0, 0.0, 0.0, 0.0, 0.0, 99999.0)",-0.08,-0.24,-0.03,0.0,0.0,0.0,"(-1.0, 0.0, 0.0, 0.0, 0.0, 0.0, 0.0, 0.0, 0.0, 0.0, 0.0, 0.0, 0.0, 0.0, 0.0, 0.0, 0.0, 0.0, 0.0, 0.0, 0.0, 0.0, 0.0, 0.0, 0.0, 0.0, 0.0, 0.0, 0.0, 0.0, 0.0, 0.0, 0.0, 0.0, 0.0, 0.0)"
1729690892.868024,1631,1729690892,866096384,map,base_link,-0.9742221485430288,0.8763045538611276,2.465,-0.02613225066218246,0.01862343560616174,0.3426837046342636,-0.9389026316395586,"(1.028196, 0.0, 0.0, 0.0, 0.0, 0.0, 0.0, 1.028196, 0.0, 0.0, 0.0, 0.0, 0.0, 0.0, 1.9544039999999998, 0.0, 0.0, 0.0, 0.0, 0.0, 0.0, 99999.0, 0.0, 0.0, 0.0, 0.0, 0.0, 0.0, 99999.0, 0.0, 0.0, 0.0, 0.0, 0.0, 0.0, 99999.0)",-0.06,-0.25,-0.01,0.0,0.0,0.0,"(-1.0, 0.0, 0.0, 0.0, 0.0, 0.0, 0.0, 0.0, 0.0, 0.0, 0.0, 0.0, 0.0, 0.0, 0.0, 0.0, 0.0, 0.0, 0.0, 0.0, 0.0, 0.0, 0.0, 0.0, 0.0, 0.0, 0.0, 0.0, 0.0, 0.0, 0.0, 0.0, 0.0, 0.0, 0.0, 0.0)"
1729690892.9680853,1632,1729690892,967096384,map,base_link,-1.0020570678620384,0.8652120955029926,2.46,-0.024719697388429433,0.016891945413517417,0.34206389395647946,-0.9391996013587854,"(1.028196, 0.0, 0.0, 0.0, 0.0, 0.0, 0.0, 1.028196, 0.0, 0.0, 0.0, 0.0, 0.0, 0.0, 1.9544039999999998, 0.0, 0.0, 0.0, 0.0, 0.0, 0.0, 99999.0, 0.0, 0.0, 0.0, 0.0, 0.0, 0.0, 99999.0, 0.0, 0.0, 0.0, 0.0, 0.0, 0.0, 99999.0)",-0.03,-0.26,-0.02,0.0,0.0,0.0,"(-1.0, 0.0, 0.0, 0.0, 0.0, 0.0, 0.0, 0.0, 0.0, 0.0, 0.0, 0.0, 0.0, 0.0, 0.0, 0.0, 0.0, 0.0, 0.0, 0.0, 0.0, 0.0, 0.0, 0.0, 0.0, 0.0, 0.0, 0.0, 0.0, 0.0, 0.0, 0.0, 0.0, 0.0, 0.0, 0.0)"
1729690893.0681212,1633,1729690893,66089216,map,base_link,-1.039170293888565,0.8430271736839703,2.453,-0.02270170192534719,0.01857813715179628,0.34562787749403284,-0.9379130321349796,"(1.0261689999999999, 0.0, 0.0, 0.0, 0.0, 0.0, 0.0, 1.0261689999999999, 0.0, 0.0, 0.0, 0.0, 0.0, 0.0, 1.9488159999999997, 0.0, 0.0, 0.0, 0.0, 0.0, 0.0, 99999.0, 0.0, 0.0, 0.0, 0.0, 0.0, 0.0, 99999.0, 0.0, 0.0, 0.0, 0.0, 0.0, 0.0, 99999.0)",0.0,-0.26,-0.01,0.0,0.0,0.0,"(-1.0, 0.0, 0.0, 0.0, 0.0, 0.0, 0.0, 0.0, 0.0, 0.0, 0.0, 0.0, 0.0, 0.0, 0.0, 0.0, 0.0, 0.0, 0.0, 0.0, 0.0, 0.0, 0.0, 0.0, 0.0, 0.0, 0.0, 0.0, 0.0, 0.0, 0.0, 0.0, 0.0, 0.0, 0.0, 0.0)"
1729690893.1690135,1634,1729690893,167083584,map,base_link,-1.0670052128088576,0.820842250999003,2.446,-0.017950362259056635,0.018366907569464918,0.3509183491386835,-0.9360538197341457,"(1.0261689999999999, 0.0, 0.0, 0.0, 0.0, 0.0, 0.0, 1.0261689999999999, 0.0, 0.0, 0.0, 0.0, 0.0, 0.0, 1.9488159999999997, 0.0, 0.0, 0.0, 0.0, 0.0, 0.0, 99999.0, 0.0, 0.0, 0.0, 0.0, 0.0, 0.0, 99999.0, 0.0, 0.0, 0.0, 0.0, 0.0, 0.0, 99999.0)",0.0,-0.26,-0.05,0.0,0.0,0.0,"(-1.0, 0.0, 0.0, 0.0, 0.0, 0.0, 0.0, 0.0, 0.0, 0.0, 0.0, 0.0, 0.0, 0.0, 0.0, 0.0, 0.0, 0.0, 0.0, 0.0, 0.0, 0.0, 0.0, 0.0, 0.0, 0.0, 0.0, 0.0, 0.0, 0.0, 0.0, 0.0, 0.0, 0.0, 0.0, 0.0)"
1729690893.2691288,1635,1729690893,267080000,map,base_link,-1.094840135448174,0.798657330227542,2.44,-0.014165896380059937,0.018778074229946633,0.3547814372227134,-0.934653327769259,"(1.024144, 0.0, 0.0, 0.0, 0.0, 0.0, 0.0, 1.024144, 0.0, 0.0, 0.0, 0.0, 0.0, 0.0, 1.9432359999999997, 0.0, 0.0, 0.0, 0.0, 0.0, 0.0, 99999.0, 0.0, 0.0, 0.0, 0.0, 0.0, 0.0, 99999.0, 0.0, 0.0, 0.0, 0.0, 0.0, 0.0, 99999.0)",0.02,-0.25,-0.05,0.0,0.0,0.0,"(-1.0, 0.0, 0.0, 0.0, 0.0, 0.0, 0.0, 0.0, 0.0, 0.0, 0.0, 0.0, 0.0, 0.0, 0.0, 0.0, 0.0, 0.0, 0.0, 0.0, 0.0, 0.0, 0.0, 0.0, 0.0, 0.0, 0.0, 0.0, 0.0, 0.0, 0.0, 0.0, 0.0, 0.0, 0.0, 0.0)"
1729690893.3671293,1636,1729690893,365072576,map,base_link,-1.1226750544182478,0.7764724080736249,2.433,-0.011322989530590261,0.021104951748201393,0.35618900382096097,-0.9341069341766113,"(1.024144, 0.0, 0.0, 0.0, 0.0, 0.0, 0.0, 1.024144, 0.0, 0.0, 0.0, 0.0, 0.0, 0.0, 1.9432359999999997, 0.0, 0.0, 0.0, 0.0, 0.0, 0.0, 99999.0, 0.0, 0.0, 0.0, 0.0, 0.0, 0.0, 99999.0, 0.0, 0.0, 0.0, 0.0, 0.0, 0.0, 99999.0)",0.06,-0.25,-0.03,0.0,0.0,0.0,"(-1.0, 0.0, 0.0, 0.0, 0.0, 0.0, 0.0, 0.0, 0.0, 0.0, 0.0, 0.0, 0.0, 0.0, 0.0, 0.0, 0.0, 0.0, 0.0, 0.0, 0.0, 0.0, 0.0, 0.0, 0.0, 0.0, 0.0, 0.0, 0.0, 0.0, 0.0, 0.0, 0.0, 0.0, 0.0, 0.0)"
1729690893.4671369,1637,1729690893,465068992,map,base_link,-1.1412316691806224,0.7431950224924228,2.428,-0.012266686834428425,0.023374418611942893,0.35585063723662136,-0.9341699464909745,"(1.024144, 0.0, 0.0, 0.0, 0.0, 0.0, 0.0, 1.024144, 0.0, 0.0, 0.0, 0.0, 0.0, 0.0, 1.940449, 0.0, 0.0, 0.0, 0.0, 0.0, 0.0, 99999.0, 0.0, 0.0, 0.0, 0.0, 0.0, 0.0, 99999.0, 0.0, 0.0, 0.0, 0.0, 0.0, 0.0, 99999.0)",0.08,-0.22,-0.03,0.0,0.0,0.0,"(-1.0, 0.0, 0.0, 0.0, 0.0, 0.0, 0.0, 0.0, 0.0, 0.0, 0.0, 0.0, 0.0, 0.0, 0.0, 0.0, 0.0, 0.0, 0.0, 0.0, 0.0, 0.0, 0.0, 0.0, 0.0, 0.0, 0.0, 0.0, 0.0, 0.0, 0.0, 0.0, 0.0, 0.0, 0.0, 0.0)"
1729690893.5670037,1638,1729690893,565060800,map,base_link,-1.1412316719366788,0.7210100984080985,2.429,-0.011675567300427302,0.023091000879681092,0.35308323044566214,-0.9352340451377095,"(1.024144, 0.0, 0.0, 0.0, 0.0, 0.0, 0.0, 1.024144, 0.0, 0.0, 0.0, 0.0, 0.0, 0.0, 1.940449, 0.0, 0.0, 0.0, 0.0, 0.0, 0.0, 99999.0, 0.0, 0.0, 0.0, 0.0, 0.0, 0.0, 99999.0, 0.0, 0.0, 0.0, 0.0, 0.0, 0.0, 99999.0)",0.09,-0.21,-0.06,0.0,0.0,0.0,"(-1.0, 0.0, 0.0, 0.0, 0.0, 0.0, 0.0, 0.0, 0.0, 0.0, 0.0, 0.0, 0.0, 0.0, 0.0, 0.0, 0.0, 0.0, 0.0, 0.0, 0.0, 0.0, 0.0, 0.0, 0.0, 0.0, 0.0, 0.0, 0.0, 0.0, 0.0, 0.0, 0.0, 0.0, 0.0, 0.0)"
1729690893.6672235,1639,1729690893,666052608,map,base_link,-1.1597882906245347,0.6877327166255085,2.434,-0.011980155554193083,0.020571165041992346,0.35158492057088203,-0.9358532719763708,"(1.0221209999999998, 0.0, 0.0, 0.0, 0.0, 0.0, 0.0, 1.0221209999999998, 0.0, 0.0, 0.0, 0.0, 0.0, 0.0, 1.9376639999999998, 0.0, 0.0, 0.0, 0.0, 0.0, 0.0, 99999.0, 0.0, 0.0, 0.0, 0.0, 0.0, 0.0, 99999.0, 0.0, 0.0, 0.0, 0.0, 0.0, 0.0, 99999.0)",0.11,-0.2,-0.06,0.0,0.0,0.0,"(-1.0, 0.0, 0.0, 0.0, 0.0, 0.0, 0.0, 0.0, 0.0, 0.0, 0.0, 0.0, 0.0, 0.0, 0.0, 0.0, 0.0, 0.0, 0.0, 0.0, 0.0, 0.0, 0.0, 0.0, 0.0, 0.0, 0.0, 0.0, 0.0, 0.0, 0.0, 0.0, 0.0, 0.0, 0.0, 0.0)"
1729690893.767035,1640,1729690893,766043904,map,base_link,-1.1690666022061564,0.6544553316508203,2.443,-0.010074159666663552,0.026296542762348784,0.3510392729566014,-0.9359371944675878,"(1.0221209999999998, 0.0, 0.0, 0.0, 0.0, 0.0, 0.0, 1.0221209999999998, 0.0, 0.0, 0.0, 0.0, 0.0, 0.0, 1.9376639999999998, 0.0, 0.0, 0.0, 0.0, 0.0, 0.0, 99999.0, 0.0, 0.0, 0.0, 0.0, 0.0, 0.0, 99999.0, 0.0, 0.0, 0.0, 0.0, 0.0, 0.0, 99999.0)",0.11,-0.18,-0.07,0.0,0.0,0.0,"(-1.0, 0.0, 0.0, 0.0, 0.0, 0.0, 0.0, 0.0, 0.0, 0.0, 0.0, 0.0, 0.0, 0.0, 0.0, 0.0, 0.0, 0.0, 0.0, 0.0, 0.0, 0.0, 0.0, 0.0, 0.0, 0.0, 0.0, 0.0, 0.0, 0.0, 0.0, 0.0, 0.0, 0.0, 0.0, 0.0)"
1729690893.8681111,1641,1729690893,866035968,map,base_link,-1.1783449152273486,0.6100854858286711,2.455,-0.0073382153741773865,0.032610750330956985,0.35115910766666003,-0.9357189592290676,"(1.0221209999999998, 0.0, 0.0, 0.0, 0.0, 0.0, 0.0, 1.0221209999999998, 0.0, 0.0, 0.0, 0.0, 0.0, 0.0, 1.934881, 0.0, 0.0, 0.0, 0.0, 0.0, 0.0, 99999.0, 0.0, 0.0, 0.0, 0.0, 0.0, 0.0, 99999.0, 0.0, 0.0, 0.0, 0.0, 0.0, 0.0, 99999.0)",0.12,-0.17,-0.07,0.0,0.0,0.0,"(-1.0, 0.0, 0.0, 0.0, 0.0, 0.0, 0.0, 0.0, 0.0, 0.0, 0.0, 0.0, 0.0, 0.0, 0.0, 0.0, 0.0, 0.0, 0.0, 0.0, 0.0, 0.0, 0.0, 0.0, 0.0, 0.0, 0.0, 0.0, 0.0, 0.0, 0.0, 0.0, 0.0, 0.0, 0.0, 0.0)"
1729690893.9680839,1642,1729690893,967027776,map,base_link,-1.1783449229764664,0.576808101976997,2.47,-0.0015068681574006838,0.03416352890285989,0.3492862987930685,-0.9363918325768861,"(1.0221209999999998, 0.0, 0.0, 0.0, 0.0, 0.0, 0.0, 1.0221209999999998, 0.0, 0.0, 0.0, 0.0, 0.0, 0.0, 1.934881, 0.0, 0.0, 0.0, 0.0, 0.0, 0.0, 99999.0, 0.0, 0.0, 0.0, 0.0, 0.0, 0.0, 99999.0, 0.0, 0.0, 0.0, 0.0, 0.0, 0.0, 99999.0)",0.14,-0.14,-0.08,0.0,0.0,0.0,"(-1.0, 0.0, 0.0, 0.0, 0.0, 0.0, 0.0, 0.0, 0.0, 0.0, 0.0, 0.0, 0.0, 0.0, 0.0, 0.0, 0.0, 0.0, 0.0, 0.0, 0.0, 0.0, 0.0, 0.0, 0.0, 0.0, 0.0, 0.0, 0.0, 0.0, 0.0, 0.0, 0.0, 0.0, 0.0, 0.0)"
1729690894.0661776,1643,1729690894,65019840,map,base_link,-1.1876232376059668,0.5324382552587357,2.481,0.0018039426059134169,0.0358626927046492,0.3475598810234211,-0.9369699793301982,"(1.0201, 0.0, 0.0, 0.0, 0.0, 0.0, 0.0, 1.0201, 0.0, 0.0, 0.0, 0.0, 0.0, 0.0, 1.9320999999999997, 0.0, 0.0, 0.0, 0.0, 0.0, 0.0, 99999.0, 0.0, 0.0, 0.0, 0.0, 0.0, 0.0, 99999.0, 0.0, 0.0, 0.0, 0.0, 0.0, 0.0, 99999.0)",0.13,-0.14,-0.1,0.0,0.0,0.0,"(-1.0, 0.0, 0.0, 0.0, 0.0, 0.0, 0.0, 0.0, 0.0, 0.0, 0.0, 0.0, 0.0, 0.0, 0.0, 0.0, 0.0, 0.0, 0.0, 0.0, 0.0, 0.0, 0.0, 0.0, 0.0, 0.0, 0.0, 0.0, 0.0, 0.0, 0.0, 0.0, 0.0, 0.0, 0.0, 0.0)"
1729690894.167395,1644,1729690894,165017536,map,base_link,-1.1876232436896623,0.49916086929737424,2.496,0.002130776335617162,0.03649742502159436,0.32133228570014616,-0.9462605137728828,"(1.0201, 0.0, 0.0, 0.0, 0.0, 0.0, 0.0, 1.0201, 0.0, 0.0, 0.0, 0.0, 0.0, 0.0, 1.9320999999999997, 0.0, 0.0, 0.0, 0.0, 0.0, 0.0, 99999.0, 0.0, 0.0, 0.0, 0.0, 0.0, 0.0, 99999.0, 0.0, 0.0, 0.0, 0.0, 0.0, 0.0, 99999.0)",0.14,-0.11,-0.1,0.0,0.0,0.0,"(-1.0, 0.0, 0.0, 0.0, 0.0, 0.0, 0.0, 0.0, 0.0, 0.0, 0.0, 0.0, 0.0, 0.0, 0.0, 0.0, 0.0, 0.0, 0.0, 0.0, 0.0, 0.0, 0.0, 0.0, 0.0, 0.0, 0.0, 0.0, 0.0, 0.0, 0.0, 0.0, 0.0, 0.0, 0.0, 0.0)"
1729690894.2683983,1645,1729690894,266014208,map,base_link,-1.187623249773358,0.4658834844990895,2.508,-0.0018860133376978302,0.03610862968648094,0.35903825235732734,-0.9326221867187434,"(1.0180809999999998, 0.0, 0.0, 0.0, 0.0, 0.0, 0.0, 1.0180809999999998, 0.0, 0.0, 0.0, 0.0, 0.0, 0.0, 1.929321, 0.0, 0.0, 0.0, 0.0, 0.0, 0.0, 99999.0, 0.0, 0.0, 0.0, 0.0, 0.0, 0.0, 99999.0, 0.0, 0.0, 0.0, 0.0, 0.0, 0.0, 99999.0)",0.14,-0.09,-0.1,0.0,0.0,0.0,"(-1.0, 0.0, 0.0, 0.0, 0.0, 0.0, 0.0, 0.0, 0.0, 0.0, 0.0, 0.0, 0.0, 0.0, 0.0, 0.0, 0.0, 0.0, 0.0, 0.0, 0.0, 0.0, 0.0, 0.0, 0.0, 0.0, 0.0, 0.0, 0.0, 0.0, 0.0, 0.0, 0.0, 0.0, 0.0, 0.0)"
1729690894.3661401,1646,1729690894,365010880,map,base_link,-1.187623257123759,0.4215136363205833,2.516,0.000502222713265558,0.034264044336890204,0.43866339787997827,-0.8979978543395402,"(1.0180809999999998, 0.0, 0.0, 0.0, 0.0, 0.0, 0.0, 1.0180809999999998, 0.0, 0.0, 0.0, 0.0, 0.0, 0.0, 1.929321, 0.0, 0.0, 0.0, 0.0, 0.0, 0.0, 99999.0, 0.0, 0.0, 0.0, 0.0, 0.0, 0.0, 99999.0, 0.0, 0.0, 0.0, 0.0, 0.0, 0.0, 99999.0)",0.16,-0.09,-0.08,0.0,0.0,0.0,"(-1.0, 0.0, 0.0, 0.0, 0.0, 0.0, 0.0, 0.0, 0.0, 0.0, 0.0, 0.0, 0.0, 0.0, 0.0, 0.0, 0.0, 0.0, 0.0, 0.0, 0.0, 0.0, 0.0, 0.0, 0.0, 0.0, 0.0, 0.0, 0.0, 0.0, 0.0, 0.0, 0.0, 0.0, 0.0, 0.0)"
1729690894.4684021,1647,1729690894,467004736,map,base_link,-1.1783449541167943,0.39932871129255076,2.521,-0.0025262854294197095,0.04178563728496233,0.47597497052363735,-0.8784619546876468,"(1.016064, 0.0, 0.0, 0.0, 0.0, 0.0, 0.0, 1.016064, 0.0, 0.0, 0.0, 0.0, 0.0, 0.0, 1.923769, 0.0, 0.0, 0.0, 0.0, 0.0, 0.0, 99999.0, 0.0, 0.0, 0.0, 0.0, 0.0, 0.0, 99999.0, 0.0, 0.0, 0.0, 0.0, 0.0, 0.0, 99999.0)",0.18,-0.1,-0.05,0.0,0.0,0.0,"(-1.0, 0.0, 0.0, 0.0, 0.0, 0.0, 0.0, 0.0, 0.0, 0.0, 0.0, 0.0, 0.0, 0.0, 0.0, 0.0, 0.0, 0.0, 0.0, 0.0, 0.0, 0.0, 0.0, 0.0, 0.0, 0.0, 0.0, 0.0, 0.0, 0.0, 0.0, 0.0, 0.0, 0.0, 0.0, 0.0)"
1729690894.5682316,1648,1729690894,566001920,map,base_link,-1.1690666520967743,0.3660513230177613,2.526,-0.0007100733919342968,0.05023268680347359,0.4597914702038961,-0.8866047467163831,"(1.016064, 0.0, 0.0, 0.0, 0.0, 0.0, 0.0, 1.016064, 0.0, 0.0, 0.0, 0.0, 0.0, 0.0, 1.923769, 0.0, 0.0, 0.0, 0.0, 0.0, 0.0, 99999.0, 0.0, 0.0, 0.0, 0.0, 0.0, 0.0, 99999.0, 0.0, 0.0, 0.0, 0.0, 0.0, 0.0, 99999.0)",0.19,-0.08,-0.04,0.0,0.0,0.0,"(-1.0, 0.0, 0.0, 0.0, 0.0, 0.0, 0.0, 0.0, 0.0, 0.0, 0.0, 0.0, 0.0, 0.0, 0.0, 0.0, 0.0, 0.0, 0.0, 0.0, 0.0, 0.0, 0.0, 0.0, 0.0, 0.0, 0.0, 0.0, 0.0, 0.0, 0.0, 0.0, 0.0, 0.0, 0.0, 0.0)"
1729690894.6661468,1649,1729690894,665000128,map,base_link,-1.1597883496314605,0.3327739352061172,2.523,0.0009545989358032079,0.055333284761109006,0.41512846598039016,-0.9080780104546007,"(1.012036, 0.0, 0.0, 0.0, 0.0, 0.0, 0.0, 1.012036, 0.0, 0.0, 0.0, 0.0, 0.0, 0.0, 1.9209959999999997, 0.0, 0.0, 0.0, 0.0, 0.0, 0.0, 99999.0, 0.0, 0.0, 0.0, 0.0, 0.0, 0.0, 99999.0, 0.0, 0.0, 0.0, 0.0, 0.0, 0.0, 99999.0)",0.17,-0.07,-0.03,0.0,0.0,0.0,"(-1.0, 0.0, 0.0, 0.0, 0.0, 0.0, 0.0, 0.0, 0.0, 0.0, 0.0, 0.0, 0.0, 0.0, 0.0, 0.0, 0.0, 0.0, 0.0, 0.0, 0.0, 0.0, 0.0, 0.0, 0.0, 0.0, 0.0, 0.0, 0.0, 0.0, 0.0, 0.0, 0.0, 0.0, 0.0, 0.0)"
1729690894.7676508,1650,1729690894,765997056,map,base_link,-1.1412317367322735,0.31058900763018055,2.518,0.001863554407560995,0.055890224729499526,0.36545828936933106,-0.9291464086331597,"(1.012036, 0.0, 0.0, 0.0, 0.0, 0.0, 0.0, 1.012036, 0.0, 0.0, 0.0, 0.0, 0.0, 0.0, 1.9209959999999997, 0.0, 0.0, 0.0, 0.0, 0.0, 0.0, 99999.0, 0.0, 0.0, 0.0, 0.0, 0.0, 0.0, 99999.0, 0.0, 0.0, 0.0, 0.0, 0.0, 0.0, 99999.0)",0.14,-0.04,-0.05,0.0,0.0,0.0,"(-1.0, 0.0, 0.0, 0.0, 0.0, 0.0, 0.0, 0.0, 0.0, 0.0, 0.0, 0.0, 0.0, 0.0, 0.0, 0.0, 0.0, 0.0, 0.0, 0.0, 0.0, 0.0, 0.0, 0.0, 0.0, 0.0, 0.0, 0.0, 0.0, 0.0, 0.0, 0.0, 0.0, 0.0, 0.0, 0.0)"
1729690894.8691113,1651,1729690894,866993728,map,base_link,-1.1319534317639373,0.28840408332414125,2.51,0.0016756144037327557,0.05159415229145619,0.32914970694495294,-0.94286568830547,"(1.012036, 0.0, 0.0, 0.0, 0.0, 0.0, 0.0, 1.012036, 0.0, 0.0, 0.0, 0.0, 0.0, 0.0, 1.918225, 0.0, 0.0, 0.0, 0.0, 0.0, 0.0, 99999.0, 0.0, 0.0, 0.0, 0.0, 0.0, 0.0, 99999.0, 0.0, 0.0, 0.0, 0.0, 0.0, 0.0, 99999.0)",0.11,-0.02,-0.06,0.0,0.0,0.0,"(-1.0, 0.0, 0.0, 0.0, 0.0, 0.0, 0.0, 0.0, 0.0, 0.0, 0.0, 0.0, 0.0, 0.0, 0.0, 0.0, 0.0, 0.0, 0.0, 0.0, 0.0, 0.0, 0.0, 0.0, 0.0, 0.0, 0.0, 0.0, 0.0, 0.0, 0.0, 0.0, 0.0, 0.0, 0.0, 0.0)"
1729690894.9677756,1652,1729690894,965993216,map,base_link,-1.1319534325821436,0.2662191581875746,2.504,0.004526569833810961,0.046444425928377005,0.312198025243777,-0.9488702853918489,"(1.012036, 0.0, 0.0, 0.0, 0.0, 0.0, 0.0, 1.012036, 0.0, 0.0, 0.0, 0.0, 0.0, 0.0, 1.918225, 0.0, 0.0, 0.0, 0.0, 0.0, 0.0, 99999.0, 0.0, 0.0, 0.0, 0.0, 0.0, 0.0, 99999.0, 0.0, 0.0, 0.0, 0.0, 0.0, 0.0, 99999.0)",0.09,-0.02,-0.08,0.0,0.0,0.0,"(-1.0, 0.0, 0.0, 0.0, 0.0, 0.0, 0.0, 0.0, 0.0, 0.0, 0.0, 0.0, 0.0, 0.0, 0.0, 0.0, 0.0, 0.0, 0.0, 0.0, 0.0, 0.0, 0.0, 0.0, 0.0, 0.0, 0.0, 0.0, 0.0, 0.0, 0.0, 0.0, 0.0, 0.0, 0.0, 0.0)"
1729690895.069857,1653,1729690895,66989632,map,base_link,-1.1133968196290478,0.2551266933145583,2.496,0.004716718801654539,0.043298839023413214,0.31137324439248604,-0.9492890317387364,"(1.0100249999999997, 0.0, 0.0, 0.0, 0.0, 0.0, 0.0, 1.0100249999999997, 0.0, 0.0, 0.0, 0.0, 0.0, 0.0, 1.9154559999999998, 0.0, 0.0, 0.0, 0.0, 0.0, 0.0, 99999.0, 0.0, 0.0, 0.0, 0.0, 0.0, 0.0, 99999.0, 0.0, 0.0, 0.0, 0.0, 0.0, 0.0, 99999.0)",0.06,-0.02,-0.1,0.0,0.0,0.0,"(-1.0, 0.0, 0.0, 0.0, 0.0, 0.0, 0.0, 0.0, 0.0, 0.0, 0.0, 0.0, 0.0, 0.0, 0.0, 0.0, 0.0, 0.0, 0.0, 0.0, 0.0, 0.0, 0.0, 0.0, 0.0, 0.0, 0.0, 0.0, 0.0, 0.0, 0.0, 0.0, 0.0, 0.0, 0.0, 0.0)"
1729690895.1707306,1654,1729690895,168985024,map,base_link,-1.1041185130717974,0.2440342302012899,2.494,0.006150986096092314,0.04262245649972621,0.32176151951880877,-0.9458409042375582,"(1.0100249999999997, 0.0, 0.0, 0.0, 0.0, 0.0, 0.0, 1.0100249999999997, 0.0, 0.0, 0.0, 0.0, 0.0, 0.0, 1.9154559999999998, 0.0, 0.0, 0.0, 0.0, 0.0, 0.0, 99999.0, 0.0, 0.0, 0.0, 0.0, 0.0, 0.0, 99999.0, 0.0, 0.0, 0.0, 0.0, 0.0, 0.0, 99999.0)",0.05,0.01,-0.15,0.0,0.0,0.0,"(-1.0, 0.0, 0.0, 0.0, 0.0, 0.0, 0.0, 0.0, 0.0, 0.0, 0.0, 0.0, 0.0, 0.0, 0.0, 0.0, 0.0, 0.0, 0.0, 0.0, 0.0, 0.0, 0.0, 0.0, 0.0, 0.0, 0.0, 0.0, 0.0, 0.0, 0.0, 0.0, 0.0, 0.0, 0.0, 0.0)"
1729690895.2682009,1655,1729690895,266979904,map,base_link,-1.094840207078797,0.24403422875901964,2.496,0.004482544571720163,0.043564073000538085,0.3337414124160152,-0.9416468276250547,"(1.008016, 0.0, 0.0, 0.0, 0.0, 0.0, 0.0, 1.008016, 0.0, 0.0, 0.0, 0.0, 0.0, 0.0, 1.912689, 0.0, 0.0, 0.0, 0.0, 0.0, 0.0, 99999.0, 0.0, 0.0, 0.0, 0.0, 0.0, 0.0, 99999.0, 0.0, 0.0, 0.0, 0.0, 0.0, 0.0, 99999.0)",0.04,0.01,-0.17,0.0,0.0,0.0,"(-1.0, 0.0, 0.0, 0.0, 0.0, 0.0, 0.0, 0.0, 0.0, 0.0, 0.0, 0.0, 0.0, 0.0, 0.0, 0.0, 0.0, 0.0, 0.0, 0.0, 0.0, 0.0, 0.0, 0.0, 0.0, 0.0, 0.0, 0.0, 0.0, 0.0, 0.0, 0.0, 0.0, 0.0, 0.0, 0.0)"
1729690895.370373,1656,1729690895,367977856,map,base_link,-1.076283594804179,0.24403422769167965,2.502,0.0010108786920152478,0.0439942287177644,0.3443687540732981,-0.9378025630066298,"(1.008016, 0.0, 0.0, 0.0, 0.0, 0.0, 0.0, 1.008016, 0.0, 0.0, 0.0, 0.0, 0.0, 0.0, 1.912689, 0.0, 0.0, 0.0, 0.0, 0.0, 0.0, 99999.0, 0.0, 0.0, 0.0, 0.0, 0.0, 0.0, 99999.0, 0.0, 0.0, 0.0, 0.0, 0.0, 0.0, 99999.0)",0.03,0.04,-0.21,0.0,0.0,0.0,"(-1.0, 0.0, 0.0, 0.0, 0.0, 0.0, 0.0, 0.0, 0.0, 0.0, 0.0, 0.0, 0.0, 0.0, 0.0, 0.0, 0.0, 0.0, 0.0, 0.0, 0.0, 0.0, 0.0, 0.0, 0.0, 0.0, 0.0, 0.0, 0.0, 0.0, 0.0, 0.0, 0.0, 0.0, 0.0, 0.0)"
1729690895.4665124,1657,1729690895,464972224,map,base_link,-1.0670052869304425,0.24403422587681348,2.509,-0.001991918005034114,0.04521526069856937,0.3517440785310567,-0.9350014522346795,"(1.0060089999999997, 0.0, 0.0, 0.0, 0.0, 0.0, 0.0, 1.0060089999999997, 0.0, 0.0, 0.0, 0.0, 0.0, 0.0, 1.9099239999999997, 0.0, 0.0, 0.0, 0.0, 0.0, 0.0, 99999.0, 0.0, 0.0, 0.0, 0.0, 0.0, 0.0, 99999.0, 0.0, 0.0, 0.0, 0.0, 0.0, 0.0, 99999.0)",0.02,0.07,-0.26,0.0,0.0,0.0,"(-1.0, 0.0, 0.0, 0.0, 0.0, 0.0, 0.0, 0.0, 0.0, 0.0, 0.0, 0.0, 0.0, 0.0, 0.0, 0.0, 0.0, 0.0, 0.0, 0.0, 0.0, 0.0, 0.0, 0.0, 0.0, 0.0, 0.0, 0.0, 0.0, 0.0, 0.0, 0.0, 0.0, 0.0, 0.0, 0.0)"
1729690895.5686002,1658,1729690895,565967360,map,base_link,-1.0577269817846573,0.26621915051772094,2.52,-0.006081820982478384,0.045154514897515464,0.3533340254637271,-0.9343870438354256,"(1.0060089999999997, 0.0, 0.0, 0.0, 0.0, 0.0, 0.0, 1.0060089999999997, 0.0, 0.0, 0.0, 0.0, 0.0, 0.0, 1.9099239999999997, 0.0, 0.0, 0.0, 0.0, 0.0, 0.0, 99999.0, 0.0, 0.0, 0.0, 0.0, 0.0, 0.0, 99999.0, 0.0, 0.0, 0.0, 0.0, 0.0, 0.0, 99999.0)",0.04,0.1,-0.31,0.0,0.0,0.0,"(-1.0, 0.0, 0.0, 0.0, 0.0, 0.0, 0.0, 0.0, 0.0, 0.0, 0.0, 0.0, 0.0, 0.0, 0.0, 0.0, 0.0, 0.0, 0.0, 0.0, 0.0, 0.0, 0.0, 0.0, 0.0, 0.0, 0.0, 0.0, 0.0, 0.0, 0.0, 0.0, 0.0, 0.0, 0.0, 0.0)"
1729690895.666504,1659,1729690895,664959680,map,base_link,-1.0391703669268484,0.2884040733536203,2.537,-0.01051905540358896,0.0445838002417804,0.3504375020555992,-0.9354652272438828,"(1.0060089999999997, 0.0, 0.0, 0.0, 0.0, 0.0, 0.0, 1.0060089999999997, 0.0, 0.0, 0.0, 0.0, 0.0, 0.0, 1.9099239999999997, 0.0, 0.0, 0.0, 0.0, 0.0, 0.0, 99999.0, 0.0, 0.0, 0.0, 0.0, 0.0, 0.0, 99999.0, 0.0, 0.0, 0.0, 0.0, 0.0, 0.0, 99999.0)",0.0,0.12,-0.39,0.0,0.0,0.0,"(-1.0, 0.0, 0.0, 0.0, 0.0, 0.0, 0.0, 0.0, 0.0, 0.0, 0.0, 0.0, 0.0, 0.0, 0.0, 0.0, 0.0, 0.0, 0.0, 0.0, 0.0, 0.0, 0.0, 0.0, 0.0, 0.0, 0.0, 0.0, 0.0, 0.0, 0.0, 0.0, 0.0, 0.0, 0.0, 0.0)"
1729690895.7686498,1660,1729690895,766954560,map,base_link,-1.0298920633469226,0.3105889974913461,2.562,-0.013618228477726398,0.04456168537862872,0.3433128936408329,-0.9380645271564758,"(1.0060089999999997, 0.0, 0.0, 0.0, 0.0, 0.0, 0.0, 1.0060089999999997, 0.0, 0.0, 0.0, 0.0, 0.0, 0.0, 1.9099239999999997, 0.0, 0.0, 0.0, 0.0, 0.0, 0.0, 99999.0, 0.0, 0.0, 0.0, 0.0, 0.0, 0.0, 99999.0, 0.0, 0.0, 0.0, 0.0, 0.0, 0.0, 99999.0)",0.0,0.14,-0.46,0.0,0.0,0.0,"(-1.0, 0.0, 0.0, 0.0, 0.0, 0.0, 0.0, 0.0, 0.0, 0.0, 0.0, 0.0, 0.0, 0.0, 0.0, 0.0, 0.0, 0.0, 0.0, 0.0, 0.0, 0.0, 0.0, 0.0, 0.0, 0.0, 0.0, 0.0, 0.0, 0.0, 0.0, 0.0, 0.0, 0.0, 0.0, 0.0)"
1729690895.8674257,1661,1729690895,865952256,map,base_link,-1.0206137568186815,0.34386638598551417,2.599,-0.017466625964547268,0.04578243554753183,0.3354458170264988,-0.9407842416899719,"(1.0060089999999997, 0.0, 0.0, 0.0, 0.0, 0.0, 0.0, 1.0060089999999997, 0.0, 0.0, 0.0, 0.0, 0.0, 0.0, 1.9099239999999997, 0.0, 0.0, 0.0, 0.0, 0.0, 0.0, 99999.0, 0.0, 0.0, 0.0, 0.0, 0.0, 0.0, 99999.0, 0.0, 0.0, 0.0, 0.0, 0.0, 0.0, 99999.0)",-0.03,0.15,-0.53,0.0,0.0,0.0,"(-1.0, 0.0, 0.0, 0.0, 0.0, 0.0, 0.0, 0.0, 0.0, 0.0, 0.0, 0.0, 0.0, 0.0, 0.0, 0.0, 0.0, 0.0, 0.0, 0.0, 0.0, 0.0, 0.0, 0.0, 0.0, 0.0, 0.0, 0.0, 0.0, 0.0, 0.0, 0.0, 0.0, 0.0, 0.0, 0.0)"
1729690895.9666076,1662,1729690895,964947648,map,base_link,-1.0113354548576017,0.3771437743090602,2.648,-0.01711180419822588,0.04129873432749027,0.331199737614595,-0.9425011058370447,"(1.0060089999999997, 0.0, 0.0, 0.0, 0.0, 0.0, 0.0, 1.0060089999999997, 0.0, 0.0, 0.0, 0.0, 0.0, 0.0, 1.9099239999999997, 0.0, 0.0, 0.0, 0.0, 0.0, 0.0, 99999.0, 0.0, 0.0, 0.0, 0.0, 0.0, 0.0, 99999.0, 0.0, 0.0, 0.0, 0.0, 0.0, 0.0, 99999.0)",-0.06,0.15,-0.57,0.0,0.0,0.0,"(-1.0, 0.0, 0.0, 0.0, 0.0, 0.0, 0.0, 0.0, 0.0, 0.0, 0.0, 0.0, 0.0, 0.0, 0.0, 0.0, 0.0, 0.0, 0.0, 0.0, 0.0, 0.0, 0.0, 0.0, 0.0, 0.0, 0.0, 0.0, 0.0, 0.0, 0.0, 0.0, 0.0, 0.0, 0.0, 0.0)"
1729690896.0681415,1663,1729690896,64945088,map,base_link,-1.0113354610500194,0.41042116586477684,2.701,-0.01647386935754231,0.03635358839278155,0.33029812102560013,-0.943032438194104,"(1.0060089999999997, 0.0, 0.0, 0.0, 0.0, 0.0, 0.0, 1.0060089999999997, 0.0, 0.0, 0.0, 0.0, 0.0, 0.0, 1.9099239999999997, 0.0, 0.0, 0.0, 0.0, 0.0, 0.0, 99999.0, 0.0, 0.0, 0.0, 0.0, 0.0, 0.0, 99999.0, 0.0, 0.0, 0.0, 0.0, 0.0, 0.0, 99999.0)",-0.06,0.16,-0.62,0.0,0.0,0.0,"(-1.0, 0.0, 0.0, 0.0, 0.0, 0.0, 0.0, 0.0, 0.0, 0.0, 0.0, 0.0, 0.0, 0.0, 0.0, 0.0, 0.0, 0.0, 0.0, 0.0, 0.0, 0.0, 0.0, 0.0, 0.0, 0.0, 0.0, 0.0, 0.0, 0.0, 0.0, 0.0, 0.0, 0.0, 0.0, 0.0)"
1729690896.170427,1664,1729690896,166943296,map,base_link,-1.0113354653543685,0.4436985565116088,2.759,-0.021283937304018376,0.03219906961583611,0.3325562875448816,-0.942293229065708,"(1.0060089999999997, 0.0, 0.0, 0.0, 0.0, 0.0, 0.0, 1.0060089999999997, 0.0, 0.0, 0.0, 0.0, 0.0, 0.0, 1.9099239999999997, 0.0, 0.0, 0.0, 0.0, 0.0, 0.0, 99999.0, 0.0, 0.0, 0.0, 0.0, 0.0, 0.0, 99999.0, 0.0, 0.0, 0.0, 0.0, 0.0, 0.0, 99999.0)",-0.06,0.17,-0.64,0.0,0.0,0.0,"(-1.0, 0.0, 0.0, 0.0, 0.0, 0.0, 0.0, 0.0, 0.0, 0.0, 0.0, 0.0, 0.0, 0.0, 0.0, 0.0, 0.0, 0.0, 0.0, 0.0, 0.0, 0.0, 0.0, 0.0, 0.0, 0.0, 0.0, 0.0, 0.0, 0.0, 0.0, 0.0, 0.0, 0.0, 0.0, 0.0)"
1729690896.2689476,1665,1729690896,266940224,map,base_link,-0.9927788556721011,0.4880684099344673,2.817,-0.02209746797603801,0.029323919153603065,0.33900704225172257,-0.940067037491614,"(1.0060089999999997, 0.0, 0.0, 0.0, 0.0, 0.0, 0.0, 1.0060089999999997, 0.0, 0.0, 0.0, 0.0, 0.0, 0.0, 1.9099239999999997, 0.0, 0.0, 0.0, 0.0, 0.0, 0.0, 99999.0, 0.0, 0.0, 0.0, 0.0, 0.0, 0.0, 99999.0, 0.0, 0.0, 0.0, 0.0, 0.0, 0.0, 99999.0)",-0.07,0.17,-0.68,0.0,0.0,0.0,"(-1.0, 0.0, 0.0, 0.0, 0.0, 0.0, 0.0, 0.0, 0.0, 0.0, 0.0, 0.0, 0.0, 0.0, 0.0, 0.0, 0.0, 0.0, 0.0, 0.0, 0.0, 0.0, 0.0, 0.0, 0.0, 0.0, 0.0, 0.0, 0.0, 0.0, 0.0, 0.0, 0.0, 0.0, 0.0, 0.0)"
1729690896.3679965,1666,1729690896,365936896,map,base_link,-0.983500552596865,0.5435307273893368,2.875,-0.030116405424103716,0.03096891673009267,0.34186916085882574,-0.9387541771808944,"(1.0060089999999997, 0.0, 0.0, 0.0, 0.0, 0.0, 0.0, 1.0060089999999997, 0.0, 0.0, 0.0, 0.0, 0.0, 0.0, 1.9099239999999997, 0.0, 0.0, 0.0, 0.0, 0.0, 0.0, 99999.0, 0.0, 0.0, 0.0, 0.0, 0.0, 0.0, 99999.0, 0.0, 0.0, 0.0, 0.0, 0.0, 0.0, 99999.0)",-0.06,0.18,-0.67,0.0,0.0,0.0,"(-1.0, 0.0, 0.0, 0.0, 0.0, 0.0, 0.0, 0.0, 0.0, 0.0, 0.0, 0.0, 0.0, 0.0, 0.0, 0.0, 0.0, 0.0, 0.0, 0.0, 0.0, 0.0, 0.0, 0.0, 0.0, 0.0, 0.0, 0.0, 0.0, 0.0, 0.0, 0.0, 0.0, 0.0, 0.0, 0.0)"
1729690896.4684312,1667,1729690896,466935360,map,base_link,-0.9649439428380895,0.5768081186728133,2.926,-0.0359201143051714,0.032591647729765014,0.3409828763719611,-0.9388174518550805,"(1.0060089999999997, 0.0, 0.0, 0.0, 0.0, 0.0, 0.0, 1.0060089999999997, 0.0, 0.0, 0.0, 0.0, 0.0, 0.0, 1.907161, 0.0, 0.0, 0.0, 0.0, 0.0, 0.0, 99999.0, 0.0, 0.0, 0.0, 0.0, 0.0, 0.0, 99999.0, 0.0, 0.0, 0.0, 0.0, 0.0, 0.0, 99999.0)",-0.06,0.17,-0.65,0.0,0.0,0.0,"(-1.0, 0.0, 0.0, 0.0, 0.0, 0.0, 0.0, 0.0, 0.0, 0.0, 0.0, 0.0, 0.0, 0.0, 0.0, 0.0, 0.0, 0.0, 0.0, 0.0, 0.0, 0.0, 0.0, 0.0, 0.0, 0.0, 0.0, 0.0, 0.0, 0.0, 0.0, 0.0, 0.0, 0.0, 0.0, 0.0)"
1729690896.568516,1668,1729690896,566929472,map,base_link,-0.9649439458522114,0.6211779752494866,2.977,-0.0406687155101753,0.03234307148624598,0.3381426214483292,-0.9396592727503092,"(1.0060089999999997, 0.0, 0.0, 0.0, 0.0, 0.0, 0.0, 1.0060089999999997, 0.0, 0.0, 0.0, 0.0, 0.0, 0.0, 1.907161, 0.0, 0.0, 0.0, 0.0, 0.0, 0.0, 99999.0, 0.0, 0.0, 0.0, 0.0, 0.0, 0.0, 99999.0, 0.0, 0.0, 0.0, 0.0, 0.0, 0.0, 99999.0)",-0.09,0.14,-0.67,0.0,0.0,0.0,"(-1.0, 0.0, 0.0, 0.0, 0.0, 0.0, 0.0, 0.0, 0.0, 0.0, 0.0, 0.0, 0.0, 0.0, 0.0, 0.0, 0.0, 0.0, 0.0, 0.0, 0.0, 0.0, 0.0, 0.0, 0.0, 0.0, 0.0, 0.0, 0.0, 0.0, 0.0, 0.0, 0.0, 0.0, 0.0, 0.0)"
1729690896.6680875,1669,1729690896,665927168,map,base_link,-0.964943950033476,0.6544553685469143,3.025,-0.03858870409304922,0.03057246874310192,0.3329102572690069,-0.9416724465951283,"(1.008016, 0.0, 0.0, 0.0, 0.0, 0.0, 0.0, 1.008016, 0.0, 0.0, 0.0, 0.0, 0.0, 0.0, 1.907161, 0.0, 0.0, 0.0, 0.0, 0.0, 0.0, 99999.0, 0.0, 0.0, 0.0, 0.0, 0.0, 0.0, 99999.0, 0.0, 0.0, 0.0, 0.0, 0.0, 0.0, 99999.0)",-0.1,0.12,-0.69,0.0,0.0,0.0,"(-1.0, 0.0, 0.0, 0.0, 0.0, 0.0, 0.0, 0.0, 0.0, 0.0, 0.0, 0.0, 0.0, 0.0, 0.0, 0.0, 0.0, 0.0, 0.0, 0.0, 0.0, 0.0, 0.0, 0.0, 0.0, 0.0, 0.0, 0.0, 0.0, 0.0, 0.0, 0.0, 0.0, 0.0, 0.0, 0.0)"
1729690896.7684515,1670,1729690896,766921024,map,base_link,-0.9742222607525968,0.687732765048644,3.076,-0.040802394391380996,0.02816958354631944,0.32719166404813227,-0.9436563220538352,"(1.008016, 0.0, 0.0, 0.0, 0.0, 0.0, 0.0, 1.008016, 0.0, 0.0, 0.0, 0.0, 0.0, 0.0, 1.907161, 0.0, 0.0, 0.0, 0.0, 0.0, 0.0, 99999.0, 0.0, 0.0, 0.0, 0.0, 0.0, 0.0, 99999.0, 0.0, 0.0, 0.0, 0.0, 0.0, 0.0, 99999.0)",-0.11,0.08,-0.66,0.0,0.0,0.0,"(-1.0, 0.0, 0.0, 0.0, 0.0, 0.0, 0.0, 0.0, 0.0, 0.0, 0.0, 0.0, 0.0, 0.0, 0.0, 0.0, 0.0, 0.0, 0.0, 0.0, 0.0, 0.0, 0.0, 0.0, 0.0, 0.0, 0.0, 0.0, 0.0, 0.0, 0.0, 0.0, 0.0, 0.0, 0.0, 0.0)"
1729690896.8676958,1671,1729690896,865918208,map,base_link,-0.9835005759125903,0.7099176983216272,3.132,-0.03652017036224701,0.026565604487940413,0.3240635945126331,-0.9449567887085919,"(1.0100249999999997, 0.0, 0.0, 0.0, 0.0, 0.0, 0.0, 1.0100249999999997, 0.0, 0.0, 0.0, 0.0, 0.0, 0.0, 1.9043999999999996, 0.0, 0.0, 0.0, 0.0, 0.0, 0.0, 99999.0, 0.0, 0.0, 0.0, 0.0, 0.0, 0.0, 99999.0, 0.0, 0.0, 0.0, 0.0, 0.0, 0.0, 99999.0)",-0.11,0.05,-0.69,0.0,0.0,0.0,"(-1.0, 0.0, 0.0, 0.0, 0.0, 0.0, 0.0, 0.0, 0.0, 0.0, 0.0, 0.0, 0.0, 0.0, 0.0, 0.0, 0.0, 0.0, 0.0, 0.0, 0.0, 0.0, 0.0, 0.0, 0.0, 0.0, 0.0, 0.0, 0.0, 0.0, 0.0, 0.0, 0.0, 0.0, 0.0, 0.0)"
1729690896.966763,1672,1729690896,965911296,map,base_link,-0.9927788894144948,0.7321026327350565,3.191,-0.03558652755046993,0.022135721655109585,0.3227200648561898,-0.9455661630065471,"(1.0100249999999997, 0.0, 0.0, 0.0, 0.0, 0.0, 0.0, 1.0100249999999997, 0.0, 0.0, 0.0, 0.0, 0.0, 0.0, 1.9043999999999996, 0.0, 0.0, 0.0, 0.0, 0.0, 0.0, 99999.0, 0.0, 0.0, 0.0, 0.0, 0.0, 0.0, 99999.0, 0.0, 0.0, 0.0, 0.0, 0.0, 0.0, 99999.0)",-0.14,0.01,-0.71,0.0,0.0,0.0,"(-1.0, 0.0, 0.0, 0.0, 0.0, 0.0, 0.0, 0.0, 0.0, 0.0, 0.0, 0.0, 0.0, 0.0, 0.0, 0.0, 0.0, 0.0, 0.0, 0.0, 0.0, 0.0, 0.0, 0.0, 0.0, 0.0, 0.0, 0.0, 0.0, 0.0, 0.0, 0.0, 0.0, 0.0, 0.0, 0.0)"
1729690897.0685096,1673,1729690897,66910528,map,base_link,-1.0020572046283975,0.7431951044681957,3.256,-0.033129243451612535,0.020927767616059745,0.32030720433826765,-0.9465029194988968,"(1.0100249999999997, 0.0, 0.0, 0.0, 0.0, 0.0, 0.0, 1.0100249999999997, 0.0, 0.0, 0.0, 0.0, 0.0, 0.0, 1.901641, 0.0, 0.0, 0.0, 0.0, 0.0, 0.0, 99999.0, 0.0, 0.0, 0.0, 0.0, 0.0, 0.0, 99999.0, 0.0, 0.0, 0.0, 0.0, 0.0, 0.0, 99999.0)",-0.12,-0.02,-0.72,0.0,0.0,0.0,"(-1.0, 0.0, 0.0, 0.0, 0.0, 0.0, 0.0, 0.0, 0.0, 0.0, 0.0, 0.0, 0.0, 0.0, 0.0, 0.0, 0.0, 0.0, 0.0, 0.0, 0.0, 0.0, 0.0, 0.0, 0.0, 0.0, 0.0, 0.0, 0.0, 0.0, 0.0, 0.0, 0.0, 0.0, 0.0, 0.0)"
1729690897.1686478,1674,1729690897,166906944,map,base_link,-1.0020572144512694,0.7542875760376666,3.325,-0.03297892446416518,0.023705959085815125,0.3176071347013402,-0.9473521657925383,"(1.0100249999999997, 0.0, 0.0, 0.0, 0.0, 0.0, 0.0, 1.0100249999999997, 0.0, 0.0, 0.0, 0.0, 0.0, 0.0, 1.901641, 0.0, 0.0, 0.0, 0.0, 0.0, 0.0, 99999.0, 0.0, 0.0, 0.0, 0.0, 0.0, 0.0, 99999.0, 0.0, 0.0, 0.0, 0.0, 0.0, 0.0, 99999.0)",-0.13,-0.07,-0.73,0.0,0.0,0.0,"(-1.0, 0.0, 0.0, 0.0, 0.0, 0.0, 0.0, 0.0, 0.0, 0.0, 0.0, 0.0, 0.0, 0.0, 0.0, 0.0, 0.0, 0.0, 0.0, 0.0, 0.0, 0.0, 0.0, 0.0, 0.0, 0.0, 0.0, 0.0, 0.0, 0.0, 0.0, 0.0, 0.0, 0.0, 0.0, 0.0)"
1729690897.2676115,1675,1729690897,265896960,map,base_link,-1.0113355311006145,0.7653800478311628,3.382,-0.026861261874078383,0.025871213603368273,0.31418426007392236,-0.9486292234793439,"(1.008016, 0.0, 0.0, 0.0, 0.0, 0.0, 0.0, 1.008016, 0.0, 0.0, 0.0, 0.0, 0.0, 0.0, 1.8988839999999998, 0.0, 0.0, 0.0, 0.0, 0.0, 0.0, 99999.0, 0.0, 0.0, 0.0, 0.0, 0.0, 0.0, 99999.0, 0.0, 0.0, 0.0, 0.0, 0.0, 0.0, 99999.0)",-0.1,-0.08,-0.73,0.0,0.0,0.0,"(-1.0, 0.0, 0.0, 0.0, 0.0, 0.0, 0.0, 0.0, 0.0, 0.0, 0.0, 0.0, 0.0, 0.0, 0.0, 0.0, 0.0, 0.0, 0.0, 0.0, 0.0, 0.0, 0.0, 0.0, 0.0, 0.0, 0.0, 0.0, 0.0, 0.0, 0.0, 0.0, 0.0, 0.0, 0.0, 0.0)"
1729690897.367604,1676,1729690897,365888256,map,base_link,-1.0113355395304922,0.7764725193350386,3.441,-0.027818578820038565,0.02862156966505953,0.312012807098625,-0.9492391377460043,"(1.008016, 0.0, 0.0, 0.0, 0.0, 0.0, 0.0, 1.008016, 0.0, 0.0, 0.0, 0.0, 0.0, 0.0, 1.8988839999999998, 0.0, 0.0, 0.0, 0.0, 0.0, 0.0, 99999.0, 0.0, 0.0, 0.0, 0.0, 0.0, 0.0, 99999.0, 0.0, 0.0, 0.0, 0.0, 0.0, 0.0, 99999.0)",-0.13,-0.12,-0.72,0.0,0.0,0.0,"(-1.0, 0.0, 0.0, 0.0, 0.0, 0.0, 0.0, 0.0, 0.0, 0.0, 0.0, 0.0, 0.0, 0.0, 0.0, 0.0, 0.0, 0.0, 0.0, 0.0, 0.0, 0.0, 0.0, 0.0, 0.0, 0.0, 0.0, 0.0, 0.0, 0.0, 0.0, 0.0, 0.0, 0.0, 0.0, 0.0)"
1729690897.467632,1677,1729690897,465879552,map,base_link,-1.0206138561839653,0.7764725278945639,3.501,-0.029151953416871032,0.0284616754673642,0.3111816915861136,-0.9494767250771214,"(1.008016, 0.0, 0.0, 0.0, 0.0, 0.0, 0.0, 1.008016, 0.0, 0.0, 0.0, 0.0, 0.0, 0.0, 1.896129, 0.0, 0.0, 0.0, 0.0, 0.0, 0.0, 99999.0, 0.0, 0.0, 0.0, 0.0, 0.0, 0.0, 99999.0, 0.0, 0.0, 0.0, 0.0, 0.0, 0.0, 99999.0)",-0.13,-0.16,-0.67,0.0,0.0,0.0,"(-1.0, 0.0, 0.0, 0.0, 0.0, 0.0, 0.0, 0.0, 0.0, 0.0, 0.0, 0.0, 0.0, 0.0, 0.0, 0.0, 0.0, 0.0, 0.0, 0.0, 0.0, 0.0, 0.0, 0.0, 0.0, 0.0, 0.0, 0.0, 0.0, 0.0, 0.0, 0.0, 0.0, 0.0, 0.0, 0.0)"
1729690897.5712032,1678,1729690897,568869568,map,base_link,-1.039170481724846,0.7764725370182217,3.56,-0.029746645955995164,0.026405670236363362,0.31437269739946255,-0.9484659639457407,"(1.008016, 0.0, 0.0, 0.0, 0.0, 0.0, 0.0, 1.008016, 0.0, 0.0, 0.0, 0.0, 0.0, 0.0, 1.896129, 0.0, 0.0, 0.0, 0.0, 0.0, 0.0, 99999.0, 0.0, 0.0, 0.0, 0.0, 0.0, 0.0, 99999.0, 0.0, 0.0, 0.0, 0.0, 0.0, 0.0, 99999.0)",-0.12,-0.17,-0.66,0.0,0.0,0.0,"(-1.0, 0.0, 0.0, 0.0, 0.0, 0.0, 0.0, 0.0, 0.0, 0.0, 0.0, 0.0, 0.0, 0.0, 0.0, 0.0, 0.0, 0.0, 0.0, 0.0, 0.0, 0.0, 0.0, 0.0, 0.0, 0.0, 0.0, 0.0, 0.0, 0.0, 0.0, 0.0, 0.0, 0.0, 0.0, 0.0)"
1729690897.6690197,1679,1729690897,666869568,map,base_link,-1.0484487987664983,0.7764725440472632,3.616,-0.0225703944977703,0.024503065129099937,0.3209336809327423,-0.9465155833553165,"(1.008016, 0.0, 0.0, 0.0, 0.0, 0.0, 0.0, 1.008016, 0.0, 0.0, 0.0, 0.0, 0.0, 0.0, 1.8933759999999997, 0.0, 0.0, 0.0, 0.0, 0.0, 0.0, 99999.0, 0.0, 0.0, 0.0, 0.0, 0.0, 0.0, 99999.0, 0.0, 0.0, 0.0, 0.0, 0.0, 0.0, 99999.0)",-0.13,-0.2,-0.65,0.0,0.0,0.0,"(-1.0, 0.0, 0.0, 0.0, 0.0, 0.0, 0.0, 0.0, 0.0, 0.0, 0.0, 0.0, 0.0, 0.0, 0.0, 0.0, 0.0, 0.0, 0.0, 0.0, 0.0, 0.0, 0.0, 0.0, 0.0, 0.0, 0.0, 0.0, 0.0, 0.0, 0.0, 0.0, 0.0, 0.0, 0.0, 0.0)"
1729690897.7687597,1680,1729690897,766869568,map,base_link,-1.057727117205273,0.7653800871325447,3.677,-0.019021648903585785,0.023858756133067503,0.32597287191867863,-0.9448865664204673,"(1.008016, 0.0, 0.0, 0.0, 0.0, 0.0, 0.0, 1.008016, 0.0, 0.0, 0.0, 0.0, 0.0, 0.0, 1.8933759999999997, 0.0, 0.0, 0.0, 0.0, 0.0, 0.0, 99999.0, 0.0, 0.0, 0.0, 0.0, 0.0, 0.0, 99999.0, 0.0, 0.0, 0.0, 0.0, 0.0, 0.0, 99999.0)",-0.13,-0.22,-0.61,0.0,0.0,0.0,"(-1.0, 0.0, 0.0, 0.0, 0.0, 0.0, 0.0, 0.0, 0.0, 0.0, 0.0, 0.0, 0.0, 0.0, 0.0, 0.0, 0.0, 0.0, 0.0, 0.0, 0.0, 0.0, 0.0, 0.0, 0.0, 0.0, 0.0, 0.0, 0.0, 0.0, 0.0, 0.0, 0.0, 0.0, 0.0, 0.0)"
1729690897.867596,1681,1729690897,866866496,map,base_link,-1.0670054356938286,0.7542876315242606,3.732,-0.01486452097362022,0.02406124634618749,0.3294144955741834,-0.9437617244549067,"(1.008016, 0.0, 0.0, 0.0, 0.0, 0.0, 0.0, 1.008016, 0.0, 0.0, 0.0, 0.0, 0.0, 0.0, 1.890625, 0.0, 0.0, 0.0, 0.0, 0.0, 0.0, 99999.0, 0.0, 0.0, 0.0, 0.0, 0.0, 0.0, 99999.0, 0.0, 0.0, 0.0, 0.0, 0.0, 0.0, 99999.0)",-0.1,-0.21,-0.56,0.0,0.0,0.0,"(-1.0, 0.0, 0.0, 0.0, 0.0, 0.0, 0.0, 0.0, 0.0, 0.0, 0.0, 0.0, 0.0, 0.0, 0.0, 0.0, 0.0, 0.0, 0.0, 0.0, 0.0, 0.0, 0.0, 0.0, 0.0, 0.0, 0.0, 0.0, 0.0, 0.0, 0.0, 0.0, 0.0, 0.0, 0.0, 0.0)"
1729690897.967553,1682,1729690897,965860864,map,base_link,-1.0670054454107283,0.7431951733280359,3.784,-0.016993702376565938,0.026436272673785836,0.33102042218329886,-0.9431001100966134,"(1.008016, 0.0, 0.0, 0.0, 0.0, 0.0, 0.0, 1.008016, 0.0, 0.0, 0.0, 0.0, 0.0, 0.0, 1.890625, 0.0, 0.0, 0.0, 0.0, 0.0, 0.0, 99999.0, 0.0, 0.0, 0.0, 0.0, 0.0, 0.0, 99999.0, 0.0, 0.0, 0.0, 0.0, 0.0, 0.0, 99999.0)",-0.08,-0.22,-0.47,0.0,0.0,0.0,"(-1.0, 0.0, 0.0, 0.0, 0.0, 0.0, 0.0, 0.0, 0.0, 0.0, 0.0, 0.0, 0.0, 0.0, 0.0, 0.0, 0.0, 0.0, 0.0, 0.0, 0.0, 0.0, 0.0, 0.0, 0.0, 0.0, 0.0, 0.0, 0.0, 0.0, 0.0, 0.0, 0.0, 0.0, 0.0, 0.0)"
1729690898.0680265,1683,1729690898,65854208,map,base_link,-1.0577271471276022,0.7210102479326683,3.826,-0.01575990377421635,0.030290433827912244,0.32999591386218197,-0.9433646229776733,"(1.008016, 0.0, 0.0, 0.0, 0.0, 0.0, 0.0, 1.008016, 0.0, 0.0, 0.0, 0.0, 0.0, 0.0, 1.8878760000000003, 0.0, 0.0, 0.0, 0.0, 0.0, 0.0, 99999.0, 0.0, 0.0, 0.0, 0.0, 0.0, 0.0, 99999.0, 0.0, 0.0, 0.0, 0.0, 0.0, 0.0, 99999.0)",-0.08,-0.23,-0.4,0.0,0.0,0.0,"(-1.0, 0.0, 0.0, 0.0, 0.0, 0.0, 0.0, 0.0, 0.0, 0.0, 0.0, 0.0, 0.0, 0.0, 0.0, 0.0, 0.0, 0.0, 0.0, 0.0, 0.0, 0.0, 0.0, 0.0, 0.0, 0.0, 0.0, 0.0, 0.0, 0.0, 0.0, 0.0, 0.0, 0.0, 0.0, 0.0)"
1729690898.1676562,1684,1729690898,165847808,map,base_link,-1.0577271560737946,0.6988253234664948,3.863,-0.01278212568531785,0.03251685391137968,0.32770172214508486,-0.9441349759318401,"(1.008016, 0.0, 0.0, 0.0, 0.0, 0.0, 0.0, 1.008016, 0.0, 0.0, 0.0, 0.0, 0.0, 0.0, 1.8878760000000003, 0.0, 0.0, 0.0, 0.0, 0.0, 0.0, 99999.0, 0.0, 0.0, 0.0, 0.0, 0.0, 0.0, 99999.0, 0.0, 0.0, 0.0, 0.0, 0.0, 0.0, 99999.0)",-0.05,-0.23,-0.35,0.0,0.0,0.0,"(-1.0, 0.0, 0.0, 0.0, 0.0, 0.0, 0.0, 0.0, 0.0, 0.0, 0.0, 0.0, 0.0, 0.0, 0.0, 0.0, 0.0, 0.0, 0.0, 0.0, 0.0, 0.0, 0.0, 0.0, 0.0, 0.0, 0.0, 0.0, 0.0, 0.0, 0.0, 0.0, 0.0, 0.0, 0.0, 0.0)"
1729690898.2680097,1685,1729690898,265843712,map,base_link,-1.057727160847414,0.6988253271194389,3.893,-0.008947437687275989,0.033415932529279144,0.32484462197739583,-0.9451345356002994,"(1.008016, 0.0, 0.0, 0.0, 0.0, 0.0, 0.0, 1.008016, 0.0, 0.0, 0.0, 0.0, 0.0, 0.0, 1.8878760000000003, 0.0, 0.0, 0.0, 0.0, 0.0, 0.0, 99999.0, 0.0, 0.0, 0.0, 0.0, 0.0, 0.0, 99999.0, 0.0, 0.0, 0.0, 0.0, 0.0, 0.0, 99999.0)",-0.05,-0.22,-0.31,0.0,0.0,0.0,"(-1.0, 0.0, 0.0, 0.0, 0.0, 0.0, 0.0, 0.0, 0.0, 0.0, 0.0, 0.0, 0.0, 0.0, 0.0, 0.0, 0.0, 0.0, 0.0, 0.0, 0.0, 0.0, 0.0, 0.0, 0.0, 0.0, 0.0, 0.0, 0.0, 0.0, 0.0, 0.0, 0.0, 0.0, 0.0, 0.0)"
1729690898.367647,1686,1729690898,365836800,map,base_link,-1.0484488575712267,0.6877328638175733,3.919,-0.015557071881095511,0.033019566108172055,0.32383574648779884,-0.9454089565183971,"(1.008016, 0.0, 0.0, 0.0, 0.0, 0.0, 0.0, 1.008016, 0.0, 0.0, 0.0, 0.0, 0.0, 0.0, 1.8878760000000003, 0.0, 0.0, 0.0, 0.0, 0.0, 0.0, 99999.0, 0.0, 0.0, 0.0, 0.0, 0.0, 0.0, 99999.0, 0.0, 0.0, 0.0, 0.0, 0.0, 0.0, 99999.0)",-0.02,-0.22,-0.21,0.0,0.0,0.0,"(-1.0, 0.0, 0.0, 0.0, 0.0, 0.0, 0.0, 0.0, 0.0, 0.0, 0.0, 0.0, 0.0, 0.0, 0.0, 0.0, 0.0, 0.0, 0.0, 0.0, 0.0, 0.0, 0.0, 0.0, 0.0, 0.0, 0.0, 0.0, 0.0, 0.0, 0.0, 0.0, 0.0, 0.0, 0.0, 0.0)"
