Time,header.seq,header.stamp.secs,header.stamp.nsecs,header.frame_id,airspeed,groundspeed,heading,throttle,altitude,climb
1729690889.4692116,1597,1729690889,468750936,,1.1897834539413452,0.15841872990131378,131,0.14000000059604645,548.3699951171875,1.1791895627975464
1729690889.5699663,1598,1729690889,568763306,,1.1070860624313354,0.1268700361251831,131,0.15000000596046448,548.469970703125,1.09979248046875
1729690889.6696012,1599,1729690889,668776788,,1.0626007318496704,0.12472211569547653,131,0.14000000059604645,548.5700073242188,1.0552557706832886
1729690889.7710276,1600,1729690889,768741417,,0.9906426072120667,0.1324574202299118,131,0.14000000059604645,548.6699829101562,0.9817473292350769
1729690889.8704658,1601,1729690889,869792713,,0.8961206674575806,0.10746818035840988,132,0.15000000596046448,548.75,0.889653205871582
1729690889.9746847,1602,1729690889,969858250,,0.8353884220123291,0.08324361592531204,132,0.14000000059604645,548.8399658203125,0.8312305212020874
1729690890.0710766,1603,1729690890,69871343,,0.7842400074005127,0.07115061581134796,132,0.15000000596046448,548.9099731445312,0.7810057997703552
1729690890.1719058,1604,1729690890,170473398,,0.7105783224105835,0.07582668215036392,132,0.15000000596046448,548.969970703125,0.7065209746360779
1729690890.270725,1605,1729690890,269894102,,0.6239318251609802,0.07890123873949051,131,0.1599999964237213,549.0199584960938,0.6189228296279907
1729690890.3704693,1606,1729690890,369910120,,0.5593418478965759,0.07102123647928238,131,0.1599999964237213,549.0700073242188,0.5548146367073059
1729690890.4705834,1607,1729690890,469882380,,0.5634061694145203,0.08989369869232178,131,0.15000000596046448,549.1099853515625,0.5561885237693787
1729690890.5705602,1608,1729690890,569948583,,0.49875596165657043,0.10402300953865051,131,0.14000000059604645,549.1599731445312,0.4877875745296478
1729690890.6705709,1609,1729690890,669884620,,0.485377699136734,0.12578468024730682,132,0.14000000059604645,549.2000122070312,0.468796044588089
1729690890.7725089,1610,1729690890,770902342,,0.4263121485710144,0.13288655877113342,132,0.12999999523162842,549.239990234375,0.40507185459136963
1729690890.8720543,1611,1729690890,870902231,,0.33465737104415894,0.12314049899578094,131,0.12999999523162842,549.260009765625,0.3111783564090729
1729690890.9714997,1612,1729690890,970925879,,0.26803675293922424,0.12794066965579987,131,0.14000000059604645,549.2899780273438,0.23553107678890228
1729690891.0716796,1613,1729690891,70936176,,0.19236086308956146,0.11195799708366394,131,0.15000000596046448,549.3200073242188,0.15642285346984863
1729690891.1695318,1614,1729690891,168956398,,0.15793034434318542,0.11532899737358093,131,0.14000000059604645,549.3399658203125,0.10789445042610168
1729690891.269566,1615,1729690891,268951120,,0.13817274570465088,0.1309812217950821,131,0.15000000596046448,549.3399658203125,0.04399576410651207
1729690891.3694034,1616,1729690891,369021768,,0.1313117891550064,0.13124215602874756,131,0.1599999964237213,549.3399658203125,0.0042755864560604095
1729690891.47067,1617,1729690891,470049083,,0.15876618027687073,0.15315063297748566,131,0.1599999964237213,549.3300170898438,-0.04185192286968231
1729690891.570799,1618,1729690891,570024805,,0.16163752973079681,0.16077078878879547,131,0.1599999964237213,549.3300170898438,-0.016716673970222473
1729690891.6711805,1619,1729690891,670096101,,0.17234879732131958,0.16975393891334534,131,0.1599999964237213,549.3200073242188,-0.02979438379406929
1729690891.7727566,1620,1729690891,772104916,,0.17150330543518066,0.16890303790569305,131,0.1599999964237213,549.3200073242188,-0.029751377180218697
1729690891.8708668,1621,1729690891,870156157,,0.17704570293426514,0.17679248750209808,131,0.1599999964237213,549.3200073242188,-0.009464297443628311
1729690891.9720464,1622,1729690891,971143175,,0.17012839019298553,0.16941267251968384,130,0.1599999964237213,549.3200073242188,-0.015589118003845215
1729690892.0715492,1623,1729690892,70373471,,0.1762969046831131,0.17157168686389923,130,0.1599999964237213,549.3200073242188,0.040543071925640106
1729690892.1715944,1624,1729690892,170708693,,0.18772576749324799,0.1876535415649414,131,0.1599999964237213,549.3200073242188,-0.005205834750086069
1729690892.2725527,1625,1729690892,271000101,,0.18695507943630219,0.18643632531166077,131,0.1599999964237213,549.3200073242188,0.013917692005634308
1729690892.3718889,1626,1729690892,371241508,,0.22355112433433533,0.21964770555496216,131,0.15000000596046448,549.3200073242188,0.04159285128116608
1729690892.4725266,1627,1729690892,472126730,,0.22932782769203186,0.22879241406917572,131,0.1599999964237213,549.3200073242188,0.015660785138607025
1729690892.572271,1628,1729690892,571431378,,0.23698370158672333,0.23582816123962402,130,0.1599999964237213,549.3200073242188,0.023373672738671303
1729690892.6723728,1629,1729690892,671514304,,0.23179078102111816,0.23151353001594543,130,0.1599999964237213,549.3200073242188,0.011333610862493515
1729690892.770838,1630,1729690892,770304823,,0.23638421297073364,0.23466597497463226,130,0.1599999964237213,549.3200073242188,0.02844964526593685
1729690892.8710022,1631,1729690892,870313749,,0.2648770213127136,0.26181042194366455,130,0.1599999964237213,549.3200073242188,0.04018835723400116
1729690892.9710345,1632,1729690892,970281545,,0.2792915403842926,0.275442510843277,130,0.1599999964237213,549.3200073242188,0.04620783030986786
1729690893.070962,1633,1729690893,70247860,,0.27947092056274414,0.27869102358818054,130,0.1599999964237213,549.3099975585938,0.020863385871052742
1729690893.1739798,1634,1729690893,172662711,,0.2633900046348572,0.26311689615249634,131,0.1599999964237213,549.2999877929688,0.011990786530077457
1729690893.2752643,1635,1729690893,274610748,,0.26640811562538147,0.25968852639198303,131,0.1599999964237213,549.2999877929688,0.05945679917931557
1729690893.3690734,1636,1729690893,368326563,,0.25626909732818604,0.2517392337322235,131,0.1599999964237213,549.2899780273438,0.04797028750181198
1729690893.469008,1637,1729690893,468317933,,0.24530909955501556,0.2446993589401245,131,0.17000000178813934,549.2799682617188,0.017285345122218132
1729690893.5700226,1638,1729690893,569288544,,0.2467367947101593,0.24470089375972748,131,0.17000000178813934,549.2899780273438,0.0316307470202446
1729690893.6698873,1639,1729690893,669295952,,0.25084587931632996,0.24221518635749817,131,0.17000000178813934,549.2899780273438,0.0652337372303009
1729690893.771,1640,1729690893,770372563,,0.2424786537885666,0.22777125239372253,131,0.1599999964237213,549.2999877929688,0.08316326886415482
1729690893.8709838,1641,1729690893,870350915,,0.2335016131401062,0.21961449086666107,131,0.1599999964237213,549.3099975585938,0.07932519912719727
1729690893.975917,1642,1729690893,975612248,,0.2292809635400772,0.21092283725738525,131,0.1599999964237213,549.3300170898438,0.08989608287811279
1729690894.0689585,1643,1729690894,68432655,,0.21495410799980164,0.19831591844558716,130,0.1599999964237213,549.3399658203125,0.08292210102081299
1729690894.1701205,1644,1729690894,169396303,,0.2160501927137375,0.19276580214500427,127,0.15000000596046448,549.3499755859375,0.09756544232368469
1729690894.2711868,1645,1729690894,270481396,,0.20906586945056915,0.1842525750398636,132,0.15000000596046448,549.3599853515625,0.09879033267498016
1729690894.374922,1646,1729690894,374366600,,0.20958057045936584,0.19390521943569183,142,0.15000000596046448,549.3699951171875,0.07952846586704254
1729690894.471221,1647,1729690894,470533377,,0.2088763564825058,0.19647176563739777,147,0.1599999964237213,549.3800048828125,0.07090947031974792
1729690894.5700614,1648,1729690894,569430636,,0.22386665642261505,0.22188422083854675,144,0.1599999964237213,549.3800048828125,0.029726389795541763
1729690894.669102,1649,1729690894,668565303,,0.1971673220396042,0.1900455206632614,139,0.17000000178813934,549.3800048828125,0.05251334235072136
1729690894.770428,1650,1729690894,769549859,,0.17209088802337646,0.16594496369361877,132,0.1599999964237213,549.3699951171875,0.04558011516928673
1729690894.8716521,1651,1729690894,870534747,,0.13993877172470093,0.12334345281124115,128,0.1599999964237213,549.3599853515625,0.06610030680894852
1729690894.9703977,1652,1729690894,969574488,,0.11244703084230423,0.08738944679498672,126,0.17000000178813934,549.3599853515625,0.07076312601566315
1729690895.0715406,1653,1729690895,70509192,,0.13468869030475616,0.05739623308181763,126,0.17000000178813934,549.3499755859375,0.12184709310531616
1729690895.172189,1654,1729690895,171484988,,0.17388476431369781,0.0702470913529396,127,0.17000000178813934,549.3499755859375,0.1590636819601059
1729690895.2734783,1655,1729690895,272462303,,0.19292885065078735,0.07195466756820679,129,0.17000000178813934,549.3499755859375,0.1790085732936859
1729690895.3722186,1656,1729690895,371549803,,0.24555161595344543,0.06386232376098633,130,0.17000000178813934,549.3599853515625,0.23710165917873383
1729690895.4681427,1657,1729690895,467595803,,0.2980031967163086,0.09107941389083862,131,0.18000000715255737,549.3599853515625,0.28374361991882324
1729690895.5703251,1658,1729690895,569571321,,0.31909802556037903,0.10963008552789688,131,0.1899999976158142,549.3699951171875,0.29967448115348816
1729690895.6692595,1659,1729690895,668638802,,0.43084508180618286,0.1291148066520691,131,0.1899999976158142,549.3900146484375,0.41104355454444885
1729690895.7702932,1660,1729690895,769667543,,0.4841490089893341,0.14286206662654877,130,0.18000000715255737,549.4199829101562,0.4625912606716156
1729690895.8693976,1661,1729690895,868635839,,0.5566249489784241,0.1580786108970642,129,0.18000000715255737,549.4599609375,0.5337063670158386
1729690895.968353,1662,1729690895,967610302,,0.6208020448684692,0.17488400638103485,128,0.17000000178813934,549.5,0.5956599116325378
1729690896.0698113,1663,1729690896,67658284,,0.637341320514679,0.17916885018348694,128,0.17000000178813934,549.5599975585938,0.611639142036438
1729690896.1716485,1664,1729690896,170746358,,0.6739611625671387,0.18581382930278778,128,0.1599999964237213,549.6199951171875,0.647840142250061
1729690896.2736712,1665,1729690896,272610561,,0.6923274993896484,0.19700351357460022,129,0.1599999964237213,549.6799926757812,0.6637069582939148
1729690896.3730435,1666,1729690896,372648006,,0.6926136016845703,0.19742901623249054,130,0.1599999964237213,549.72998046875,0.6638790369033813
1729690896.4703264,1667,1729690896,469697098,,0.6727331876754761,0.18628567457199097,129,0.17000000178813934,549.7799682617188,0.6464267373085022
1729690896.570329,1668,1729690896,569760987,,0.7206379175186157,0.17314961552619934,129,0.1599999964237213,549.8300170898438,0.6995271444320679
1729690896.6702273,1669,1729690896,669698228,,0.7072760462760925,0.15483923256397247,129,0.17000000178813934,549.8800048828125,0.6901189684867859
1729690896.7730324,1670,1729690896,772648561,,0.7082059383392334,0.1448814868927002,128,0.17000000178813934,549.9299926757812,0.6932279467582703
1729690896.870334,1671,1729690896,869944876,,0.6829590797424316,0.13021163642406464,127,0.17000000178813934,549.989990234375,0.6704312562942505
1729690896.9693334,1672,1729690896,968835839,,0.7358384132385254,0.14164498448371887,127,0.1599999964237213,550.0499877929688,0.7220767140388489
1729690897.0774944,1673,1729690897,76827487,,0.7526659965515137,0.13919489085674286,127,0.1599999964237213,550.1199951171875,0.7396829724311829
1729690897.1774962,1674,1729690897,176778709,,0.7407158017158508,0.15029019117355347,127,0.15000000596046448,550.1799926757812,0.7253087162971497
1729690897.2773645,1675,1729690897,276781487,,0.7390380501747131,0.13792677223682404,126,0.1599999964237213,550.239990234375,0.7260532379150391
1729690897.377302,1676,1729690897,376767987,,0.7485874891281128,0.18503573536872864,126,0.1599999964237213,550.2999877929688,0.7253585457801819
1729690897.4773061,1677,1729690897,476797338,,0.7073346972465515,0.20097903907299042,126,0.1599999964237213,550.3599853515625,0.6781812310218811
1729690897.5766382,1678,1729690897,575892005,,0.7361288666725159,0.2220693826675415,126,0.1599999964237213,550.4199829101562,0.701833963394165
1729690897.6707351,1679,1729690897,669809616,,0.7059085965156555,0.24206629395484924,127,0.15000000596046448,550.469970703125,0.6631069183349609
1729690897.7707083,1680,1729690897,769941005,,0.6700833439826965,0.2571312189102173,128,0.15000000596046448,550.5299682617188,0.6187852621078491
1729690897.8704615,1681,1729690897,869908894,,0.5842422842979431,0.24422799050807953,128,0.14000000059604645,550.5899658203125,0.530746340751648
1729690897.9694958,1682,1729690897,968984616,,0.5382250547409058,0.24522924423217773,128,0.14000000059604645,550.6400146484375,0.47911256551742554
1729690898.0695407,1683,1729690898,68954875,,0.4678586721420288,0.24490731954574585,128,0.15000000596046448,550.6799926757812,0.3986378312110901
1729690898.1693702,1684,1729690898,169000079,,0.4146253168582916,0.2520500719547272,128,0.14000000059604645,550.719970703125,0.3292185962200165
1729690898.2696383,1685,1729690898,268960375,,0.35803571343421936,0.22687458992004395,127,0.14000000059604645,550.75,0.2769792377948761
1729690898.3697915,1686,1729690898,369053579,,0.32824578881263733,0.24680134654045105,127,0.14000000059604645,550.7799682617188,0.21641245484352112
1729690898.4694936,1687,1729690898,468979134,,0.3040372133255005,0.2302725613117218,128,0.14000000059604645,550.7899780273438,0.19852742552757263
1729690898.571419,1688,1729690898,570275875,,0.3016887307167053,0.24976979196071625,128,0.15000000596046448,550.8099975585938,0.16920723021030426
1729690898.6722891,1689,1729690898,671539912,,0.2934953570365906,0.2609357237815857,127,0.15000000596046448,550.8200073242188,0.1343579739332199
1729690898.7765121,1690,1729690898,775195504,,0.29650938510894775,0.2814968526363373,127,0.15000000596046448,550.8399658203125,0.09315208345651627
1729690898.8717656,1691,1729690898,871237282,,0.29285281896591187,0.282063364982605,128,0.15000000596046448,550.8499755859375,0.07875940203666687
1729690898.96991,1692,1729690898,969203375,,0.26954084634780884,0.2644246220588684,128,0.15000000596046448,550.8599853515625,0.052267514169216156
1729690899.0695777,1693,1729690899,69142152,,0.2574951648712158,0.253769189119339,129,0.15000000596046448,550.8699951171875,0.04364539682865143
1729690899.1696012,1694,1729690899,169153171,,0.2378564327955246,0.23638398945331573,129,0.15000000596046448,550.8800048828125,0.026425044983625412
1729690899.2694745,1695,1729690899,269067652,,0.2370413839817047,0.23614250123500824,129,0.17000000178813934,550.8800048828125,-0.020623525604605675
1729690899.3699348,1696,1729690899,369089523,,0.22263403236865997,0.21991385519504547,128,0.17000000178813934,550.8699951171875,-0.034695811569690704
1729690899.4686384,1697,1729690899,468192559,,0.2036505490541458,0.20361241698265076,128,0.1599999964237213,550.8699951171875,-0.00394048448652029
1729690899.5720017,1698,1729690899,571135133,,0.19627289474010468,0.19371628761291504,127,0.17000000178813934,550.8599853515625,-0.031575895845890045
1729690899.6677747,1699,1729690899,667115282,,0.19239619374275208,0.1923244744539261,127,0.1599999964237213,550.8599853515625,-0.005250276066362858
1729690899.769,1700,1729690899,768324133,,0.18230409920215607,0.18226733803749084,127,0.15000000596046448,550.8599853515625,0.003659922629594803
1729690899.8709602,1701,1729690899,870249707,,0.16852767765522003,0.16800613701343536,128,0.17000000178813934,550.8599853515625,0.013248039409518242
1729690899.9690912,1702,1729690899,968192059,,0.14543269574642181,0.1413995623588562,128,0.18000000715255737,550.8499755859375,-0.03401220962405205
1729690900.0711615,1703,1729690900,70245281,,0.12309444695711136,0.11988738179206848,128,0.18000000715255737,550.8399658203125,-0.027915265411138535
1729690900.1709266,1704,1729690900,170205855,,0.10069287568330765,0.09892230480909348,128,0.18000000715255737,550.8300170898438,-0.018799830228090286
1729690900.2676826,1705,1729690900,267158837,,0.07347399741411209,0.07220960408449173,128,0.18000000715255737,550.8200073242188,0.013571921736001968
1729690900.3727376,1706,1729690900,372178059,,0.07293234765529633,0.06720437109470367,128,0.17000000178813934,550.8099975585938,0.028331972658634186
1729690900.4726589,1707,1729690900,472289114,,0.09191736578941345,0.0602564811706543,128,0.17000000178813934,550.7999877929688,0.0694115087389946
1729690900.5707815,1708,1729690900,570343892,,0.0838175117969513,0.04844682291150093,129,0.17000000178813934,550.7999877929688,0.06839794665575027
1729690900.66888,1709,1729690900,668286318,,0.07982069253921509,0.05515509471297264,129,0.17000000178813934,550.7999877929688,0.057699717581272125
1729690900.7700956,1710,1729690900,769374244,,0.13421225547790527,0.05134465917944908,129,0.17000000178813934,550.7999877929688,0.12400263547897339
1729690900.8720915,1711,1729690900,871385355,,0.1024228036403656,0.045940183103084564,129,0.1599999964237213,550.7999877929688,0.09154196083545685
1729690900.9751184,1712,1729690900,974434985,,0.11774923652410507,0.05116727575659752,129,0.17000000178813934,550.7999877929688,0.10605089366436005
1729690901.0723784,1713,1729690901,71616910,,0.12941256165504456,0.06856156140565872,129,0.1599999964237213,550.8099975585938,0.10975847393274307
1729690901.1831834,1714,1729690901,182375095,,0.10869389772415161,0.07943543046712875,128,0.17000000178813934,550.8200073242188,0.07419148087501526
1729690901.2720542,1715,1729690901,271414540,,0.11185313016176224,0.09840399026870728,128,0.17000000178813934,550.8200073242188,0.05317680910229683
1729690901.3713284,1716,1729690901,370455873,,0.1333094835281372,0.1082339659333229,128,0.17000000178813934,550.8300170898438,0.07782558351755142
1729690901.4702013,1717,1729690901,469269855,,0.1118193194270134,0.08880729973316193,128,0.17000000178813934,550.8300170898438,0.06794717907905579
1729690901.5698326,1718,1729690901,569383355,,0.10260474681854248,0.09820305556058884,129,0.18000000715255737,550.8399658203125,0.029730377718806267
1729690901.6699893,1719,1729690901,669394169,,0.12016642093658447,0.09213140606880188,129,0.17000000178813934,550.8399658203125,0.0771477073431015
1729690901.770892,1720,1729690901,770502151,,0.09308478981256485,0.08368472754955292,129,0.17000000178813934,550.8499755859375,0.0407632440328598
1729690901.8709645,1721,1729690901,870534947,,0.09542913734912872,0.09192326664924622,128,0.18000000715255737,550.8499755859375,0.02562868595123291
1729690901.971053,1722,1729690901,970561595,,0.0765228271484375,0.06941065192222595,128,0.17000000178813934,550.8399658203125,0.03221648558974266
1729690902.0700867,1723,1729690902,69468095,,0.0930432453751564,0.08668112009763718,128,0.17000000178813934,550.8399658203125,0.03381463885307312
1729690902.1712337,1724,1729690902,170468262,,0.09420321881771088,0.08324317634105682,128,0.17000000178813934,550.8300170898438,0.044100064784288406
1729690902.2708857,1725,1729690902,269865299,,0.11183290183544159,0.11036929488182068,128,0.18000000715255737,550.8200073242188,0.0180338267236948
1729690902.3728838,1726,1729690902,372267039,,0.12901383638381958,0.1132916584610939,128,0.17000000178813934,550.8200073242188,0.061721622943878174
1729690902.471256,1727,1729690902,470486984,,0.13497474789619446,0.12656790018081665,129,0.17000000178813934,550.8200073242188,0.04689088091254234
1729690902.568009,1728,1729690902,567522854,,0.14821644127368927,0.13474056124687195,129,0.17000000178813934,550.8200073242188,0.06175018846988678
1729690902.6702557,1729,1729690902,669535576,,0.17785219848155975,0.1599271297454834,129,0.17000000178813934,550.8200073242188,0.07781198620796204
1729690902.7722647,1730,1729690902,771553576,,0.14834848046302795,0.13830013573169708,129,0.17000000178813934,550.8200073242188,0.05366872623562813
1729690902.8699987,1731,1729690902,869581391,,0.13153070211410522,0.12140762805938721,129,0.17000000178813934,550.8200073242188,0.05060144513845444
1729690902.971922,1732,1729690902,971529891,,0.13467073440551758,0.102778859436512,129,0.17000000178813934,550.8200073242188,0.08702131360769272
1729690903.0703313,1733,1729690903,69603039,,0.10246506333351135,0.07649294286966324,129,0.17000000178813934,550.8200073242188,0.06817565113306046
1729690903.170251,1734,1729690903,169641594,,0.08847829699516296,0.07295716553926468,128,0.17000000178813934,550.8200073242188,0.050056565552949905
1729690903.270329,1735,1729690903,269679891,,0.1005006954073906,0.06029733270406723,128,0.17000000178813934,550.8200073242188,0.08040286600589752
1729690903.369286,1736,1729690903,368647020,,0.0738067477941513,0.04401871934533119,129,0.17000000178813934,550.8300170898438,0.05924345552921295
1729690903.4692545,1737,1729690903,468670168,,0.09602721780538559,0.06491944938898087,128,0.17000000178813934,550.8300170898438,0.07075796276330948
1729690903.5693805,1738,1729690903,568681187,,0.0851055458188057,0.04554171487689018,128,0.1599999964237213,550.8399658203125,0.07189510017633438
1729690903.6695905,1739,1729690903,668734983,,0.06978216022253036,0.0507376603782177,128,0.17000000178813934,550.8399658203125,0.047908660024404526
1729690903.7693436,1740,1729690903,768723372,,0.08240197598934174,0.059528376907110214,128,0.18000000715255737,550.8300170898438,0.056977685540914536
1729690903.8691626,1741,1729690903,868710742,,0.061310239136219025,0.04984407126903534,128,0.18000000715255737,550.8300170898438,0.03570032864809036
1729690903.969515,1742,1729690903,968740909,,0.10807544738054276,0.08227954804897308,128,0.17000000178813934,550.8300170898438,0.07007405161857605
1729690904.0697875,1743,1729690904,68779594,,0.09813941270112991,0.07437364012002945,128,0.17000000178813934,550.8300170898438,0.0640304908156395
1729690904.1716967,1744,1729690904,170793816,,0.12038663029670715,0.0906958132982254,127,0.17000000178813934,550.8300170898438,0.07916569709777832
1729690904.2684832,1745,1729690904,267843149,,0.10358131676912308,0.08904004096984863,127,0.17000000178813934,550.8300170898438,0.05292404443025589
1729690904.3691802,1746,1729690904,368766427,,0.13542601466178894,0.11309149116277695,127,0.17000000178813934,550.8300170898438,0.07450180500745773
1729690904.4695516,1747,1729690904,468794779,,0.11785570532083511,0.09682182967662811,127,0.1599999964237213,550.8200073242188,0.06719744950532913
1729690904.5705612,1748,1729690904,569853482,,0.14308786392211914,0.11784863471984863,127,0.1599999964237213,550.8200073242188,0.08115311712026596
1729690904.6705399,1749,1729690904,669934353,,0.12352573871612549,0.10750475525856018,127,0.17000000178813934,550.8200073242188,0.06083858758211136
1729690904.795623,1750,1729690904,775111519,,0.1303131878376007,0.10462119430303574,127,0.17000000178813934,550.8200073242188,0.07769125699996948
1729690904.8755195,1751,1729690904,874851908,,0.13190260529518127,0.0900423601269722,127,0.17000000178813934,550.8300170898438,0.09638810902833939
1729690904.9754174,1752,1729690904,974891538,,0.12217176705598831,0.09083537012338638,127,0.1599999964237213,550.8399658203125,0.0816999077796936
1729690905.072093,1753,1729690905,70988408,,0.11249098926782608,0.07358480244874954,127,0.1599999964237213,550.8399658203125,0.08508524298667908
1729690905.1684866,1754,1729690905,168018167,,0.09625616669654846,0.06468737870454788,128,0.1599999964237213,550.8499755859375,0.07127967476844788
1729690905.2691407,1755,1729690905,267921149,,0.0604589469730854,0.02507915534079075,128,0.1599999964237213,550.8499755859375,0.055011995136737823
1729690905.3686864,1756,1729690905,367939537,,0.038588281720876694,0.01748228445649147,128,0.17000000178813934,550.8499755859375,0.034400951117277145
1729690905.4687083,1757,1729690905,467954815,,0.04171930253505707,0.02530735172331333,128,0.17000000178813934,550.8399658203125,0.03316682204604149
1729690905.568609,1758,1729690905,567949797,,0.07795163244009018,0.02311776578426361,127,0.1599999964237213,550.8399658203125,0.07444478571414948
1729690905.6707425,1759,1729690905,670054148,,0.06118233501911163,0.04933930188417435,126,0.17000000178813934,550.8399658203125,0.03617885336279869
1729690905.776051,1760,1729690905,775138278,,0.05222153291106224,0.050016116350889206,126,0.17000000178813934,550.8399658203125,0.015015814453363419
1729690905.8697824,1761,1729690905,869019611,,0.06297966092824936,0.05099157243967056,127,0.17000000178813934,550.8399658203125,0.03696344792842865
1729690905.969526,1762,1729690905,969074093,,0.08017686009407043,0.04050910472869873,128,0.1599999964237213,550.8499755859375,0.069190613925457
1729690906.0696623,1763,1729690906,69009333,,0.04048654064536095,0.023382168263196945,128,0.17000000178813934,550.8499755859375,0.0330519899725914
1729690906.169918,1764,1729690906,169030574,,0.051324713975191116,0.03149168938398361,128,0.1599999964237213,550.8499755859375,0.040527764707803726
1729690906.2698572,1765,1729690906,269073296,,0.06118199601769447,0.03732273727655411,128,0.1599999964237213,550.8499755859375,0.04847937449812889
1729690906.3730376,1766,1729690906,371453111,,0.08160315454006195,0.051267359405756,128,0.1599999964237213,550.8599853515625,0.06348804384469986
1729690906.4698396,1767,1729690906,469076963,,0.08233552426099777,0.05321333557367325,128,0.1599999964237213,550.8699951171875,0.06282896548509598
1729690906.5697954,1768,1729690906,569168926,,0.06783449649810791,0.05053740739822388,128,0.1599999964237213,550.8800048828125,0.04524918645620346
1729690906.6729372,1769,1729690906,672042574,,0.04313826933503151,0.043092500418424606,128,0.17000000178813934,550.8900146484375,-0.0019862791523337364
1729690906.7728455,1770,1729690906,772123796,,0.056233346462249756,0.05583720654249191,128,0.1599999964237213,550.9099731445312,0.006662917323410511
1729690906.87008,1771,1729690906,869169685,,0.04704764857888222,0.038723357021808624,127,0.1599999964237213,550.9199829101562,0.026720449328422546
1729690906.9701147,1772,1729690906,969160407,,0.038996197283267975,0.03441525995731354,127,0.1599999964237213,550.9400024414062,0.018338292837142944
1729690907.068574,1773,1729690907,68156685,,0.05035630613565445,0.031299203634262085,127,0.1599999964237213,550.9500122070312,-0.03944765403866768
1729690907.1692264,1774,1729690907,168344018,,0.05808534845709801,0.05218309909105301,127,0.1599999964237213,550.9500122070312,-0.025511393323540688
1729690907.2694883,1775,1729690907,268288370,,0.07046455144882202,0.05998728424310684,127,0.1599999964237213,550.9500122070312,-0.03696995973587036
1729690907.368913,1776,1729690907,368290666,,0.08400902152061462,0.052750974893569946,127,0.1599999964237213,550.9500122070312,-0.06538233906030655
1729690907.4685636,1777,1729690907,467248295,,0.08519426733255386,0.05652012303471565,127,0.1599999964237213,550.9400024414062,-0.0637458935379982
1729690907.5748749,1778,1729690907,572558295,,0.09388735890388489,0.05388751998543739,127,0.17000000178813934,550.9400024414062,-0.07688284665346146
1729690907.6710525,1779,1729690907,669356795,,0.0917704701423645,0.0569344162940979,127,0.1599999964237213,550.9299926757812,-0.07197422534227371
1729690907.7684612,1780,1729690907,767332536,,0.08354169875383377,0.05330263078212738,128,0.17000000178813934,550.9199829101562,-0.06432761996984482
1729690907.8713224,1781,1729690907,869268906,,0.07231880724430084,0.044378526508808136,128,0.17000000178813934,550.9099731445312,-0.0571012869477272
1729690907.9719963,1782,1729690907,971297166,,0.061434369534254074,0.05638692155480385,127,0.17000000178813934,550.9099731445312,-0.024386387318372726
1729690908.0705276,1783,1729690908,69311628,,0.06058679521083832,0.058093976229429245,127,0.17000000178813934,550.9099731445312,-0.0172002911567688
1729690908.1702957,1784,1729690908,169394628,,0.07094617933034897,0.06355726718902588,127,0.1599999964237213,550.9099731445312,-0.03152510151267052
1729690908.2708166,1785,1729690908,269444628,,0.06729567795991898,0.06660766154527664,127,0.17000000178813934,550.9099731445312,-0.009598259814083576
1729690908.3711424,1786,1729690908,369601888,,0.05813108757138252,0.05780458822846413,128,0.1599999964237213,550.9099731445312,0.006152351386845112
1729690908.4710865,1787,1729690908,469362295,,0.06469184905290604,0.05949275940656662,128,0.1599999964237213,550.9099731445312,-0.025409584864974022
1729690908.57215,1788,1729690908,571402184,,0.07277397811412811,0.07273952662944794,128,0.1599999964237213,550.8999633789062,-0.002238975837826729
1729690908.6709492,1789,1729690908,670374887,,0.06388228386640549,0.06326854228973389,128,0.1599999964237213,550.8999633789062,0.008833709172904491
1729690908.7704558,1790,1729690908,769421665,,0.07141167670488358,0.07121871411800385,128,0.1599999964237213,550.9099731445312,0.005245953798294067
1729690908.8719587,1791,1729690908,871354776,,0.07359795272350311,0.05607856810092926,128,0.17000000178813934,550.9199829101562,-0.047663941979408264
1729690908.9754515,1792,1729690908,974518109,,0.0689818263053894,0.06486904621124268,128,0.1599999964237213,550.9299926757812,-0.02346266619861126
1729690909.0776887,1793,1729690909,76451739,,0.08391027897596359,0.06548724323511124,128,0.17000000178813934,550.9299926757812,-0.052462901920080185
1729690909.1776268,1794,1729690909,176591109,,0.08091427385807037,0.07329462468624115,128,0.17000000178813934,550.9400024414062,-0.0342785120010376
1729690909.2777252,1795,1729690909,276622720,,0.08617694675922394,0.0734083279967308,128,0.17000000178813934,550.9400024414062,-0.04514069855213165
1729690909.3749769,1796,1729690909,374468165,,0.09407296031713486,0.07620624452829361,128,0.1599999964237213,550.9400024414062,-0.05515732243657112
1729690909.4744613,1797,1729690909,472669776,,0.08958211541175842,0.06792064011096954,129,0.1599999964237213,550.9400024414062,-0.05841010436415672
1729690909.569823,1798,1729690909,568823128,,0.07329345494508743,0.060811445116996765,129,0.17000000178813934,550.9299926757812,-0.040913283824920654
1729690909.6757195,1799,1729690909,674525183,,0.08082524687051773,0.07187339663505554,129,0.17000000178813934,550.9299926757812,-0.0369720458984375
1729690909.770584,1800,1729690909,769531424,,0.08494296669960022,0.06536628305912018,128,0.17000000178813934,550.9299926757812,-0.05424533039331436
1729690909.8693097,1801,1729690909,868627424,,0.06904151290655136,0.06396757811307907,128,0.1599999964237213,550.9299926757812,-0.025978410616517067
1729690909.969493,1802,1729690909,968582424,,0.07113327831029892,0.061297062784433365,128,0.1599999964237213,550.9299926757812,-0.03609175235033035
1729690910.069261,1803,1729690910,68597201,,0.06018395721912384,0.0554509162902832,128,0.1599999964237213,550.9299926757812,-0.02339448221027851
1729690910.1696417,1804,1729690910,168702368,,0.07256501168012619,0.06385084241628647,129,0.17000000178813934,550.9199829101562,-0.03447824344038963
1729690910.2692242,1805,1729690910,268663146,,0.08311841636896133,0.06377407908439636,129,0.18000000715255737,550.9099731445312,-0.05330608785152435
1729690910.3695512,1806,1729690910,368639534,,0.07581274956464767,0.061556700617074966,129,0.17000000178813934,550.8999633789062,-0.04425319284200668
1729690910.4691472,1807,1729690910,468084331,,0.0692673921585083,0.06921039521694183,129,0.17000000178813934,550.8800048828125,-0.002808995544910431
1729690910.5692043,1808,1729690910,568695664,,0.0660986378788948,0.05423137918114662,129,0.17000000178813934,550.8699951171875,-0.03778870403766632
1729690910.668409,1809,1729690910,667767960,,0.055508654564619064,0.054473526775836945,129,0.17000000178813934,550.8599853515625,-0.010669806972146034
1729690910.7694771,1810,1729690910,768700256,,0.050219710916280746,0.04409049078822136,129,0.17000000178813934,550.8499755859375,0.024042610079050064
1729690910.8693094,1811,1729690910,868771719,,0.054238446056842804,0.046351511031389236,128,0.17000000178813934,550.8599853515625,0.028166407719254494
1729690910.9741685,1812,1729690910,972708460,,0.07182833552360535,0.05652906000614166,128,0.17000000178813934,550.8599853515625,0.04431449994444847
1729690911.068155,1813,1729690911,67739219,,0.07195525616407394,0.06356924027204514,128,0.17000000178813934,550.8599853515625,0.03371215984225273
1729690911.168286,1814,1729690911,167747015,,0.07492491602897644,0.07424651086330414,128,0.17000000178813934,550.8699951171875,0.010059699416160583
1729690911.2683866,1815,1729690911,267844238,,0.0985845997929573,0.0893009603023529,128,0.17000000178813934,550.8699951171875,0.04176432639360428
1729690911.3683176,1816,1729690911,367841460,,0.07674961537122726,0.06962879747152328,128,0.1599999964237213,550.8699951171875,0.032285191118717194
1729690911.4673693,1817,1729690911,466781163,,0.09726285189390182,0.08659285306930542,128,0.15000000596046448,550.8800048828125,0.04429153352975845
1729690911.5704653,1818,1729690911,569798497,,0.10632617026567459,0.07821808010339737,128,0.1599999964237213,550.8800048828125,0.07202209532260895
1729690911.669366,1819,1729690911,668794126,,0.10014043003320694,0.08609265089035034,128,0.1599999964237213,550.8900146484375,0.05114845186471939
1729690911.7710905,1820,1729690911,768881237,,0.07104558497667313,0.062227535992860794,128,0.1599999964237213,550.8999633789062,0.03428132086992264
1729690911.8691514,1821,1729690911,868810608,,0.07078257203102112,0.06470391154289246,128,0.15000000596046448,550.9099731445312,0.028698021546006203
1729690911.9713213,1822,1729690911,970846052,,0.05888449028134346,0.053415581583976746,128,0.1599999964237213,550.9199829101562,0.024782193824648857
1729690912.0693948,1823,1729690912,68953348,,0.051414258778095245,0.05094628036022186,129,0.1599999964237213,550.9299926757812,0.006921065039932728
1729690912.1694293,1824,1729690912,168888719,,0.029622871428728104,0.025714809074997902,129,0.15000000596046448,550.9299926757812,-0.014705883339047432
1729690912.2713268,1825,1729690912,270872941,,0.05251879617571831,0.011108484119176865,129,0.17000000178813934,550.9400024414062,-0.051330555230379105
1729690912.3696373,1826,1729690912,368897533,,0.039133913815021515,0.014539270661771297,129,0.1599999964237213,550.9500122070312,-0.036332808434963226
1729690912.4683595,1827,1729690912,467977163,,0.06988254189491272,0.012889907695353031,128,0.1599999964237213,550.9599609375,-0.06868347525596619
1729690912.571661,1828,1729690912,570939496,,0.04690070077776909,0.01778274029493332,128,0.1599999964237213,550.9599609375,-0.04339873045682907
1729690912.6685593,1829,1729690912,667984978,,0.04039328917860985,0.021122541278600693,128,0.1599999964237213,550.9599609375,-0.034430451691150665
1729690912.7693167,1830,1729690912,768032737,,0.06434421241283417,0.019741252064704895,128,0.1599999964237213,550.9599609375,-0.06124100089073181
1729690912.8686159,1831,1729690912,868011329,,0.08613969385623932,0.01069179829210043,128,0.1599999964237213,550.9500122070312,-0.08547358214855194
1729690912.9686134,1832,1729690912,967983940,,0.08014898002147675,0.05071253702044487,128,0.17000000178813934,550.9500122070312,-0.06206526234745979
1729690913.068514,1833,1729690913,67982440,,0.1850346326828003,0.1689048707485199,127,0.1599999964237213,550.9400024414062,-0.07555750012397766
1729690913.1687088,1834,1729690913,168018125,,0.31653690338134766,0.31490573287010193,127,0.15000000596046448,550.9400024414062,-0.032093215733766556
1729690913.2716525,1835,1729690913,271037662,,0.5739783048629761,0.5718076825141907,126,0.17000000178813934,550.9400024414062,-0.04987164959311485
1729690913.374779,1836,1729690913,374126866,,0.8610647916793823,0.8592615723609924,126,0.17000000178813934,550.9500122070312,-0.05569405481219292
1729690913.4705014,1837,1729690913,470068755,,1.1539757251739502,1.1524072885513306,126,0.17000000178813934,550.9599609375,-0.060146450996398926
1729690913.5678627,1838,1729690913,567092996,,1.443750262260437,1.4415991306304932,126,0.17000000178813934,550.969970703125,-0.0787830799818039
1729690913.667653,1839,1729690913,667153718,,1.6048442125320435,1.6046711206436157,126,0.14000000059604645,550.97998046875,-0.023569069802761078
1729690913.7706501,1840,1729690913,770083421,,1.7440937757492065,1.741829514503479,127,0.17000000178813934,550.989990234375,-0.08884718269109726
1729690913.868149,1841,1729690913,867183718,,1.7126041650772095,1.7109277248382568,128,0.17000000178813934,550.97998046875,-0.07575836777687073
1729690913.9688022,1842,1729690913,968123625,,1.5829633474349976,1.5787768363952637,128,0.17000000178813934,550.969970703125,-0.11505140364170074
1729690914.0688124,1843,1729690914,68153958,,1.3799560070037842,1.3730309009552002,129,0.1899999976158142,550.9400024414062,-0.1380724310874939
1729690914.1690888,1844,1729690914,168189291,,1.0923787355422974,1.0834237337112427,129,0.20999999344348907,550.9199829101562,-0.13958612084388733
1729690914.2710004,1845,1729690914,270154106,,0.7377732396125793,0.7303206324577332,128,0.20999999344348907,550.8900146484375,-0.10459795594215393
1729690914.3743978,1846,1729690914,373237180,,0.4018283188343048,0.39027664065361023,127,0.20999999344348907,550.8599853515625,-0.09565640240907669
1729690914.4697247,1847,1729690914,467557273,,0.16954973340034485,0.16233113408088684,127,0.20999999344348907,550.8399658203125,-0.048945989459753036
1729690914.5716496,1848,1729690914,569841773,,0.3895711302757263,0.3894968032836914,126,0.20999999344348907,550.8200073242188,-0.007611560169607401
1729690914.669216,1849,1729690914,668251680,,0.7123250961303711,0.712212324142456,126,0.2199999988079071,550.7999877929688,-0.01267195027321577
1729690914.7711086,1850,1729690914,770251939,,1.0455163717269897,1.0453709363937378,127,0.23999999463558197,550.7799682617188,-0.017446624115109444
1729690914.8683996,1851,1729690914,867282810,,1.339865803718567,1.3392292261123657,128,0.2199999988079071,550.760009765625,0.04130089282989502
1729690914.9733734,1852,1729690914,972285439,,1.6518653631210327,1.646537184715271,128,0.18000000715255737,550.760009765625,0.13256396353244781
1729690915.06846,1853,1729690915,67300587,,1.8869532346725464,1.8816616535186768,129,0.18000000715255737,550.760009765625,0.14121945202350616
1729690915.1682699,1854,1729690915,167376939,,2.122313976287842,2.1200976371765137,129,0.20999999344348907,550.7699584960938,0.09695672988891602
1729690915.2708888,1855,1729690915,269345180,,2.377944231033325,2.3773715496063232,129,0.23000000417232513,550.760009765625,0.05218948423862457
1729690915.3704543,1856,1729690915,369410643,,2.6592259407043457,2.6591532230377197,129,0.25,550.75,0.01969233527779579
1729690915.4693947,1857,1729690915,468405680,,2.9518861770629883,2.951632261276245,129,0.25,550.72998046875,0.03867686912417412
1729690915.569076,1858,1729690915,568456124,,3.2168095111846924,3.2158639430999756,129,0.23999999463558197,550.719970703125,0.07796058058738708
1729690915.669582,1859,1729690915,668386883,,3.420870304107666,3.4193274974823,129,0.23000000417232513,550.7000122070312,0.10272400826215744
1729690915.7769735,1860,1729690915,776346494,,3.535372734069824,3.5295662879943848,129,0.20999999344348907,550.6900024414062,0.20253629982471466
1729690915.8698254,1861,1729690915,868436327,,3.5779426097869873,3.566179037094116,128,0.1599999964237213,550.7000122070312,0.28990206122398376
1729690915.9680588,1862,1729690915,967465161,,3.527120351791382,3.513575792312622,126,0.1599999964237213,550.7099609375,0.3088124096393585
1729690916.0687532,1863,1729690916,67829327,,3.439600706100464,3.4273922443389893,125,0.1599999964237213,550.739990234375,0.28953811526298523
1729690916.169443,1864,1729690916,168455216,,3.335212230682373,3.3244736194610596,124,0.1599999964237213,550.760009765625,0.26742374897003174
1729690916.2684524,1865,1729690916,267565327,,3.2152881622314453,3.2078022956848145,124,0.1599999964237213,550.7799682617188,0.21926790475845337
1729690916.3705006,1866,1729690916,369497661,,3.1732254028320312,3.166001081466675,125,0.15000000596046448,550.7999877929688,0.2139950692653656
1729690916.4702473,1867,1729690916,469575994,,3.1757266521453857,3.1735119819641113,126,0.1599999964237213,550.8300170898438,0.11856930702924728
1729690916.571283,1868,1729690916,569594827,,3.210312604904175,3.2103123664855957,127,0.2199999988079071,550.8399658203125,0.0014748480170965195
1729690916.6696365,1869,1729690916,668600049,,3.2473340034484863,3.2471871376037598,128,0.23999999463558197,550.8399658203125,-0.0308513306081295
1729690916.7744238,1870,1729690916,773545864,,3.3453121185302734,3.3445303440093994,128,0.17000000178813934,550.8399658203125,0.07228685170412064
1729690916.869551,1871,1729690916,868564308,,3.3224434852600098,3.321120262145996,128,0.15000000596046448,550.8499755859375,0.09371184557676315
1729690916.9855576,1872,1729690916,973616549,,3.292377233505249,3.2914083003997803,128,0.1599999964237213,550.8599853515625,0.07984988391399384
1729690917.0732903,1873,1729690917,72692605,,3.230320930480957,3.229443073272705,127,0.1599999964237213,550.8699951171875,0.07530558854341507
1729690917.1730335,1874,1729690917,172637993,,3.1511342525482178,3.1501963138580322,127,0.15000000596046448,550.8900146484375,0.07685187458992004
1729690917.2702587,1875,1729690917,269705549,,3.0784764289855957,3.078207015991211,126,0.1599999964237213,550.8999633789062,0.04064612090587616
1729690917.368127,1876,1729690917,367641030,,3.011251449584961,3.0112500190734863,125,0.17000000178813934,550.8999633789062,0.0019115051254630089
1729690917.468231,1877,1729690917,467616623,,2.9349522590637207,2.9347829818725586,125,0.1899999976158142,550.8999633789062,-0.031413666903972626
1729690917.5763216,1878,1729690917,575611864,,2.866628885269165,2.8666257858276367,125,0.17000000178813934,550.8999633789062,-0.003641705960035324
1729690917.6698704,1879,1729690917,668642067,,2.7986979484558105,2.7986950874328613,125,0.17000000178813934,550.8999633789062,0.003480796702206135
1729690917.7781956,1880,1729690917,775715512,,2.7638142108917236,2.7637598514556885,125,0.1599999964237213,550.8999633789062,0.01716507598757744
1729690917.8707192,1881,1729690917,869618863,,2.7239017486572266,2.723848342895508,126,0.1599999964237213,550.8999633789062,0.01710028573870659
1729690917.968692,1882,1729690917,967704474,,2.7279021739959717,2.7278857231140137,127,0.17000000178813934,550.9099731445312,-0.009460624307394028
1729690918.081222,1883,1729690918,67718178,,2.7285728454589844,2.7283663749694824,127,0.1899999976158142,550.8999633789062,-0.03359226509928703
1729690918.1734102,1884,1729690918,172802437,,2.685788154602051,2.685734987258911,127,0.17000000178813934,550.8999633789062,-0.016932688653469086
1729690918.26786,1885,1729690918,266809326,,2.581195831298828,2.581188678741455,127,0.17000000178813934,550.8900146484375,0.005892048589885235
1729690918.3705263,1886,1729690918,369683993,,2.372948408126831,2.3727967739105225,126,0.15000000596046448,550.8900146484375,0.026818133890628815
1729690918.4676092,1887,1729690918,466761844,,2.1000256538391113,2.0975725650787354,124,0.14000000059604645,550.8999633789062,0.10148240625858307
1729690918.5689306,1888,1729690918,567796011,,1.7932889461517334,1.7923681735992432,122,0.14000000059604645,550.9199829101562,0.0574345625936985
1729690918.6693687,1889,1729690918,667276604,,1.4651250839233398,1.4638845920562744,121,0.14000000059604645,550.9400024414062,0.060272786766290665
1729690918.771911,1890,1729690918,770193289,,1.1635899543762207,1.1622893810272217,121,0.14000000059604645,550.969970703125,0.054996415972709656
1729690918.875101,1891,1729690918,872908474,,0.8616264462471008,0.8616216778755188,121,0.14000000059604645,551.010009765625,0.002840905450284481
1729690918.9698172,1892,1729690918,968847918,,0.5936096906661987,0.5875082015991211,122,0.1599999964237213,551.0499877929688,-0.08489115536212921
1729690919.0728638,1893,1729690919,71827326,,0.3448827862739563,0.3165162205696106,123,0.1599999964237213,551.0700073242188,-0.1369730830192566
1729690919.1676755,1894,1729690919,166857344,,0.26752960681915283,0.22918570041656494,124,0.1599999964237213,551.0899658203125,-0.1380072981119156
1729690919.2677877,1895,1729690919,266865437,,0.4383109211921692,0.40730470418930054,125,0.15000000596046448,551.0999755859375,-0.16192370653152466
1729690919.3698435,1896,1729690919,368898788,,0.7146779298782349,0.686293363571167,127,0.1599999964237213,551.1099853515625,-0.19941294193267822
1729690919.4699733,1897,1729690919,468938288,,0.995985209941864,0.9713005423545837,128,0.17000000178813934,551.0999755859375,-0.22036586701869965
1729690919.5719543,1898,1729690919,571010566,,1.2872313261032104,1.2706494331359863,129,0.17000000178813934,551.0899658203125,-0.20594410598278046
1729690919.668903,1899,1729690919,667958418,,1.5553083419799805,1.5393089056015015,129,0.18000000715255737,551.0700073242188,-0.22251269221305847
1729690919.7686806,1900,1729690919,768100381,,1.8417853116989136,1.8250479698181152,129,0.1899999976158142,551.0499877929688,-0.24773289263248444
1729690919.8688643,1901,1729690919,867986362,,2.113334894180298,2.1010165214538574,128,0.18000000715255737,551.0299682617188,-0.22783924639225006
1729690919.96896,1902,1729690919,968014658,,2.3689076900482178,2.3605830669403076,127,0.18000000715255737,551.0,-0.1984151005744934
1729690920.0896704,1903,1729690920,68065510,,2.6186976432800293,2.6135058403015137,126,0.1899999976158142,550.969970703125,-0.16481590270996094
1729690920.1679704,1904,1729690920,167012103,,2.845118761062622,2.8412322998046875,126,0.18000000715255737,550.9400024414062,-0.14865484833717346
1729690920.2709258,1905,1729690920,269995621,,3.068269729614258,3.0654053688049316,125,0.1899999976158142,550.9199829101562,-0.13254474103450775
1729690920.371246,1906,1729690920,370098510,,3.2866201400756836,3.2848904132843018,125,0.1899999976158142,550.8900146484375,-0.10658885538578033
1729690920.4677818,1907,1729690920,467095121,,3.4830923080444336,3.4822585582733154,125,0.1899999976158142,550.8699951171875,-0.07618667930364609
1729690920.5726614,1908,1729690920,571160547,,3.6951217651367188,3.6948494911193848,125,0.18000000715255737,550.8599853515625,-0.04489448666572571
1729690920.6711643,1909,1729690920,670101195,,3.8606760501861572,3.8606014251708984,126,0.17000000178813934,550.8499755859375,0.02388060837984085
1729690920.7697408,1910,1729690920,769070325,,3.8932955265045166,3.892892360687256,126,0.1599999964237213,550.8399658203125,0.056051526218652725
1729690920.8700972,1911,1729690920,869127547,,3.9406728744506836,3.9405875205993652,125,0.1899999976158142,550.8399658203125,0.025913916528224945
1729690920.9701152,1912,1729690920,969151899,,3.880417823791504,3.8800837993621826,125,0.18000000715255737,550.8499755859375,0.05083862319588661
1729690921.0678673,1913,1729690921,67126047,,3.8227503299713135,3.822540283203125,124,0.17000000178813934,550.8599853515625,0.040124695748090744
1729690921.1762638,1914,1729690921,175146361,,3.7307960987091064,3.730381488800049,124,0.17000000178813934,550.8699951171875,0.055569618940353394
1729690921.276131,1915,1729690921,275273232,,3.693296432495117,3.693185806274414,124,0.17000000178813934,550.8699951171875,0.028432488441467285
1729690921.3752813,1916,1729690921,374184898,,3.660097599029541,3.6600918769836426,124,0.18000000715255737,550.8699951171875,-0.006362948566675186
1729690921.4692826,1917,1729690921,468205639,,3.6145617961883545,3.614426374435425,124,0.17000000178813934,550.8699951171875,0.031213946640491486
1729690921.5691981,1918,1729690921,568216991,,3.5970232486724854,3.5969691276550293,124,0.1599999964237213,550.8699951171875,0.01960647851228714
1729690921.669513,1919,1729690921,668330046,,3.560457706451416,3.5598835945129395,124,0.1599999964237213,550.8800048828125,0.06389188021421432
1729690921.7694123,1920,1729690921,768278509,,3.507019519805908,3.506667137145996,125,0.17000000178813934,550.8800048828125,0.04967167600989342
1729690921.8691216,1921,1729690921,868263342,,3.479011297225952,3.478943347930908,125,0.17000000178813934,550.8900146484375,0.021834544837474823
1729690921.974283,1922,1729690921,973284083,,3.4304606914520264,3.4304473400115967,125,0.17000000178813934,550.8800048828125,0.009677048772573471
1729690922.0693674,1923,1729690922,68337990,,3.365939140319824,3.365853786468506,126,0.1599999964237213,550.8900146484375,0.02388051338493824
1729690922.1682792,1924,1729690922,167301509,,3.299212694168091,3.299136161804199,126,0.1599999964237213,550.8800048828125,0.022510219365358353
1729690922.2685292,1925,1729690922,267329805,,3.1866843700408936,3.186630964279175,126,0.18000000715255737,550.8800048828125,-0.018460437655448914
1729690922.368089,1926,1729690922,367307805,,3.063530683517456,3.063419818878174,126,0.1899999976158142,550.8699951171875,-0.025961901992559433
1729690922.4682348,1927,1729690922,467409509,,2.9521446228027344,2.9518775939941406,125,0.20000000298023224,550.8499755859375,-0.039659444242715836
1729690922.5692122,1928,1729690922,567445675,,2.8490049839019775,2.848886489868164,125,0.20000000298023224,550.8499755859375,-0.025868002325296402
1729690922.6716838,1929,1729690922,670418583,,2.7764651775360107,2.7764413356781006,125,0.20000000298023224,550.8399658203125,0.011524321511387825
1729690922.768288,1930,1729690922,767443638,,2.7273623943328857,2.7273619174957275,125,0.20000000298023224,550.8399658203125,-0.00012825336307287216
1729690922.868236,1931,1729690922,867463008,,2.7004659175872803,2.700406312942505,124,0.20000000298023224,550.8300170898438,0.01802673377096653
1729690922.969579,1932,1729690922,968412545,,2.679330348968506,2.678658962249756,124,0.1899999976158142,550.8300170898438,0.059952616691589355
1729690923.0682275,1933,1729690923,67549879,,2.643760919570923,2.643078565597534,124,0.1899999976158142,550.8399658203125,0.0600203201174736
1729690923.170742,1934,1729690923,169591268,,2.593022346496582,2.5922367572784424,124,0.18000000715255737,550.8399658203125,0.063802570104599
1729690923.2683313,1935,1729690923,267516416,,2.458488941192627,2.457202434539795,124,0.17000000178813934,550.8499755859375,0.07951177656650543
1729690923.370176,1936,1729690923,369430323,,2.2528815269470215,2.2526419162750244,125,0.1899999976158142,550.8599853515625,0.03278159350156784
1729690923.4694335,1937,1729690923,468431619,,2.028017997741699,2.027911424636841,126,0.2199999988079071,550.8599853515625,-0.020780004560947418
1729690923.5676334,1938,1729690923,566489990,,1.758756399154663,1.7587443590164185,128,0.20999999344348907,550.8699951171875,-0.006534698884934187
1729690923.6704762,1939,1729690923,669556490,,1.5398569107055664,1.5392169952392578,129,0.1899999976158142,550.8699951171875,0.04438631981611252
1729690923.7673109,1940,1729690923,766512008,,1.3896498680114746,1.388504981994629,129,0.17000000178813934,550.8800048828125,0.05639587342739105
1729690923.8723588,1941,1729690923,871482212,,1.3106179237365723,1.3104969263076782,129,0.18000000715255737,550.8999633789062,0.01776977628469467
1729690923.9714568,1942,1729690923,970624193,,1.2083563804626465,1.208024263381958,128,0.18000000715255737,550.9099731445312,0.028334472328424454
1729690924.0685544,1943,1729690924,67652804,,1.1316673755645752,1.1313462257385254,128,0.20000000298023224,550.9199829101562,-0.0269419327378273
1729690924.1715605,1944,1729690924,170684082,,1.0625768899917603,1.0586879253387451,129,0.23000000417232513,550.9099731445312,-0.0908232033252716
1729690924.2683778,1945,1729690924,267575378,,1.02084219455719,1.0172492265701294,129,0.2199999988079071,550.9099731445312,-0.08557049930095673
1729690924.368593,1946,1729690924,367706137,,1.0683224201202393,1.0676734447479248,129,0.20999999344348907,550.9099731445312,-0.03722713887691498
1729690924.4673967,1947,1729690924,466634859,,1.1822543144226074,1.1819231510162354,129,0.20999999344348907,550.9099731445312,-0.027973711490631104
1729690924.5705917,1948,1729690924,569683211,,1.2900439500808716,1.289836049079895,129,0.20999999344348907,550.9099731445312,-0.023155685514211655
1729690924.6695452,1949,1729690924,668674619,,1.3839775323867798,1.383905053138733,127,0.18000000715255737,550.9199829101562,0.014137635007500648
1729690924.7758808,1950,1729690924,774698304,,1.4077122211456299,1.4074440002441406,126,0.17000000178813934,550.9199829101562,0.027474675327539444
1729690924.8724687,1951,1729690924,871638452,,1.4000468254089355,1.3999581336975098,125,0.17000000178813934,550.9199829101562,0.015756376087665558
1729690924.9717526,1952,1729690924,970714192,,1.4006779193878174,1.400463581085205,125,0.17000000178813934,550.9199829101562,0.02450006641447544
1729690925.0758224,1953,1729690925,74680341,,1.3769166469573975,1.3764231204986572,125,0.1599999964237213,550.9199829101562,0.036861710250377655
1729690925.175634,1954,1729690925,174834396,,1.332068920135498,1.3320221900939941,125,0.17000000178813934,550.9099731445312,0.01112886518239975
1729690925.2737365,1955,1729690925,272682581,,1.3112291097640991,1.3103156089782715,126,0.1599999964237213,550.9199829101562,0.048929955810308456
1729690925.3699548,1956,1729690925,368678988,,1.1805227994918823,1.18032968044281,126,0.1599999964237213,550.9299926757812,0.021366897970438004
1729690925.4676414,1957,1729690925,466824970,,1.0573631525039673,1.0566132068634033,127,0.18000000715255737,550.9199829101562,-0.03980853036046028
1729690925.5699909,1958,1729690925,568745618,,0.8993931412696838,0.8975363969802856,126,0.1899999976158142,550.9099731445312,-0.05776049196720123
1729690925.667809,1959,1729690925,666780581,,0.8027561902999878,0.8021740913391113,126,0.1899999976158142,550.9099731445312,-0.03055899776518345
1729690925.7688725,1960,1729690925,767803007,,0.7663832306861877,0.7663140892982483,126,0.17000000178813934,550.9099731445312,-0.010289039462804794
1729690925.867969,1961,1729690925,866917433,,0.7855082750320435,0.7852373719215393,126,0.17000000178813934,550.9199829101562,-0.020628547295928
1729690925.9683874,1962,1729690925,967813951,,0.7742239832878113,0.7742120623588562,126,0.17000000178813934,550.9299926757812,-0.004294157959520817
1729690926.068041,1963,1729690926,66931933,,0.7713219523429871,0.7712991833686829,126,0.17000000178813934,550.9299926757812,-0.00593815790489316
1729690926.1675277,1964,1729690926,166856155,,0.7471768856048584,0.7469430565834045,126,0.17000000178813934,550.9199829101562,-0.01869169808924198
1729690926.26736,1965,1729690926,266875136,,0.7511805891990662,0.7511351704597473,126,0.17000000178813934,550.9199829101562,-0.00826786644756794
1729690926.3706303,1966,1729690926,369930377,,0.7461209297180176,0.7460375428199768,126,0.17000000178813934,550.9099731445312,-0.011148011311888695
1729690926.4674644,1967,1729690926,466968729,,0.7213598489761353,0.721354603767395,125,0.17000000178813934,550.9099731445312,0.002746341750025749
1729690926.569708,1968,1729690926,568914432,,0.702735185623169,0.7024468183517456,125,0.17000000178813934,550.9199829101562,-0.020123496651649475
1729690926.669724,1969,1729690926,669042006,,0.6834540367126465,0.6818588972091675,125,0.17000000178813934,550.9199829101562,-0.04666665568947792
1729690926.7696872,1970,1729690926,769005358,,0.6512109041213989,0.6507389545440674,125,0.17000000178813934,550.9299926757812,-0.024787694215774536
1729690926.869413,1971,1729690926,868939339,,0.6186426281929016,0.6186262369155884,126,0.1599999964237213,550.9500122070312,0.004503993317484856
1729690926.969788,1972,1729690926,968980191,,0.5816798806190491,0.5815747976303101,126,0.15000000596046448,550.9599609375,0.011045479215681553
1729690927.069759,1973,1729690927,68981525,,0.5186215043067932,0.5182374119758606,126,0.1599999964237213,550.969970703125,-0.019955657422542572
1729690927.1698136,1974,1729690927,169005599,,0.46093276143074036,0.4534863531589508,126,0.17000000178813934,550.97998046875,-0.08251704275608063
1729690927.2687466,1975,1729690927,268017561,,0.4233076274394989,0.41174986958503723,125,0.17000000178813934,550.97998046875,-0.09824101626873016
1729690927.371801,1976,1729690927,371095210,,0.40233153104782104,0.39131104946136475,124,0.17000000178813934,550.97998046875,-0.09352138638496399
1729690927.4687483,1977,1729690927,468054598,,0.42559918761253357,0.4059867858886719,124,0.18000000715255737,550.969970703125,-0.1277083158493042
1729690927.5688474,1978,1729690927,568124765,,0.504652738571167,0.4959297776222229,125,0.18000000715255737,550.9599609375,-0.09342397749423981
1729690927.6678977,1979,1729690927,667092969,,0.6666973233222961,0.6644183397293091,124,0.17000000178813934,550.9500122070312,-0.05507713928818703
1729690927.7688744,1980,1729690927,768133154,,0.8668146729469299,0.8654518127441406,124,0.17000000178813934,550.9400024414062,-0.048589032143354416
1729690927.868808,1981,1729690927,868113672,,0.9884146451950073,0.9869033694267273,124,0.17000000178813934,550.9400024414062,-0.05463885888457298
1729690927.9687927,1982,1729690927,968126857,,1.0518046617507935,1.0493618249893188,124,0.17000000178813934,550.9299926757812,-0.07164180278778076
1729690928.0689743,1983,1729690928,68141468,,1.0380597114562988,1.037530541419983,123,0.17000000178813934,550.9199829101562,-0.03313027322292328
1729690928.1709793,1984,1729690928,170234376,,0.9981163740158081,0.9963340759277344,123,0.17000000178813934,550.9199829101562,-0.059623219072818756
1729690928.2677128,1985,1729690928,267133561,,0.9156491160392761,0.9143253564834595,123,0.17000000178813934,550.9199829101562,-0.049216315150260925
1729690928.3678663,1986,1729690928,367171357,,0.8622998595237732,0.861864447593689,123,0.15000000596046448,550.9400024414062,0.027393650263547897
1729690928.4677203,1987,1729690928,467136394,,0.8079768419265747,0.8079736232757568,123,0.15000000596046448,550.9599609375,-0.002281932160258293
1729690928.574055,1988,1729690928,573177450,,0.7838525176048279,0.783685564994812,124,0.15000000596046448,550.969970703125,0.016161132603883743
1729690928.6680694,1989,1729690928,667287487,,0.7540580630302429,0.7523600459098816,125,0.15000000596046448,550.97998046875,-0.05057479068636894
1729690928.7763643,1990,1729690928,775327135,,0.7474002242088318,0.7468836307525635,126,0.15000000596046448,551.0,-0.027780666947364807
1729690928.875234,1991,1729690928,874332560,,0.7205173373222351,0.7200273275375366,126,0.14000000059604645,551.0199584960938,-0.026568733155727386
1729690928.975505,1992,1729690928,974324783,,0.6983718276023865,0.6933360695838928,126,0.15000000596046448,551.0399780273438,-0.08371489495038986
1729690929.0749493,1993,1729690929,74229338,,0.6637334823608398,0.6572195291519165,127,0.15000000596046448,551.0599975585938,-0.09276146441698074
1729690929.1738012,1994,1729690929,173231597,,0.6050610542297363,0.5932274460792542,126,0.14000000059604645,551.0800170898438,-0.11907980591058731
1729690929.2678015,1995,1729690929,266318208,,0.5643960237503052,0.5420006513595581,126,0.14000000059604645,551.0899658203125,-0.15741059184074402
1729690929.367216,1996,1729690929,366326412,,0.5184370279312134,0.486150860786438,126,0.1599999964237213,551.0999755859375,-0.18009474873542786
1729690929.468736,1997,1729690929,468328597,,0.49123916029930115,0.4428994953632355,125,0.1599999964237213,551.0999755859375,-0.21249893307685852
1729690929.567215,1998,1729690929,566357819,,0.449792742729187,0.39781755208969116,125,0.1599999964237213,551.0999755859375,-0.20989185571670532
1729690929.6699977,1999,1729690929,669413171,,0.44560790061950684,0.37502849102020264,125,0.17000000178813934,551.0899658203125,-0.24066570401191711
1729690929.7722495,2000,1729690929,771328023,,0.40332654118537903,0.3334876596927643,125,0.17000000178813934,551.0899658203125,-0.2268441617488861
1729690929.8694577,2001,1729690929,868416875,,0.4062557816505432,0.32626622915267944,125,0.17000000178813934,551.0800170898438,-0.2420620620250702
1729690929.9694622,2002,1729690929,968385819,,0.3598864674568176,0.28927645087242126,125,0.17000000178813934,551.0800170898438,-0.21409673988819122
1729690930.0694072,2003,1729690930,68383115,,0.3379371762275696,0.28153684735298157,125,0.17000000178813934,551.0700073242188,-0.18691834807395935
1729690930.1743183,2004,1729690930,173388078,,0.3108667731285095,0.2667461335659027,124,0.1599999964237213,551.0700073242188,-0.15963898599147797
1729690930.2693286,2005,1729690930,268472245,,0.2893753945827484,0.2527094781398773,125,0.15000000596046448,551.0700073242188,-0.14098231494426727
