Time,header.seq,header.stamp.secs,header.stamp.nsecs,header.frame_id,magnetic_field.x,magnetic_field.y,magnetic_field.z,magnetic_field_covariance_0,magnetic_field_covariance_1,magnetic_field_covariance_2,magnetic_field_covariance_3,magnetic_field_covariance_4,magnetic_field_covariance_5,magnetic_field_covariance_6,magnetic_field_covariance_7,magnetic_field_covariance_8
1729690889.2925267,1595,1729690889,172652256,base_link,-200000.0,241999.99999999997,-292000.00000000006,-1.0,0.0,0.0,0.0,0.0,0.0,0.0,0.0,0.0
1729690889.2927601,1596,1729690889,272621416,base_link,-191000.0,212999.99999999997,-281000.0,-1.0,0.0,0.0,0.0,0.0,0.0,0.0,0.0,0.0
1729690889.3723838,1597,1729690889,371077832,base_link,-186000.0,206999.99999999997,-272000.0,-1.0,0.0,0.0,0.0,0.0,0.0,0.0,0.0,0.0
1729690889.4727626,1598,1729690889,471096920,base_link,-213000.0,220999.99999999997,-278000.0,-1.0,0.0,0.0,0.0,0.0,0.0,0.0,0.0,0.0
1729690889.572017,1599,1729690889,571054080,base_link,-197000.0,197999.99999999997,-279000.0,-1.0,0.0,0.0,0.0,0.0,0.0,0.0,0.0,0.0
1729690889.6727347,1600,1729690889,671061704,base_link,-192000.0,200999.99999999997,-280000.0,-1.0,0.0,0.0,0.0,0.0,0.0,0.0,0.0,0.0
1729690889.7703865,1601,1729690889,768788352,base_link,-210000.0,200999.99999999997,-282000.0,-1.0,0.0,0.0,0.0,0.0,0.0,0.0,0.0,0.0
1729690889.873683,1602,1729690889,871159976,base_link,-197000.0,214999.99999999997,-265000.0,-1.0,0.0,0.0,0.0,0.0,0.0,0.0,0.0,0.0
1729690889.9742994,1603,1729690889,969250856,base_link,-211000.0,205999.99999999997,-270000.0,-1.0,0.0,0.0,0.0,0.0,0.0,0.0,0.0,0.0
1729690890.0729194,1604,1729690890,71024992,base_link,-181000.0,204999.99999999997,-283000.0,-1.0,0.0,0.0,0.0,0.0,0.0,0.0,0.0,0.0
1729690890.1731417,1605,1729690890,171520872,base_link,-191000.0,201999.99999999997,-280000.0,-1.0,0.0,0.0,0.0,0.0,0.0,0.0,0.0,0.0
1729690890.2731082,1606,1729690890,271564752,base_link,-202000.0,204999.99999999997,-277000.0,-1.0,0.0,0.0,0.0,0.0,0.0,0.0,0.0,0.0
1729690890.3726926,1607,1729690890,371652096,base_link,-222000.0,212999.99999999997,-288000.0,-1.0,0.0,0.0,0.0,0.0,0.0,0.0,0.0,0.0
1729690890.4738986,1608,1729690890,472052976,base_link,-182000.0,216999.99999999997,-278000.0,-1.0,0.0,0.0,0.0,0.0,0.0,0.0,0.0,0.0
1729690890.57411,1609,1729690890,572127784,base_link,-192000.0,203999.99999999997,-272000.0,-1.0,0.0,0.0,0.0,0.0,0.0,0.0,0.0,0.0
1729690890.6733105,1610,1729690890,672339200,base_link,-182000.0,204999.99999999997,-262000.00000000003,-1.0,0.0,0.0,0.0,0.0,0.0,0.0,0.0,0.0
1729690890.7733371,1611,1729690890,772398616,base_link,-218000.0,218999.99999999997,-269000.0,-1.0,0.0,0.0,0.0,0.0,0.0,0.0,0.0,0.0
1729690890.8735273,1612,1729690890,872844032,base_link,-221000.0,216999.99999999997,-269000.0,-1.0,0.0,0.0,0.0,0.0,0.0,0.0,0.0,0.0
1729690890.9733663,1613,1729690890,972954424,base_link,-187000.0,189999.99999999997,-265000.0,-1.0,0.0,0.0,0.0,0.0,0.0,0.0,0.0,0.0
1729690891.0738628,1614,1729690891,72586816,base_link,-234000.0,226999.99999999997,-291000.0,-1.0,0.0,0.0,0.0,0.0,0.0,0.0,0.0,0.0
1729690891.1721504,1615,1729690891,170942488,base_link,-202000.0,207999.99999999997,-266000.0,-1.0,0.0,0.0,0.0,0.0,0.0,0.0,0.0,0.0
1729690891.2730222,1616,1729690891,270985064,base_link,-199000.0,198999.99999999997,-290000.0,-1.0,0.0,0.0,0.0,0.0,0.0,0.0,0.0,0.0
1729690891.372928,1617,1729690891,371528384,base_link,-209000.0,213999.99999999997,-288000.0,-1.0,0.0,0.0,0.0,0.0,0.0,0.0,0.0,0.0
1729690891.4727201,1618,1729690891,471258032,base_link,-204000.0,219999.99999999997,-277000.0,-1.0,0.0,0.0,0.0,0.0,0.0,0.0,0.0,0.0
1729690891.5725474,1619,1729690891,571568168,base_link,-205000.0,231999.99999999997,-279000.0,-1.0,0.0,0.0,0.0,0.0,0.0,0.0,0.0,0.0
1729690891.6726618,1620,1729690891,671496888,base_link,-192000.0,222999.99999999997,-268000.0,-1.0,0.0,0.0,0.0,0.0,0.0,0.0,0.0,0.0
1729690891.7756708,1621,1729690891,774633000,base_link,-192000.0,224999.99999999997,-271000.0,-1.0,0.0,0.0,0.0,0.0,0.0,0.0,0.0,0.0
1729690891.872816,1622,1729690891,871972112,base_link,-186000.0,220999.99999999997,-289000.0,-1.0,0.0,0.0,0.0,0.0,0.0,0.0,0.0,0.0
1729690891.9721649,1623,1729690891,970442296,base_link,-186000.0,223999.99999999997,-286000.0,-1.0,0.0,0.0,0.0,0.0,0.0,0.0,0.0,0.0
1729690892.07155,1624,1729690892,70151944,base_link,-196000.0,228999.99999999997,-303000.0,-1.0,0.0,0.0,0.0,0.0,0.0,0.0,0.0,0.0
1729690892.1716897,1625,1729690892,168058640,base_link,-176000.0,226999.99999999997,-289000.0,-1.0,0.0,0.0,0.0,0.0,0.0,0.0,0.0,0.0
1729690892.2720942,1626,1729690892,270531240,base_link,-171000.0,221999.99999999997,-295000.0,-1.0,0.0,0.0,0.0,0.0,0.0,0.0,0.0,0.0
1729690892.3722641,1627,1729690892,371006168,base_link,-157000.0,210999.99999999997,-292000.0,-1.0,0.0,0.0,0.0,0.0,0.0,0.0,0.0,0.0
1729690892.4729621,1628,1729690892,471194560,base_link,-170000.0,205999.99999999997,-296000.0,-1.0,0.0,0.0,0.0,0.0,0.0,0.0,0.0,0.0
1729690892.572326,1629,1729690892,570976208,base_link,-164000.0,202999.99999999997,-296000.0,-1.0,0.0,0.0,0.0,0.0,0.0,0.0,0.0,0.0
1729690892.6725533,1630,1729690892,671350064,base_link,-190000.0,211999.99999999997,-310000.0,-1.0,0.0,0.0,0.0,0.0,0.0,0.0,0.0,0.0
1729690892.7735875,1631,1729690892,771865456,base_link,-195000.0,232999.99999999997,-291000.0,-1.0,0.0,0.0,0.0,0.0,0.0,0.0,0.0,0.0
1729690892.8726609,1632,1729690892,871964384,base_link,-191000.0,241999.99999999997,-284000.00000000006,-1.0,0.0,0.0,0.0,0.0,0.0,0.0,0.0,0.0
1729690892.9757447,1633,1729690892,972324384,base_link,-189000.0,244999.99999999997,-291000.00000000006,-1.0,0.0,0.0,0.0,0.0,0.0,0.0,0.0,0.0
1729690893.07575,1634,1729690893,72439216,base_link,-174000.0,231999.99999999997,-299000.0,-1.0,0.0,0.0,0.0,0.0,0.0,0.0,0.0,0.0
1729690893.1740415,1635,1729690893,172487584,base_link,-172000.0,232999.99999999997,-304000.0,-1.0,0.0,0.0,0.0,0.0,0.0,0.0,0.0,0.0
1729690893.2759438,1636,1729690893,273148000,base_link,-172000.0,234999.99999999997,-298000.0,-1.0,0.0,0.0,0.0,0.0,0.0,0.0,0.0,0.0
1729690893.3757854,1637,1729690893,370842576,base_link,-171000.0,228999.99999999997,-309000.0,-1.0,0.0,0.0,0.0,0.0,0.0,0.0,0.0,0.0
1729690893.4744565,1638,1729690893,470860992,base_link,-184000.0,234999.99999999997,-276000.0,-1.0,0.0,0.0,0.0,0.0,0.0,0.0,0.0,0.0
1729690893.5746865,1639,1729690893,570922800,base_link,-181000.0,238999.99999999997,-277000.00000000006,-1.0,0.0,0.0,0.0,0.0,0.0,0.0,0.0,0.0
1729690893.6744485,1640,1729690893,671328608,base_link,-184000.0,251999.99999999997,-291000.00000000006,-1.0,0.0,0.0,0.0,0.0,0.0,0.0,0.0,0.0
1729690893.7758012,1641,1729690893,772054904,base_link,-187000.0,247999.99999999997,-287000.00000000006,-1.0,0.0,0.0,0.0,0.0,0.0,0.0,0.0,0.0
1729690893.8754213,1642,1729690893,872300968,base_link,-193000.0,249999.99999999997,-274000.00000000006,-1.0,0.0,0.0,0.0,0.0,0.0,0.0,0.0,0.0
1729690893.9772756,1643,1729690893,973074776,base_link,-200000.0,252999.99999999997,-280000.00000000006,-1.0,0.0,0.0,0.0,0.0,0.0,0.0,0.0,0.0
1729690894.0749006,1644,1729690894,73719840,base_link,-210000.0,268999.99999999994,-288000.00000000006,-1.0,0.0,0.0,0.0,0.0,0.0,0.0,0.0,0.0
1729690894.17298,1645,1729690894,171484536,base_link,-193000.0,256999.99999999997,-281000.00000000006,-1.0,0.0,0.0,0.0,0.0,0.0,0.0,0.0,0.0
1729690894.2735658,1646,1729690894,272334208,base_link,-190000.0,243999.99999999997,-299000.00000000006,-1.0,0.0,0.0,0.0,0.0,0.0,0.0,0.0,0.0
1729690894.3773816,1647,1729690894,376283736,base_link,-196000.0,255999.99999999997,-280000.00000000006,-1.0,0.0,0.0,0.0,0.0,0.0,0.0,0.0,0.0
1729690894.4728892,1648,1729690894,472295736,base_link,-196000.0,255999.99999999997,-280000.00000000006,-1.0,0.0,0.0,0.0,0.0,0.0,0.0,0.0,0.0
1729690894.5727675,1649,1729690894,571643920,base_link,-194000.0,259999.99999999997,-254000.00000000003,-1.0,0.0,0.0,0.0,0.0,0.0,0.0,0.0,0.0
1729690894.671337,1650,1729690894,670270128,base_link,-197000.0,279000.0,-233000.00000000003,-1.0,0.0,0.0,0.0,0.0,0.0,0.0,0.0,0.0
1729690894.7735753,1651,1729690894,771714056,base_link,-188000.0,285999.99999999994,-276000.00000000006,-1.0,0.0,0.0,0.0,0.0,0.0,0.0,0.0,0.0
1729690894.8735528,1652,1729690894,872340728,base_link,-174000.0,308999.99999999994,-285000.00000000006,-1.0,0.0,0.0,0.0,0.0,0.0,0.0,0.0,0.0
1729690894.9736574,1653,1729690894,971770216,base_link,-161000.0,342999.99999999994,-291000.00000000006,-1.0,0.0,0.0,0.0,0.0,0.0,0.0,0.0,0.0
1729690895.0747776,1654,1729690895,72737632,base_link,-161000.0,375999.99999999994,-305000.00000000006,-1.0,0.0,0.0,0.0,0.0,0.0,0.0,0.0,0.0
1729690895.174146,1655,1729690895,173466024,base_link,-155000.0,378999.99999999994,-304000.00000000006,-1.0,0.0,0.0,0.0,0.0,0.0,0.0,0.0,0.0
1729690895.2765694,1656,1729690895,274868856,base_link,-140000.0,387999.99999999994,-296000.00000000006,-1.0,0.0,0.0,0.0,0.0,0.0,0.0,0.0,0.0
1729690895.3760662,1657,1729690895,374129856,base_link,-179000.0,401999.99999999994,-306000.00000000006,-1.0,0.0,0.0,0.0,0.0,0.0,0.0,0.0,0.0
1729690895.4713826,1658,1729690895,470093224,base_link,-143000.0,385999.99999999994,-271000.00000000006,-1.0,0.0,0.0,0.0,0.0,0.0,0.0,0.0,0.0
1729690895.570382,1659,1729690895,569867360,base_link,-151000.0,387999.99999999994,-295000.00000000006,-1.0,0.0,0.0,0.0,0.0,0.0,0.0,0.0,0.0
1729690895.671462,1660,1729690895,670768680,base_link,-133000.0,392999.99999999994,-272000.00000000006,-1.0,0.0,0.0,0.0,0.0,0.0,0.0,0.0,0.0
1729690895.7732773,1661,1729690895,772099560,base_link,-129000.0,382999.99999999994,-296000.00000000006,-1.0,0.0,0.0,0.0,0.0,0.0,0.0,0.0,0.0
1729690895.871255,1662,1729690895,870401256,base_link,-116000.0,372999.99999999994,-303000.00000000006,-1.0,0.0,0.0,0.0,0.0,0.0,0.0,0.0,0.0
1729690895.970193,1663,1729690895,969630648,base_link,-122000.0,385999.99999999994,-299000.00000000006,-1.0,0.0,0.0,0.0,0.0,0.0,0.0,0.0,0.0
1729690896.0709436,1664,1729690896,69580088,base_link,-107000.0,389999.99999999994,-295000.00000000006,-1.0,0.0,0.0,0.0,0.0,0.0,0.0,0.0,0.0
1729690896.1739235,1665,1729690896,172228296,base_link,-129000.0,408999.99999999994,-300000.00000000006,-1.0,0.0,0.0,0.0,0.0,0.0,0.0,0.0,0.0
1729690896.273784,1666,1729690896,272228224,base_link,-103000.0,391999.99999999994,-318000.00000000006,-1.0,0.0,0.0,0.0,0.0,0.0,0.0,0.0,0.0
1729690896.3733108,1667,1729690896,372078896,base_link,-100000.0,371999.99999999994,-302000.00000000006,-1.0,0.0,0.0,0.0,0.0,0.0,0.0,0.0,0.0
1729690896.4726999,1668,1729690896,471599360,base_link,-95000.0,370999.99999999994,-327000.00000000006,-1.0,0.0,0.0,0.0,0.0,0.0,0.0,0.0,0.0
1729690896.5735538,1669,1729690896,572276472,base_link,-96000.0,365999.99999999994,-327000.00000000006,-1.0,0.0,0.0,0.0,0.0,0.0,0.0,0.0,0.0
1729690896.67262,1670,1729690896,671741168,base_link,-88000.0,373999.99999999994,-304000.00000000006,-1.0,0.0,0.0,0.0,0.0,0.0,0.0,0.0,0.0
1729690896.776703,1671,1729690896,774836208,base_link,-94000.0,383999.99999999994,-321000.00000000006,-1.0,0.0,0.0,0.0,0.0,0.0,0.0,0.0,0.0
1729690896.8743496,1672,1729690896,871798208,base_link,-95000.0,381999.99999999994,-326000.00000000006,-1.0,0.0,0.0,0.0,0.0,0.0,0.0,0.0,0.0
1729690896.9746149,1673,1729690896,973709296,base_link,-57000.0,372999.99999999994,-326000.00000000006,-1.0,0.0,0.0,0.0,0.0,0.0,0.0,0.0,0.0
1729690897.0795832,1674,1729690897,76313944,base_link,-50000.0,372999.99999999994,-323000.00000000006,-1.0,0.0,0.0,0.0,0.0,0.0,0.0,0.0,0.0
1729690897.1775475,1675,1729690897,176840944,base_link,-71000.0,388999.99999999994,-325000.00000000006,-1.0,0.0,0.0,0.0,0.0,0.0,0.0,0.0,0.0
1729690897.281022,1676,1729690897,279131256,base_link,-79000.0,389999.99999999994,-317000.00000000006,-1.0,0.0,0.0,0.0,0.0,0.0,0.0,0.0,0.0
1729690897.3807468,1677,1729690897,379235552,base_link,-61000.0,380999.99999999994,-322000.00000000006,-1.0,0.0,0.0,0.0,0.0,0.0,0.0,0.0,0.0
1729690897.4889545,1678,1729690897,479117568,base_link,-92000.0,387999.99999999994,-339000.00000000006,-1.0,0.0,0.0,0.0,0.0,0.0,0.0,0.0,0.0
1729690897.5837243,1679,1729690897,582150568,base_link,-93000.0,401999.99999999994,-314000.00000000006,-1.0,0.0,0.0,0.0,0.0,0.0,0.0,0.0,0.0
1729690897.6727915,1680,1729690897,671739568,base_link,-68000.0,391999.99999999994,-309000.00000000006,-1.0,0.0,0.0,0.0,0.0,0.0,0.0,0.0,0.0
1729690897.7726436,1681,1729690897,771989568,base_link,-77000.0,382999.99999999994,-294000.00000000006,-1.0,0.0,0.0,0.0,0.0,0.0,0.0,0.0,0.0
1729690897.8733473,1682,1729690897,871627496,base_link,-94000.0,392999.99999999994,-298000.00000000006,-1.0,0.0,0.0,0.0,0.0,0.0,0.0,0.0,0.0
1729690897.97276,1683,1729690897,971591864,base_link,-75000.0,400999.99999999994,-287000.00000000006,-1.0,0.0,0.0,0.0,0.0,0.0,0.0,0.0,0.0
1729690898.0729802,1684,1729690898,70908208,base_link,-88000.0,378999.99999999994,-300000.00000000006,-1.0,0.0,0.0,0.0,0.0,0.0,0.0,0.0,0.0
1729690898.1730678,1685,1729690898,171506808,base_link,-60000.0,376999.99999999994,-315000.00000000006,-1.0,0.0,0.0,0.0,0.0,0.0,0.0,0.0,0.0
1729690898.2726297,1686,1729690898,271122712,base_link,-103000.0,398999.99999999994,-310000.00000000006,-1.0,0.0,0.0,0.0,0.0,0.0,0.0,0.0,0.0
1729690898.372744,1687,1729690898,371649800,base_link,-100000.0,402999.99999999994,-300000.00000000006,-1.0,0.0,0.0,0.0,0.0,0.0,0.0,0.0,0.0
1729690898.4697533,1688,1729690898,468946888,base_link,-111000.0,380999.99999999994,-313000.00000000006,-1.0,0.0,0.0,0.0,0.0,0.0,0.0,0.0,0.0
1729690898.57473,1689,1729690898,573922976,base_link,-79000.0,388999.99999999994,-289000.00000000006,-1.0,0.0,0.0,0.0,0.0,0.0,0.0,0.0,0.0
1729690898.672438,1690,1729690898,671286856,base_link,-57000.0,377999.99999999994,-304000.00000000006,-1.0,0.0,0.0,0.0,0.0,0.0,0.0,0.0,0.0
1729690898.7778044,1691,1729690898,776700920,base_link,-80000.0,395999.99999999994,-299000.00000000006,-1.0,0.0,0.0,0.0,0.0,0.0,0.0,0.0,0.0
1729690898.8724527,1692,1729690898,871277920,base_link,-110000.0,411999.99999999994,-288000.00000000006,-1.0,0.0,0.0,0.0,0.0,0.0,0.0,0.0,0.0
1729690898.971996,1693,1729690898,970844704,base_link,-86000.0,393999.99999999994,-272000.00000000006,-1.0,0.0,0.0,0.0,0.0,0.0,0.0,0.0,0.0
1729690899.0723343,1694,1729690899,71130192,base_link,-105000.0,400999.99999999994,-274000.00000000006,-1.0,0.0,0.0,0.0,0.0,0.0,0.0,0.0,0.0
1729690899.1727698,1695,1729690899,171830048,base_link,-105000.0,395999.99999999994,-296000.00000000006,-1.0,0.0,0.0,0.0,0.0,0.0,0.0,0.0,0.0
1729690899.269973,1696,1729690899,269106648,base_link,-105000.0,395999.99999999994,-296000.00000000006,-1.0,0.0,0.0,0.0,0.0,0.0,0.0,0.0,0.0
1729690899.3724997,1697,1729690899,370952272,base_link,-122000.0,384999.99999999994,-306000.00000000006,-1.0,0.0,0.0,0.0,0.0,0.0,0.0,0.0,0.0
1729690899.4746075,1698,1729690899,473140152,base_link,-102000.0,375999.99999999994,-316000.00000000006,-1.0,0.0,0.0,0.0,0.0,0.0,0.0,0.0,0.0
1729690899.5741715,1699,1729690899,572676776,base_link,-86000.0,376999.99999999994,-294000.00000000006,-1.0,0.0,0.0,0.0,0.0,0.0,0.0,0.0,0.0
1729690899.6706004,1700,1729690899,669882936,base_link,-103000.0,388999.99999999994,-296000.00000000006,-1.0,0.0,0.0,0.0,0.0,0.0,0.0,0.0,0.0
1729690899.7713945,1701,1729690899,769836864,base_link,-88000.0,389999.99999999994,-305000.00000000006,-1.0,0.0,0.0,0.0,0.0,0.0,0.0,0.0,0.0
1729690899.8727288,1702,1729690899,872134816,base_link,-110000.0,394999.99999999994,-299000.00000000006,-1.0,0.0,0.0,0.0,0.0,0.0,0.0,0.0,0.0
1729690899.9692216,1703,1729690899,967638744,base_link,-124000.0,399999.99999999994,-289000.00000000006,-1.0,0.0,0.0,0.0,0.0,0.0,0.0,0.0,0.0
1729690900.0724883,1704,1729690900,72210672,base_link,-102000.0,398999.99999999994,-291000.00000000006,-1.0,0.0,0.0,0.0,0.0,0.0,0.0,0.0,0.0
1729690900.1709783,1705,1729690900,170076600,base_link,-134000.0,407999.99999999994,-299000.00000000006,-1.0,0.0,0.0,0.0,0.0,0.0,0.0,0.0,0.0
1729690900.2714398,1706,1729690900,269992248,base_link,-125000.0,397999.99999999994,-310000.00000000006,-1.0,0.0,0.0,0.0,0.0,0.0,0.0,0.0,0.0
1729690900.3768604,1707,1729690900,375750640,base_link,-105000.0,402999.99999999994,-295000.00000000006,-1.0,0.0,0.0,0.0,0.0,0.0,0.0,0.0,0.0
1729690900.4745927,1708,1729690900,472519640,base_link,-128000.0,409999.99999999994,-302000.00000000006,-1.0,0.0,0.0,0.0,0.0,0.0,0.0,0.0,0.0
1729690900.576365,1709,1729690900,575401312,base_link,-107000.0,391999.99999999994,-308000.00000000006,-1.0,0.0,0.0,0.0,0.0,0.0,0.0,0.0,0.0
1729690900.6689227,1710,1729690900,667655632,base_link,-105000.0,381999.99999999994,-300000.00000000006,-1.0,0.0,0.0,0.0,0.0,0.0,0.0,0.0,0.0
1729690900.7717607,1711,1729690900,771048744,base_link,-103000.0,388999.99999999994,-288000.00000000006,-1.0,0.0,0.0,0.0,0.0,0.0,0.0,0.0,0.0
1729690900.873681,1712,1729690900,873028392,base_link,-118000.0,397999.99999999994,-281000.00000000006,-1.0,0.0,0.0,0.0,0.0,0.0,0.0,0.0,0.0
1729690900.9770277,1713,1729690900,976188200,base_link,-116000.0,383999.99999999994,-297000.00000000006,-1.0,0.0,0.0,0.0,0.0,0.0,0.0,0.0,0.0
1729690901.074874,1714,1729690901,73793200,base_link,-122000.0,388999.99999999994,-297000.00000000006,-1.0,0.0,0.0,0.0,0.0,0.0,0.0,0.0,0.0
1729690901.1832418,1715,1729690901,181742848,base_link,-101000.0,370999.99999999994,-313000.00000000006,-1.0,0.0,0.0,0.0,0.0,0.0,0.0,0.0,0.0
1729690901.2721229,1716,1729690901,271194848,base_link,-106000.0,381999.99999999994,-316000.00000000006,-1.0,0.0,0.0,0.0,0.0,0.0,0.0,0.0,0.0
1729690901.3713498,1717,1729690901,370549704,base_link,-108000.0,385999.99999999994,-313000.00000000006,-1.0,0.0,0.0,0.0,0.0,0.0,0.0,0.0,0.0
1729690901.480656,1718,1729690901,478941184,base_link,-103000.0,382999.99999999994,-313000.00000000006,-1.0,0.0,0.0,0.0,0.0,0.0,0.0,0.0,0.0
1729690901.5701292,1719,1729690901,569074432,base_link,-101000.0,376999.99999999994,-302000.00000000006,-1.0,0.0,0.0,0.0,0.0,0.0,0.0,0.0,0.0
1729690901.6801486,1720,1729690901,679094400,base_link,-100000.0,387999.99999999994,-308000.00000000006,-1.0,0.0,0.0,0.0,0.0,0.0,0.0,0.0,0.0
1729690901.7742052,1721,1729690901,772801400,base_link,-129000.0,393999.99999999994,-280000.00000000006,-1.0,0.0,0.0,0.0,0.0,0.0,0.0,0.0,0.0
1729690901.8730707,1722,1729690901,872574400,base_link,-120000.0,395999.99999999994,-279000.00000000006,-1.0,0.0,0.0,0.0,0.0,0.0,0.0,0.0,0.0
1729690901.9732816,1723,1729690901,972424560,base_link,-139000.0,413999.99999999994,-303000.00000000006,-1.0,0.0,0.0,0.0,0.0,0.0,0.0,0.0,0.0
1729690902.072878,1724,1729690902,71914720,base_link,-101000.0,381999.99999999994,-307000.00000000006,-1.0,0.0,0.0,0.0,0.0,0.0,0.0,0.0,0.0
1729690902.1713426,1725,1729690902,169989624,base_link,-110000.0,377999.99999999994,-313000.00000000006,-1.0,0.0,0.0,0.0,0.0,0.0,0.0,0.0,0.0
1729690902.2729034,1726,1729690902,271955736,base_link,-100000.0,398999.99999999994,-291000.00000000006,-1.0,0.0,0.0,0.0,0.0,0.0,0.0,0.0,0.0
1729690902.3736882,1727,1729690902,372059872,base_link,-127000.0,404999.99999999994,-310000.00000000006,-1.0,0.0,0.0,0.0,0.0,0.0,0.0,0.0,0.0
1729690902.4713283,1728,1729690902,469962544,base_link,-93000.0,382999.99999999994,-293000.00000000006,-1.0,0.0,0.0,0.0,0.0,0.0,0.0,0.0,0.0
1729690902.5712018,1729,1729690902,569977400,base_link,-103000.0,385999.99999999994,-299000.00000000006,-1.0,0.0,0.0,0.0,0.0,0.0,0.0,0.0,0.0
1729690902.670328,1730,1729690902,669478392,base_link,-129000.0,402999.99999999994,-288000.00000000006,-1.0,0.0,0.0,0.0,0.0,0.0,0.0,0.0,0.0
1729690902.775664,1731,1729690902,774517344,base_link,-84000.0,384999.99999999994,-300000.00000000006,-1.0,0.0,0.0,0.0,0.0,0.0,0.0,0.0,0.0
1729690902.8702629,1732,1729690902,869034432,base_link,-84000.0,384999.99999999994,-300000.00000000006,-1.0,0.0,0.0,0.0,0.0,0.0,0.0,0.0,0.0
1729690902.972233,1733,1729690902,971727032,base_link,-114000.0,391999.99999999994,-292000.00000000006,-1.0,0.0,0.0,0.0,0.0,0.0,0.0,0.0,0.0
1729690903.0722678,1734,1729690903,71703376,base_link,-118000.0,401999.99999999994,-287000.00000000006,-1.0,0.0,0.0,0.0,0.0,0.0,0.0,0.0,0.0
1729690903.173161,1735,1729690903,172245000,base_link,-108000.0,405999.99999999994,-288000.00000000006,-1.0,0.0,0.0,0.0,0.0,0.0,0.0,0.0,0.0
1729690903.2723572,1736,1729690903,271680160,base_link,-126000.0,391999.99999999994,-319000.00000000006,-1.0,0.0,0.0,0.0,0.0,0.0,0.0,0.0,0.0
1729690903.3726473,1737,1729690903,371362504,base_link,-87000.0,384999.99999999994,-307000.00000000006,-1.0,0.0,0.0,0.0,0.0,0.0,0.0,0.0,0.0
1729690903.4723377,1738,1729690903,471013592,base_link,-104000.0,382999.99999999994,-309000.00000000006,-1.0,0.0,0.0,0.0,0.0,0.0,0.0,0.0,0.0
1729690903.5695186,1739,1729690903,568645728,base_link,-75000.0,380999.99999999994,-310000.00000000006,-1.0,0.0,0.0,0.0,0.0,0.0,0.0,0.0,0.0
1729690903.6718836,1740,1729690903,670667840,base_link,-128000.0,396999.99999999994,-290000.00000000006,-1.0,0.0,0.0,0.0,0.0,0.0,0.0,0.0,0.0
1729690903.7719526,1741,1729690903,770399000,base_link,-109000.0,383999.99999999994,-309000.00000000006,-1.0,0.0,0.0,0.0,0.0,0.0,0.0,0.0,0.0
1729690903.8717206,1742,1729690903,868008696,base_link,-116000.0,387999.99999999994,-307000.00000000006,-1.0,0.0,0.0,0.0,0.0,0.0,0.0,0.0,0.0
1729690903.9722846,1743,1729690903,970936832,base_link,-88000.0,387999.99999999994,-292000.00000000006,-1.0,0.0,0.0,0.0,0.0,0.0,0.0,0.0,0.0
1729690904.0722835,1744,1729690904,70786944,base_link,-110000.0,403999.99999999994,-308000.00000000006,-1.0,0.0,0.0,0.0,0.0,0.0,0.0,0.0,0.0
1729690904.1744978,1745,1729690904,173291592,base_link,-96000.0,388999.99999999994,-305000.00000000006,-1.0,0.0,0.0,0.0,0.0,0.0,0.0,0.0,0.0
1729690904.2715304,1746,1729690904,270196728,base_link,-113000.0,391999.99999999994,-327000.00000000006,-1.0,0.0,0.0,0.0,0.0,0.0,0.0,0.0,0.0
1729690904.371501,1747,1729690904,370931632,base_link,-93000.0,384999.99999999994,-315000.00000000006,-1.0,0.0,0.0,0.0,0.0,0.0,0.0,0.0,0.0
1729690904.4697013,1748,1729690904,468560072,base_link,-85000.0,382999.99999999994,-320000.00000000006,-1.0,0.0,0.0,0.0,0.0,0.0,0.0,0.0,0.0
1729690904.572961,1749,1729690904,571301928,base_link,-81000.0,386999.99999999994,-315000.00000000006,-1.0,0.0,0.0,0.0,0.0,0.0,0.0,0.0,0.0
1729690904.6725564,1750,1729690904,671345040,base_link,-91000.0,389999.99999999994,-303000.00000000006,-1.0,0.0,0.0,0.0,0.0,0.0,0.0,0.0,0.0
1729690904.7958715,1751,1729690904,777652568,base_link,-88000.0,390999.99999999994,-313000.00000000006,-1.0,0.0,0.0,0.0,0.0,0.0,0.0,0.0,0.0
1729690904.88059,1752,1729690904,879564912,base_link,-75000.0,384999.99999999994,-308000.00000000006,-1.0,0.0,0.0,0.0,0.0,0.0,0.0,0.0,0.0
1729690904.9836953,1753,1729690904,982619912,base_link,-101000.0,399999.99999999994,-317000.00000000006,-1.0,0.0,0.0,0.0,0.0,0.0,0.0,0.0,0.0
1729690905.078853,1754,1729690905,77749912,base_link,-99000.0,403999.99999999994,-299000.00000000006,-1.0,0.0,0.0,0.0,0.0,0.0,0.0,0.0,0.0
1729690905.1705785,1755,1729690905,169941600,base_link,-116000.0,412999.99999999994,-298000.00000000006,-1.0,0.0,0.0,0.0,0.0,0.0,0.0,0.0,0.0
1729690905.2687867,1756,1729690905,267566520,base_link,-81000.0,394999.99999999994,-293000.00000000006,-1.0,0.0,0.0,0.0,0.0,0.0,0.0,0.0,0.0
1729690905.3719864,1757,1729690905,370176208,base_link,-91000.0,385999.99999999994,-298000.00000000006,-1.0,0.0,0.0,0.0,0.0,0.0,0.0,0.0,0.0
1729690905.4705157,1758,1729690905,469704208,base_link,-105000.0,397999.99999999994,-302000.00000000006,-1.0,0.0,0.0,0.0,0.0,0.0,0.0,0.0,0.0
1729690905.5709193,1759,1729690905,569789464,base_link,-112000.0,406999.99999999994,-295000.00000000006,-1.0,0.0,0.0,0.0,0.0,0.0,0.0,0.0,0.0
1729690905.6727588,1760,1729690905,671728832,base_link,-124000.0,397999.99999999994,-298000.00000000006,-1.0,0.0,0.0,0.0,0.0,0.0,0.0,0.0,0.0
1729690905.7774346,1761,1729690905,776573712,base_link,-79000.0,388999.99999999994,-289000.00000000006,-1.0,0.0,0.0,0.0,0.0,0.0,0.0,0.0,0.0
1729690905.8730686,1762,1729690905,871214712,base_link,-85000.0,390999.99999999994,-303000.00000000006,-1.0,0.0,0.0,0.0,0.0,0.0,0.0,0.0,0.0
1729690905.972608,1763,1729690905,971536080,base_link,-79000.0,388999.99999999994,-300000.00000000006,-1.0,0.0,0.0,0.0,0.0,0.0,0.0,0.0,0.0
1729690906.0718334,1764,1729690906,71075400,base_link,-107000.0,396999.99999999994,-317000.00000000006,-1.0,0.0,0.0,0.0,0.0,0.0,0.0,0.0,0.0
1729690906.1728008,1765,1729690906,171836744,base_link,-76000.0,383999.99999999994,-304000.00000000006,-1.0,0.0,0.0,0.0,0.0,0.0,0.0,0.0,0.0
1729690906.2729633,1766,1729690906,271579648,base_link,-97000.0,384999.99999999994,-302000.00000000006,-1.0,0.0,0.0,0.0,0.0,0.0,0.0,0.0,0.0
1729690906.37315,1767,1729690906,371187480,base_link,-106000.0,394999.99999999994,-312000.00000000006,-1.0,0.0,0.0,0.0,0.0,0.0,0.0,0.0,0.0
1729690906.4698598,1768,1729690906,468833848,base_link,-126000.0,398999.99999999994,-295000.00000000006,-1.0,0.0,0.0,0.0,0.0,0.0,0.0,0.0,0.0
1729690906.5728707,1769,1729690906,571663216,base_link,-114000.0,383999.99999999994,-284000.00000000006,-1.0,0.0,0.0,0.0,0.0,0.0,0.0,0.0,0.0
1729690906.6729827,1770,1729690906,671508720,base_link,-99000.0,397999.99999999994,-275000.00000000006,-1.0,0.0,0.0,0.0,0.0,0.0,0.0,0.0,0.0
1729690906.7746873,1771,1729690906,773663160,base_link,-115000.0,408999.99999999994,-277000.00000000006,-1.0,0.0,0.0,0.0,0.0,0.0,0.0,0.0,0.0
1729690906.8718166,1772,1729690906,870780040,base_link,-122000.0,411999.99999999994,-286000.00000000006,-1.0,0.0,0.0,0.0,0.0,0.0,0.0,0.0,0.0
1729690906.972141,1773,1729690906,971156408,base_link,-84000.0,403999.99999999994,-279000.00000000006,-1.0,0.0,0.0,0.0,0.0,0.0,0.0,0.0,0.0
1729690907.0721798,1774,1729690907,70419496,base_link,-84000.0,403999.99999999994,-279000.00000000006,-1.0,0.0,0.0,0.0,0.0,0.0,0.0,0.0,0.0
1729690907.1721487,1775,1729690907,170763304,base_link,-95000.0,400999.99999999994,-299000.00000000006,-1.0,0.0,0.0,0.0,0.0,0.0,0.0,0.0,0.0
1729690907.2718215,1776,1729690907,270497440,base_link,-109000.0,396999.99999999994,-305000.00000000006,-1.0,0.0,0.0,0.0,0.0,0.0,0.0,0.0,0.0
1729690907.3719776,1777,1729690907,370599064,base_link,-94000.0,399999.99999999994,-298000.00000000006,-1.0,0.0,0.0,0.0,0.0,0.0,0.0,0.0,0.0
1729690907.470659,1778,1729690907,469740688,base_link,-111000.0,398999.99999999994,-304000.00000000006,-1.0,0.0,0.0,0.0,0.0,0.0,0.0,0.0,0.0
1729690907.5761123,1779,1729690907,574463848,base_link,-83000.0,388999.99999999994,-303000.00000000006,-1.0,0.0,0.0,0.0,0.0,0.0,0.0,0.0,0.0
1729690907.673085,1780,1729690907,671728192,base_link,-98000.0,393999.99999999994,-315000.00000000006,-1.0,0.0,0.0,0.0,0.0,0.0,0.0,0.0,0.0
1729690907.7714617,1781,1729690907,769601864,base_link,-93000.0,389999.99999999994,-295000.00000000006,-1.0,0.0,0.0,0.0,0.0,0.0,0.0,0.0,0.0
1729690907.8727198,1782,1729690907,871666024,base_link,-110000.0,404999.99999999994,-281000.00000000006,-1.0,0.0,0.0,0.0,0.0,0.0,0.0,0.0,0.0
1729690907.9728994,1783,1729690907,971473976,base_link,-118000.0,413999.99999999994,-294000.00000000006,-1.0,0.0,0.0,0.0,0.0,0.0,0.0,0.0,0.0
1729690908.0742154,1784,1729690908,71668176,base_link,-100000.0,401999.99999999994,-293000.00000000006,-1.0,0.0,0.0,0.0,0.0,0.0,0.0,0.0,0.0
1729690908.1722305,1785,1729690908,170863520,base_link,-128000.0,409999.99999999994,-323000.00000000006,-1.0,0.0,0.0,0.0,0.0,0.0,0.0,0.0,0.0
1729690908.272478,1786,1729690908,271165096,base_link,-101000.0,390999.99999999994,-304000.00000000006,-1.0,0.0,0.0,0.0,0.0,0.0,0.0,0.0,0.0
1729690908.372404,1787,1729690908,371354720,base_link,-130000.0,414999.99999999994,-307000.00000000006,-1.0,0.0,0.0,0.0,0.0,0.0,0.0,0.0,0.0
1729690908.4718058,1788,1729690908,470683064,base_link,-95000.0,392999.99999999994,-292000.00000000006,-1.0,0.0,0.0,0.0,0.0,0.0,0.0,0.0,0.0
1729690908.5754733,1789,1729690908,573581200,base_link,-109000.0,402999.99999999994,-279000.00000000006,-1.0,0.0,0.0,0.0,0.0,0.0,0.0,0.0,0.0
1729690908.6716855,1790,1729690908,670626568,base_link,-97000.0,414999.99999999994,-284000.00000000006,-1.0,0.0,0.0,0.0,0.0,0.0,0.0,0.0,0.0
1729690908.7726698,1791,1729690908,771088960,base_link,-101000.0,392999.99999999994,-277000.00000000006,-1.0,0.0,0.0,0.0,0.0,0.0,0.0,0.0,0.0
1729690908.8727236,1792,1729690908,871150560,base_link,-97000.0,394999.99999999994,-278000.00000000006,-1.0,0.0,0.0,0.0,0.0,0.0,0.0,0.0,0.0
1729690908.977455,1793,1729690908,976111112,base_link,-85000.0,398999.99999999994,-289000.00000000006,-1.0,0.0,0.0,0.0,0.0,0.0,0.0,0.0,0.0
1729690909.0824845,1794,1729690909,80961408,base_link,-116000.0,389999.99999999994,-299000.00000000006,-1.0,0.0,0.0,0.0,0.0,0.0,0.0,0.0,0.0
1729690909.18555,1795,1729690909,183886568,base_link,-105000.0,396999.99999999994,-287000.00000000006,-1.0,0.0,0.0,0.0,0.0,0.0,0.0,0.0,0.0
1729690909.280529,1796,1729690909,279109936,base_link,-118000.0,409999.99999999994,-288000.00000000006,-1.0,0.0,0.0,0.0,0.0,0.0,0.0,0.0,0.0
1729690909.3807752,1797,1729690909,378717072,base_link,-125000.0,396999.99999999994,-313000.00000000006,-1.0,0.0,0.0,0.0,0.0,0.0,0.0,0.0,0.0
1729690909.4822807,1798,1729690909,480707120,base_link,-85000.0,380999.99999999994,-303000.00000000006,-1.0,0.0,0.0,0.0,0.0,0.0,0.0,0.0,0.0
1729690909.5810893,1799,1729690909,578550344,base_link,-94000.0,380999.99999999994,-303000.00000000006,-1.0,0.0,0.0,0.0,0.0,0.0,0.0,0.0,0.0
1729690909.676134,1800,1729690909,674576344,base_link,-109000.0,388999.99999999994,-299000.00000000006,-1.0,0.0,0.0,0.0,0.0,0.0,0.0,0.0,0.0
1729690909.7706258,1801,1729690909,769245944,base_link,-100000.0,388999.99999999994,-290000.00000000006,-1.0,0.0,0.0,0.0,0.0,0.0,0.0,0.0,0.0
1729690909.8725162,1802,1729690909,871078944,base_link,-88000.0,391999.99999999994,-295000.00000000006,-1.0,0.0,0.0,0.0,0.0,0.0,0.0,0.0,0.0
1729690909.9712582,1803,1729690909,970679056,base_link,-124000.0,399999.99999999994,-297000.00000000006,-1.0,0.0,0.0,0.0,0.0,0.0,0.0,0.0,0.0
1729690910.071766,1804,1729690910,70274912,base_link,-105000.0,392999.99999999994,-297000.00000000006,-1.0,0.0,0.0,0.0,0.0,0.0,0.0,0.0,0.0
1729690910.1716821,1805,1729690910,170599536,base_link,-97000.0,385999.99999999994,-291000.00000000006,-1.0,0.0,0.0,0.0,0.0,0.0,0.0,0.0,0.0
1729690910.271467,1806,1729690910,270335160,base_link,-108000.0,396999.99999999994,-284000.00000000006,-1.0,0.0,0.0,0.0,0.0,0.0,0.0,0.0,0.0
1729690910.36962,1807,1729690910,368112528,base_link,-101000.0,393999.99999999994,-309000.00000000006,-1.0,0.0,0.0,0.0,0.0,0.0,0.0,0.0,0.0
1729690910.4716187,1808,1729690910,470645872,base_link,-117000.0,399999.99999999994,-292000.00000000006,-1.0,0.0,0.0,0.0,0.0,0.0,0.0,0.0,0.0
1729690910.575936,1809,1729690910,570563704,base_link,-107000.0,383999.99999999994,-304000.00000000006,-1.0,0.0,0.0,0.0,0.0,0.0,0.0,0.0,0.0
1729690910.673751,1810,1729690910,670237072,base_link,-94000.0,378999.99999999994,-295000.00000000006,-1.0,0.0,0.0,0.0,0.0,0.0,0.0,0.0,0.0
1729690910.771194,1811,1729690910,770665440,base_link,-116000.0,396999.99999999994,-292000.00000000006,-1.0,0.0,0.0,0.0,0.0,0.0,0.0,0.0,0.0
1729690910.871552,1812,1729690910,870525784,base_link,-105000.0,387999.99999999994,-285000.00000000006,-1.0,0.0,0.0,0.0,0.0,0.0,0.0,0.0,0.0
1729690910.9742186,1813,1729690910,972588760,base_link,-108000.0,391999.99999999994,-292000.00000000006,-1.0,0.0,0.0,0.0,0.0,0.0,0.0,0.0,0.0
1729690911.071327,1814,1729690911,69984176,base_link,-112000.0,397999.99999999994,-322000.00000000006,-1.0,0.0,0.0,0.0,0.0,0.0,0.0,0.0,0.0
1729690911.1703556,1815,1729690911,169541384,base_link,-112000.0,397999.99999999994,-322000.00000000006,-1.0,0.0,0.0,0.0,0.0,0.0,0.0,0.0,0.0
1729690911.270203,1816,1729690911,269431568,base_link,-91000.0,384999.99999999994,-304000.00000000006,-1.0,0.0,0.0,0.0,0.0,0.0,0.0,0.0,0.0
1729690911.3716888,1817,1729690911,370015632,base_link,-99000.0,385999.99999999994,-299000.00000000006,-1.0,0.0,0.0,0.0,0.0,0.0,0.0,0.0,0.0
1729690911.4701772,1818,1729690911,469482328,base_link,-90000.0,399999.99999999994,-301000.00000000006,-1.0,0.0,0.0,0.0,0.0,0.0,0.0,0.0,0.0
1729690911.5724106,1819,1729690911,571609488,base_link,-108000.0,383999.99999999994,-301000.00000000006,-1.0,0.0,0.0,0.0,0.0,0.0,0.0,0.0,0.0
1729690911.6714952,1820,1729690911,670844576,base_link,-76000.0,376999.99999999994,-293000.00000000006,-1.0,0.0,0.0,0.0,0.0,0.0,0.0,0.0,0.0
1729690911.7717407,1821,1729690911,770969456,base_link,-121000.0,397999.99999999994,-291000.00000000006,-1.0,0.0,0.0,0.0,0.0,0.0,0.0,0.0,0.0
1729690911.8695056,1822,1729690911,868206408,base_link,-112000.0,409999.99999999994,-299000.00000000006,-1.0,0.0,0.0,0.0,0.0,0.0,0.0,0.0,0.0
1729690911.9716027,1823,1729690911,971160568,base_link,-117000.0,396999.99999999994,-295000.00000000006,-1.0,0.0,0.0,0.0,0.0,0.0,0.0,0.0,0.0
1729690912.0724754,1824,1729690912,70987168,base_link,-101000.0,393999.99999999994,-276000.00000000006,-1.0,0.0,0.0,0.0,0.0,0.0,0.0,0.0,0.0
1729690912.172569,1825,1729690912,171736072,base_link,-127000.0,416999.99999999994,-297000.00000000006,-1.0,0.0,0.0,0.0,0.0,0.0,0.0,0.0,0.0
1729690912.2717655,1826,1729690912,270988952,base_link,-100000.0,380999.99999999994,-285000.00000000006,-1.0,0.0,0.0,0.0,0.0,0.0,0.0,0.0,0.0
1729690912.3722417,1827,1729690912,370848088,base_link,-112000.0,395999.99999999994,-286000.00000000006,-1.0,0.0,0.0,0.0,0.0,0.0,0.0,0.0,0.0
1729690912.4718556,1828,1729690912,470477504,base_link,-132000.0,404999.99999999994,-291000.00000000006,-1.0,0.0,0.0,0.0,0.0,0.0,0.0,0.0,0.0
1729690912.5747619,1829,1729690912,573511640,base_link,-110000.0,400999.99999999994,-279000.00000000006,-1.0,0.0,0.0,0.0,0.0,0.0,0.0,0.0,0.0
1729690912.6715155,1830,1729690912,670383240,base_link,-120000.0,382999.99999999994,-288000.00000000006,-1.0,0.0,0.0,0.0,0.0,0.0,0.0,0.0,0.0
1729690912.7715034,1831,1729690912,770513096,base_link,-110000.0,381999.99999999994,-290000.00000000006,-1.0,0.0,0.0,0.0,0.0,0.0,0.0,0.0,0.0
1729690912.8714669,1832,1729690912,870486768,base_link,-77000.0,369999.99999999994,-298000.00000000006,-1.0,0.0,0.0,0.0,0.0,0.0,0.0,0.0,0.0
1729690912.97674,1833,1729690912,975434904,base_link,-96000.0,374999.99999999994,-314000.00000000006,-1.0,0.0,0.0,0.0,0.0,0.0,0.0,0.0,0.0
1729690913.0719323,1834,1729690913,70882944,base_link,-86000.0,378999.99999999994,-326000.00000000006,-1.0,0.0,0.0,0.0,0.0,0.0,0.0,0.0,0.0
1729690913.173757,1835,1729690913,172982312,base_link,-68000.0,401999.99999999994,-303000.00000000006,-1.0,0.0,0.0,0.0,0.0,0.0,0.0,0.0,0.0
1729690913.2717607,1836,1729690913,271142056,base_link,-31000.0,395999.99999999994,-340000.00000000006,-1.0,0.0,0.0,0.0,0.0,0.0,0.0,0.0,0.0
1729690913.3797212,1837,1729690913,378824048,base_link,4000.0,410999.99999999994,-323000.00000000006,-1.0,0.0,0.0,0.0,0.0,0.0,0.0,0.0,0.0
1729690913.4708202,1838,1729690913,470085048,base_link,42000.0,401999.99999999994,-337000.00000000006,-1.0,0.0,0.0,0.0,0.0,0.0,0.0,0.0,0.0
1729690913.5705376,1839,1729690913,569383072,base_link,48000.0,400999.99999999994,-340000.00000000006,-1.0,0.0,0.0,0.0,0.0,0.0,0.0,0.0,0.0
1729690913.6711268,1840,1729690913,669387072,base_link,12000.0,422999.99999999994,-320000.00000000006,-1.0,0.0,0.0,0.0,0.0,0.0,0.0,0.0,0.0
1729690913.7807481,1841,1729690913,779458072,base_link,-13000.0,391999.99999999994,-325000.00000000006,-1.0,0.0,0.0,0.0,0.0,0.0,0.0,0.0,0.0
1729690913.8711145,1842,1729690913,869677072,base_link,-79000.0,401999.99999999994,-296000.00000000006,-1.0,0.0,0.0,0.0,0.0,0.0,0.0,0.0,0.0
1729690913.9718409,1843,1729690913,970338256,base_link,-135000.0,410999.99999999994,-317000.00000000006,-1.0,0.0,0.0,0.0,0.0,0.0,0.0,0.0,0.0
1729690914.0696583,1844,1729690914,67486928,base_link,-152000.0,399999.99999999994,-277000.00000000006,-1.0,0.0,0.0,0.0,0.0,0.0,0.0,0.0,0.0
1729690914.175193,1845,1729690914,172900576,base_link,-190000.0,410999.99999999994,-247000.00000000006,-1.0,0.0,0.0,0.0,0.0,0.0,0.0,0.0,0.0
1729690914.2718294,1846,1729690914,270167968,base_link,-214000.0,426000.0,-237000.00000000006,-1.0,0.0,0.0,0.0,0.0,0.0,0.0,0.0,0.0
1729690914.3764722,1847,1729690914,374955544,base_link,-222000.0,425000.0,-234000.00000000006,-1.0,0.0,0.0,0.0,0.0,0.0,0.0,0.0,0.0
1729690914.4716597,1848,1729690914,469862544,base_link,-216000.0,428000.0,-234000.00000000006,-1.0,0.0,0.0,0.0,0.0,0.0,0.0,0.0,0.0
1729690914.572326,1849,1729690914,569865656,base_link,-196000.0,425000.0,-222000.00000000006,-1.0,0.0,0.0,0.0,0.0,0.0,0.0,0.0,0.0
1729690914.6692924,1850,1729690914,667468352,base_link,-217000.0,434000.0,-231000.00000000006,-1.0,0.0,0.0,0.0,0.0,0.0,0.0,0.0,0.0
1729690914.777418,1851,1729690914,771954000,base_link,-204000.0,439000.0,-229000.00000000006,-1.0,0.0,0.0,0.0,0.0,0.0,0.0,0.0,0.0
1729690914.8697157,1852,1729690914,869317624,base_link,-215000.0,444000.0,-221000.00000000006,-1.0,0.0,0.0,0.0,0.0,0.0,0.0,0.0,0.0
1729690914.9753022,1853,1729690914,974414032,base_link,-205000.0,421000.0,-213000.00000000006,-1.0,0.0,0.0,0.0,0.0,0.0,0.0,0.0,0.0
1729690915.0686314,1854,1729690915,67368032,base_link,-205000.0,421000.0,-213000.00000000006,-1.0,0.0,0.0,0.0,0.0,0.0,0.0,0.0,0.0
1729690915.1704438,1855,1729690915,169331472,base_link,-198000.0,404000.0,-210000.00000000006,-1.0,0.0,0.0,0.0,0.0,0.0,0.0,0.0,0.0
1729690915.2706826,1856,1729690915,269269840,base_link,-223000.0,419000.0,-227000.00000000006,-1.0,0.0,0.0,0.0,0.0,0.0,0.0,0.0,0.0
1729690915.3725445,1857,1729690915,371041184,base_link,-232000.0,434000.0,-230000.00000000006,-1.0,0.0,0.0,0.0,0.0,0.0,0.0,0.0,0.0
1729690915.4725783,1858,1729690915,470684552,base_link,-225000.0,441000.0,-235000.00000000006,-1.0,0.0,0.0,0.0,0.0,0.0,0.0,0.0,0.0
1729690915.5724168,1859,1729690915,571101152,base_link,-217000.0,437000.0,-231000.00000000006,-1.0,0.0,0.0,0.0,0.0,0.0,0.0,0.0,0.0
1729690915.669626,1860,1729690915,668435520,base_link,-218000.0,426000.0,-230000.00000000006,-1.0,0.0,0.0,0.0,0.0,0.0,0.0,0.0,0.0
1729690915.7782338,1861,1729690915,775778168,base_link,-214000.0,424999.99999999994,-245000.00000000006,-1.0,0.0,0.0,0.0,0.0,0.0,0.0,0.0,0.0
1729690915.8720582,1862,1729690915,870677952,base_link,-177000.0,421999.99999999994,-245000.00000000006,-1.0,0.0,0.0,0.0,0.0,0.0,0.0,0.0,0.0
1729690915.968938,1863,1729690915,967434832,base_link,-125000.0,380999.99999999994,-274000.00000000006,-1.0,0.0,0.0,0.0,0.0,0.0,0.0,0.0,0.0
1729690916.0717483,1864,1729690916,69549432,base_link,-99000.0,375999.99999999994,-298000.00000000006,-1.0,0.0,0.0,0.0,0.0,0.0,0.0,0.0,0.0
1729690916.1695569,1865,1729690916,167817104,base_link,-87000.0,395999.99999999994,-308000.00000000006,-1.0,0.0,0.0,0.0,0.0,0.0,0.0,0.0,0.0
1729690916.2705872,1866,1729690916,269281288,base_link,-104000.0,405999.99999999994,-319000.00000000006,-1.0,0.0,0.0,0.0,0.0,0.0,0.0,0.0,0.0
1729690916.3735955,1867,1729690916,371938144,base_link,-100000.0,393999.99999999994,-297000.00000000006,-1.0,0.0,0.0,0.0,0.0,0.0,0.0,0.0,0.0
1729690916.4738426,1868,1729690916,471762560,base_link,-91000.0,387999.99999999994,-294000.00000000006,-1.0,0.0,0.0,0.0,0.0,0.0,0.0,0.0,0.0
1729690916.5709882,1869,1729690916,568843416,base_link,-119000.0,375999.99999999994,-301000.00000000006,-1.0,0.0,0.0,0.0,0.0,0.0,0.0,0.0,0.0
1729690916.6713521,1870,1729690916,670293760,base_link,-180000.0,418999.99999999994,-281000.00000000006,-1.0,0.0,0.0,0.0,0.0,0.0,0.0,0.0,0.0
1729690916.7766585,1871,1729690916,775724008,base_link,-160000.0,402999.99999999994,-285000.00000000006,-1.0,0.0,0.0,0.0,0.0,0.0,0.0,0.0,0.0
1729690916.8717618,1872,1729690916,870158008,base_link,-141000.0,384999.99999999994,-266000.00000000006,-1.0,0.0,0.0,0.0,0.0,0.0,0.0,0.0,0.0
1729690916.9859807,1873,1729690916,975969816,base_link,-89000.0,365999.99999999994,-281000.00000000006,-1.0,0.0,0.0,0.0,0.0,0.0,0.0,0.0,0.0
1729690917.0791316,1874,1729690917,77991464,base_link,-94000.0,379999.99999999994,-308000.00000000006,-1.0,0.0,0.0,0.0,0.0,0.0,0.0,0.0,0.0
1729690917.1818976,1875,1729690917,180725816,base_link,-116000.0,396999.99999999994,-288000.00000000006,-1.0,0.0,0.0,0.0,0.0,0.0,0.0,0.0,0.0
1729690917.2727492,1876,1729690917,271649816,base_link,-74000.0,370999.99999999994,-298000.00000000006,-1.0,0.0,0.0,0.0,0.0,0.0,0.0,0.0,0.0
1729690917.3778703,1877,1729690917,377346528,base_link,-97000.0,374999.99999999994,-311000.00000000006,-1.0,0.0,0.0,0.0,0.0,0.0,0.0,0.0,0.0
1729690917.4783397,1878,1729690917,477131776,base_link,-112000.0,395999.99999999994,-325000.00000000006,-1.0,0.0,0.0,0.0,0.0,0.0,0.0,0.0,0.0
1729690917.5784914,1879,1729690917,577597368,base_link,-99000.0,394999.99999999994,-315000.00000000006,-1.0,0.0,0.0,0.0,0.0,0.0,0.0,0.0,0.0
1729690917.673085,1880,1729690917,670310368,base_link,-94000.0,390999.99999999994,-289000.00000000006,-1.0,0.0,0.0,0.0,0.0,0.0,0.0,0.0,0.0
1729690917.7779796,1881,1729690917,775268224,base_link,-92000.0,378999.99999999994,-306000.00000000006,-1.0,0.0,0.0,0.0,0.0,0.0,0.0,0.0,0.0
1729690917.8708289,1882,1729690917,869772224,base_link,-93000.0,381999.99999999994,-295000.00000000006,-1.0,0.0,0.0,0.0,0.0,0.0,0.0,0.0,0.0
1729690917.9709132,1883,1729690917,969784896,base_link,-131000.0,398999.99999999994,-286000.00000000006,-1.0,0.0,0.0,0.0,0.0,0.0,0.0,0.0,0.0
1729690918.0814066,1884,1729690918,69318568,base_link,-140000.0,385999.99999999994,-307000.00000000006,-1.0,0.0,0.0,0.0,0.0,0.0,0.0,0.0,0.0
1729690918.177019,1885,1729690918,175143448,base_link,-130000.0,401999.99999999994,-295000.00000000006,-1.0,0.0,0.0,0.0,0.0,0.0,0.0,0.0,0.0
1729690918.2709234,1886,1729690918,269042448,base_link,-122000.0,398999.99999999994,-299000.00000000006,-1.0,0.0,0.0,0.0,0.0,0.0,0.0,0.0,0.0
1729690918.3735805,1887,1729690918,372215352,base_link,-23000.0,372999.99999999994,-345000.00000000006,-1.0,0.0,0.0,0.0,0.0,0.0,0.0,0.0,0.0
1729690918.4714618,1888,1729690918,469042072,base_link,12000.0,382999.99999999994,-337000.00000000006,-1.0,0.0,0.0,0.0,0.0,0.0,0.0,0.0,0.0
1729690918.5689507,1889,1729690918,567383256,base_link,18000.0,376999.99999999994,-343000.00000000006,-1.0,0.0,0.0,0.0,0.0,0.0,0.0,0.0,0.0
1729690918.6694155,1890,1729690918,667208416,base_link,48000.0,386999.99999999994,-356000.00000000006,-1.0,0.0,0.0,0.0,0.0,0.0,0.0,0.0,0.0
1729690918.7719057,1891,1729690918,770467064,base_link,33000.0,381999.99999999994,-340000.00000000006,-1.0,0.0,0.0,0.0,0.0,0.0,0.0,0.0,0.0
1729690918.8751616,1892,1729690918,873074200,base_link,33000.0,375999.99999999994,-335000.00000000006,-1.0,0.0,0.0,0.0,0.0,0.0,0.0,0.0,0.0
1729690918.9730208,1893,1729690918,971053824,base_link,33000.0,375999.99999999994,-335000.00000000006,-1.0,0.0,0.0,0.0,0.0,0.0,0.0,0.0,0.0
1729690919.0728784,1894,1729690919,71439376,base_link,19000.0,403999.99999999994,-356000.00000000006,-1.0,0.0,0.0,0.0,0.0,0.0,0.0,0.0,0.0
1729690919.170661,1895,1729690919,169247120,base_link,23000.0,396999.99999999994,-342000.00000000006,-1.0,0.0,0.0,0.0,0.0,0.0,0.0,0.0,0.0
1729690919.270079,1896,1729690919,268901208,base_link,23000.0,409999.99999999994,-345000.00000000006,-1.0,0.0,0.0,0.0,0.0,0.0,0.0,0.0,0.0
1729690919.3717113,1897,1729690919,370836320,base_link,17000.0,398999.99999999994,-331000.00000000006,-1.0,0.0,0.0,0.0,0.0,0.0,0.0,0.0,0.0
1729690919.4718761,1898,1729690919,470634456,base_link,47000.0,379999.99999999994,-334000.00000000006,-1.0,0.0,0.0,0.0,0.0,0.0,0.0,0.0,0.0
1729690919.5750856,1899,1729690919,573258872,base_link,33000.0,396999.99999999994,-334000.00000000006,-1.0,0.0,0.0,0.0,0.0,0.0,0.0,0.0,0.0
1729690919.6720974,1900,1729690919,670170032,base_link,4000.0,400999.99999999994,-326000.00000000006,-1.0,0.0,0.0,0.0,0.0,0.0,0.0,0.0,0.0
1729690919.772145,1901,1729690919,770419912,base_link,37000.0,378999.99999999994,-332000.00000000006,-1.0,0.0,0.0,0.0,0.0,0.0,0.0,0.0,0.0
1729690919.871316,1902,1729690919,870005792,base_link,56000.0,374999.99999999994,-363000.00000000006,-1.0,0.0,0.0,0.0,0.0,0.0,0.0,0.0,0.0
1729690919.9719956,1903,1729690919,970430928,base_link,46000.0,376999.99999999994,-358000.00000000006,-1.0,0.0,0.0,0.0,0.0,0.0,0.0,0.0,0.0
1729690920.0898883,1904,1729690920,69568344,base_link,18000.0,395999.99999999994,-355000.00000000006,-1.0,0.0,0.0,0.0,0.0,0.0,0.0,0.0,0.0
1729690920.1711252,1905,1729690920,169892736,base_link,29000.0,405999.99999999994,-363000.00000000006,-1.0,0.0,0.0,0.0,0.0,0.0,0.0,0.0,0.0
1729690920.2732544,1906,1729690920,271790152,base_link,28000.0,399999.99999999994,-362000.00000000006,-1.0,0.0,0.0,0.0,0.0,0.0,0.0,0.0,0.0
1729690920.373008,1907,1729690920,371780592,base_link,19000.0,397999.99999999994,-358000.00000000006,-1.0,0.0,0.0,0.0,0.0,0.0,0.0,0.0,0.0
1729690920.4700956,1908,1729690920,469409656,base_link,43000.0,397999.99999999994,-370000.00000000006,-1.0,0.0,0.0,0.0,0.0,0.0,0.0,0.0,0.0
1729690920.5743716,1909,1729690920,572834352,base_link,50000.0,392999.99999999994,-360000.00000000006,-1.0,0.0,0.0,0.0,0.0,0.0,0.0,0.0,0.0
1729690920.6743793,1910,1729690920,672435256,base_link,11000.0,408999.99999999994,-355000.00000000006,-1.0,0.0,0.0,0.0,0.0,0.0,0.0,0.0,0.0
1729690920.7791934,1911,1729690920,777375904,base_link,35000.0,393999.99999999994,-341000.00000000006,-1.0,0.0,0.0,0.0,0.0,0.0,0.0,0.0,0.0
1729690920.8730676,1912,1729690920,872074384,base_link,-43000.0,398999.99999999994,-356000.00000000006,-1.0,0.0,0.0,0.0,0.0,0.0,0.0,0.0,0.0
1729690920.9783874,1913,1729690920,976887800,base_link,-80000.0,434999.99999999994,-319000.00000000006,-1.0,0.0,0.0,0.0,0.0,0.0,0.0,0.0,0.0
1729690921.078215,1914,1729690921,77086304,base_link,-94000.0,434999.99999999994,-344000.00000000006,-1.0,0.0,0.0,0.0,0.0,0.0,0.0,0.0,0.0
1729690921.1798148,1915,1729690921,177463152,base_link,-53000.0,405999.99999999994,-326000.00000000006,-1.0,0.0,0.0,0.0,0.0,0.0,0.0,0.0,0.0
1729690921.2785668,1916,1729690921,277013288,base_link,-70000.0,418999.99999999994,-332000.00000000006,-1.0,0.0,0.0,0.0,0.0,0.0,0.0,0.0,0.0
1729690921.3769832,1917,1729690921,375939704,base_link,-49000.0,411999.99999999994,-322000.00000000006,-1.0,0.0,0.0,0.0,0.0,0.0,0.0,0.0,0.0
1729690921.471503,1918,1729690921,469993704,base_link,-73000.0,433999.99999999994,-330000.00000000006,-1.0,0.0,0.0,0.0,0.0,0.0,0.0,0.0,0.0
1729690921.5693173,1919,1729690921,567982840,base_link,-58000.0,416999.99999999994,-319000.00000000006,-1.0,0.0,0.0,0.0,0.0,0.0,0.0,0.0,0.0
1729690921.6712751,1920,1729690921,670000840,base_link,-95000.0,456999.99999999994,-309000.00000000006,-1.0,0.0,0.0,0.0,0.0,0.0,0.0,0.0,0.0
1729690921.7711258,1921,1729690921,770156840,base_link,-56000.0,478999.99999999994,-276000.00000000006,-1.0,0.0,0.0,0.0,0.0,0.0,0.0,0.0,0.0
1729690921.8716078,1922,1729690921,869940440,base_link,-101000.0,516999.99999999994,-238000.00000000006,-1.0,0.0,0.0,0.0,0.0,0.0,0.0,0.0,0.0
1729690921.9763026,1923,1729690921,975199016,base_link,-77000.0,480999.99999999994,-272000.00000000006,-1.0,0.0,0.0,0.0,0.0,0.0,0.0,0.0,0.0
1729690922.0717587,1924,1729690922,69513016,base_link,-92000.0,444999.99999999994,-302000.00000000006,-1.0,0.0,0.0,0.0,0.0,0.0,0.0,0.0,0.0
1729690922.1683981,1925,1729690922,167681408,base_link,-79000.0,398999.99999999994,-320000.00000000006,-1.0,0.0,0.0,0.0,0.0,0.0,0.0,0.0,0.0
1729690922.268589,1926,1729690922,267501336,base_link,-61000.0,361999.99999999994,-330000.00000000006,-1.0,0.0,0.0,0.0,0.0,0.0,0.0,0.0,0.0
1729690922.370392,1927,1729690922,369497544,base_link,-102000.0,337999.99999999994,-340000.00000000006,-1.0,0.0,0.0,0.0,0.0,0.0,0.0,0.0,0.0
1729690922.4702492,1928,1729690922,469329704,base_link,-96000.0,307999.99999999994,-350000.00000000006,-1.0,0.0,0.0,0.0,0.0,0.0,0.0,0.0,0.0
1729690922.5716388,1929,1729690922,569879888,base_link,-92000.0,290999.99999999994,-356000.00000000006,-1.0,0.0,0.0,0.0,0.0,0.0,0.0,0.0,0.0
1729690922.674624,1930,1729690922,672461560,base_link,-88000.0,299999.99999999994,-345000.00000000006,-1.0,0.0,0.0,0.0,0.0,0.0,0.0,0.0,0.0
1729690922.776398,1931,1729690922,772775208,base_link,-109000.0,312999.99999999994,-343000.00000000006,-1.0,0.0,0.0,0.0,0.0,0.0,0.0,0.0,0.0
1729690922.8714025,1932,1729690922,870316040,base_link,-109000.0,312999.99999999994,-343000.00000000006,-1.0,0.0,0.0,0.0,0.0,0.0,0.0,0.0,0.0
1729690922.9696555,1933,1729690922,967987296,base_link,-75000.0,322999.99999999994,-348000.00000000006,-1.0,0.0,0.0,0.0,0.0,0.0,0.0,0.0,0.0
1729690923.0719738,1934,1729690923,69678200,base_link,-109000.0,346999.99999999994,-343000.00000000006,-1.0,0.0,0.0,0.0,0.0,0.0,0.0,0.0,0.0
1729690923.173238,1935,1729690923,171666384,base_link,-97000.0,347999.99999999994,-341000.00000000006,-1.0,0.0,0.0,0.0,0.0,0.0,0.0,0.0,0.0
1729690923.2704623,1936,1729690923,268730728,base_link,-96000.0,390999.99999999994,-324000.00000000006,-1.0,0.0,0.0,0.0,0.0,0.0,0.0,0.0,0.0
1729690923.3733413,1937,1729690923,371888328,base_link,-118000.0,426999.99999999994,-278000.00000000006,-1.0,0.0,0.0,0.0,0.0,0.0,0.0,0.0,0.0
1729690923.4694915,1938,1729690923,468763928,base_link,-150000.0,416999.99999999994,-310000.00000000006,-1.0,0.0,0.0,0.0,0.0,0.0,0.0,0.0,0.0
1729690923.5677505,1939,1729690923,566743576,base_link,-191000.0,431999.99999999994,-258000.00000000006,-1.0,0.0,0.0,0.0,0.0,0.0,0.0,0.0,0.0
1729690923.6721497,1940,1729690923,671255176,base_link,-209000.0,431999.99999999994,-244000.00000000006,-1.0,0.0,0.0,0.0,0.0,0.0,0.0,0.0,0.0
1729690923.7708814,1941,1729690923,768918520,base_link,-195000.0,423000.0,-237000.00000000006,-1.0,0.0,0.0,0.0,0.0,0.0,0.0,0.0,0.0
1729690923.8741868,1942,1729690923,873255608,base_link,-138000.0,385999.99999999994,-261000.00000000006,-1.0,0.0,0.0,0.0,0.0,0.0,0.0,0.0,0.0
1729690923.974898,1943,1729690923,972890512,base_link,-101000.0,386999.99999999994,-278000.00000000006,-1.0,0.0,0.0,0.0,0.0,0.0,0.0,0.0,0.0
1729690924.0728042,1944,1729690924,69814648,base_link,-79000.0,380999.99999999994,-309000.00000000006,-1.0,0.0,0.0,0.0,0.0,0.0,0.0,0.0,0.0
1729690924.1747208,1945,1729690924,172873344,base_link,-123000.0,383999.99999999994,-311000.00000000006,-1.0,0.0,0.0,0.0,0.0,0.0,0.0,0.0,0.0
1729690924.2706652,1946,1729690924,269414480,base_link,-209000.0,418999.99999999994,-264000.00000000006,-1.0,0.0,0.0,0.0,0.0,0.0,0.0,0.0,0.0
1729690924.3704307,1947,1729690924,369194408,base_link,-213000.0,405999.99999999994,-271000.00000000006,-1.0,0.0,0.0,0.0,0.0,0.0,0.0,0.0,0.0
1729690924.4709146,1948,1729690924,469350144,base_link,-190000.0,393999.99999999994,-255000.00000000006,-1.0,0.0,0.0,0.0,0.0,0.0,0.0,0.0,0.0
1729690924.5727446,1949,1729690924,571480768,base_link,-218000.0,401999.99999999994,-255000.00000000006,-1.0,0.0,0.0,0.0,0.0,0.0,0.0,0.0,0.0
1729690924.6728194,1950,1729690924,671460600,base_link,-142000.0,398999.99999999994,-278000.00000000006,-1.0,0.0,0.0,0.0,0.0,0.0,0.0,0.0,0.0
1729690924.7759423,1951,1729690924,773993224,base_link,-129000.0,391999.99999999994,-278000.00000000006,-1.0,0.0,0.0,0.0,0.0,0.0,0.0,0.0,0.0
1729690924.8756764,1952,1729690924,873971360,base_link,-81000.0,380999.99999999994,-291000.00000000006,-1.0,0.0,0.0,0.0,0.0,0.0,0.0,0.0,0.0
1729690924.9807694,1953,1729690924,978987952,base_link,-69000.0,406999.99999999994,-298000.00000000006,-1.0,0.0,0.0,0.0,0.0,0.0,0.0,0.0,0.0
1729690925.0759385,1954,1729690925,74410952,base_link,-68000.0,394999.99999999994,-328000.00000000006,-1.0,0.0,0.0,0.0,0.0,0.0,0.0,0.0,0.0
1729690925.1777642,1955,1729690925,176553688,base_link,-78000.0,385999.99999999994,-319000.00000000006,-1.0,0.0,0.0,0.0,0.0,0.0,0.0,0.0,0.0
1729690925.2737603,1956,1729690925,272812688,base_link,-75000.0,391999.99999999994,-304000.00000000006,-1.0,0.0,0.0,0.0,0.0,0.0,0.0,0.0,0.0
1729690925.3727105,1957,1729690925,371645848,base_link,-54000.0,384999.99999999994,-322000.00000000006,-1.0,0.0,0.0,0.0,0.0,0.0,0.0,0.0,0.0
1729690925.4698267,1958,1729690925,468611848,base_link,-120000.0,442999.99999999994,-288000.00000000006,-1.0,0.0,0.0,0.0,0.0,0.0,0.0,0.0,0.0
1729690925.5728357,1959,1729690925,571631848,base_link,-108000.0,495999.99999999994,-241000.00000000006,-1.0,0.0,0.0,0.0,0.0,0.0,0.0,0.0,0.0
1729690925.6679363,1960,1729690925,666831288,base_link,-105000.0,516000.0,-221000.00000000006,-1.0,0.0,0.0,0.0,0.0,0.0,0.0,0.0,0.0
1729690925.7709668,1961,1729690925,769648936,base_link,-130000.0,553000.0,-212000.00000000006,-1.0,0.0,0.0,0.0,0.0,0.0,0.0,0.0,0.0
1729690925.8708797,1962,1729690925,869533584,base_link,-58000.0,441999.99999999994,-291000.00000000006,-1.0,0.0,0.0,0.0,0.0,0.0,0.0,0.0,0.0
1729690925.9690864,1963,1729690925,967315000,base_link,-111000.0,418999.99999999994,-313000.00000000006,-1.0,0.0,0.0,0.0,0.0,0.0,0.0,0.0,0.0
1729690926.0709693,1964,1729690926,69283928,base_link,-60000.0,370999.99999999994,-327000.00000000006,-1.0,0.0,0.0,0.0,0.0,0.0,0.0,0.0,0.0
1729690926.17073,1965,1729690926,169708040,base_link,-94000.0,389999.99999999994,-321000.00000000006,-1.0,0.0,0.0,0.0,0.0,0.0,0.0,0.0,0.0
1729690926.2676272,1966,1729690926,266897968,base_link,-127000.0,406999.99999999994,-313000.00000000006,-1.0,0.0,0.0,0.0,0.0,0.0,0.0,0.0,0.0
1729690926.3728268,1967,1729690926,371896080,base_link,-93000.0,400999.99999999994,-311000.00000000006,-1.0,0.0,0.0,0.0,0.0,0.0,0.0,0.0,0.0
1729690926.4711514,1968,1729690926,468856008,base_link,-102000.0,403999.99999999994,-324000.00000000006,-1.0,0.0,0.0,0.0,0.0,0.0,0.0,0.0,0.0
1729690926.5722108,1969,1729690926,570807584,base_link,-53000.0,391999.99999999994,-300000.00000000006,-1.0,0.0,0.0,0.0,0.0,0.0,0.0,0.0,0.0
1729690926.6719828,1970,1729690926,670567952,base_link,-54000.0,390999.99999999994,-311000.00000000006,-1.0,0.0,0.0,0.0,0.0,0.0,0.0,0.0,0.0
1729690926.7746756,1971,1729690926,773781248,base_link,-30000.0,394999.99999999994,-338000.00000000006,-1.0,0.0,0.0,0.0,0.0,0.0,0.0,0.0,0.0
1729690926.8729386,1972,1729690926,871061688,base_link,-30000.0,394999.99999999994,-338000.00000000006,-1.0,0.0,0.0,0.0,0.0,0.0,0.0,0.0,0.0
1729690926.971766,1973,1729690926,970911312,base_link,-87000.0,401999.99999999994,-312000.00000000006,-1.0,0.0,0.0,0.0,0.0,0.0,0.0,0.0,0.0
1729690927.0723119,1974,1729690927,70749448,base_link,-60000.0,391999.99999999994,-298000.00000000006,-1.0,0.0,0.0,0.0,0.0,0.0,0.0,0.0,0.0
1729690927.1717765,1975,1729690927,170660352,base_link,-39000.0,384999.99999999994,-320000.00000000006,-1.0,0.0,0.0,0.0,0.0,0.0,0.0,0.0,0.0
1729690927.270651,1976,1729690927,270153744,base_link,-57000.0,388999.99999999994,-339000.00000000006,-1.0,0.0,0.0,0.0,0.0,0.0,0.0,0.0,0.0
1729690927.3740053,1977,1729690927,373088648,base_link,-45000.0,391999.99999999994,-330000.00000000006,-1.0,0.0,0.0,0.0,0.0,0.0,0.0,0.0,0.0
1729690927.4704971,1978,1729690927,469788296,base_link,-88000.0,407999.99999999994,-319000.00000000006,-1.0,0.0,0.0,0.0,0.0,0.0,0.0,0.0,0.0
1729690927.5719316,1979,1729690927,570170480,base_link,-88000.0,429999.99999999994,-310000.00000000006,-1.0,0.0,0.0,0.0,0.0,0.0,0.0,0.0,0.0
1729690927.6679137,1980,1729690927,667251664,base_link,-87000.0,462999.99999999994,-294000.00000000006,-1.0,0.0,0.0,0.0,0.0,0.0,0.0,0.0,0.0
1729690927.7705524,1981,1729690927,770237312,base_link,-67000.0,496999.99999999994,-258000.00000000006,-1.0,0.0,0.0,0.0,0.0,0.0,0.0,0.0,0.0
1729690927.8708067,1982,1729690927,869710472,base_link,-90000.0,515000.0,-237000.00000000006,-1.0,0.0,0.0,0.0,0.0,0.0,0.0,0.0,0.0
1729690927.9707618,1983,1729690927,969790912,base_link,-67000.0,465999.99999999994,-278000.00000000006,-1.0,0.0,0.0,0.0,0.0,0.0,0.0,0.0,0.0
1729690928.070645,1984,1729690928,69679096,base_link,-84000.0,444999.99999999994,-312000.00000000006,-1.0,0.0,0.0,0.0,0.0,0.0,0.0,0.0,0.0
1729690928.1724043,1985,1729690928,172105768,base_link,-75000.0,408999.99999999994,-328000.00000000006,-1.0,0.0,0.0,0.0,0.0,0.0,0.0,0.0,0.0
1729690928.2697408,1986,1729690928,269056952,base_link,-62000.0,398999.99999999994,-320000.00000000006,-1.0,0.0,0.0,0.0,0.0,0.0,0.0,0.0,0.0
1729690928.3680115,1987,1729690928,367423784,base_link,-65000.0,408999.99999999994,-324000.00000000006,-1.0,0.0,0.0,0.0,0.0,0.0,0.0,0.0,0.0
1729690928.47155,1988,1729690928,469685664,base_link,-53000.0,394999.99999999994,-311000.00000000006,-1.0,0.0,0.0,0.0,0.0,0.0,0.0,0.0,0.0
1729690928.576408,1989,1729690928,574541240,base_link,-44000.0,396999.99999999994,-292000.00000000006,-1.0,0.0,0.0,0.0,0.0,0.0,0.0,0.0,0.0
1729690928.6720636,1990,1729690928,669505240,base_link,-100000.0,409999.99999999994,-313000.00000000006,-1.0,0.0,0.0,0.0,0.0,0.0,0.0,0.0,0.0
1729690928.778374,1991,1729690928,777100720,base_link,-105000.0,415999.99999999994,-289000.00000000006,-1.0,0.0,0.0,0.0,0.0,0.0,0.0,0.0,0.0
1729690928.8777301,1992,1729690928,876581600,base_link,-105000.0,422999.99999999994,-288000.00000000006,-1.0,0.0,0.0,0.0,0.0,0.0,0.0,0.0,0.0
1729690928.977028,1993,1729690928,976174248,base_link,-82000.0,399999.99999999994,-291000.00000000006,-1.0,0.0,0.0,0.0,0.0,0.0,0.0,0.0,0.0
1729690929.0798688,1994,1729690929,78807384,base_link,-54000.0,390999.99999999994,-281000.00000000006,-1.0,0.0,0.0,0.0,0.0,0.0,0.0,0.0,0.0
1729690929.1802292,1995,1729690929,179503152,base_link,-76000.0,376999.99999999994,-320000.00000000006,-1.0,0.0,0.0,0.0,0.0,0.0,0.0,0.0,0.0
1729690929.2702553,1996,1729690929,268658152,base_link,-82000.0,390999.99999999994,-298000.00000000006,-1.0,0.0,0.0,0.0,0.0,0.0,0.0,0.0,0.0
1729690929.3700266,1997,1729690929,368734152,base_link,-57000.0,373999.99999999994,-310000.00000000006,-1.0,0.0,0.0,0.0,0.0,0.0,0.0,0.0,0.0
1729690929.4690402,1998,1729690929,468506152,base_link,-114000.0,427999.99999999994,-310000.00000000006,-1.0,0.0,0.0,0.0,0.0,0.0,0.0,0.0,0.0
1729690929.5702581,1999,1729690929,568685152,base_link,-96000.0,401999.99999999994,-309000.00000000006,-1.0,0.0,0.0,0.0,0.0,0.0,0.0,0.0,0.0
1729690929.6724186,2000,1729690929,671351872,base_link,-91000.0,398999.99999999994,-296000.00000000006,-1.0,0.0,0.0,0.0,0.0,0.0,0.0,0.0,0.0
1729690929.774442,2001,1729690929,773367984,base_link,-89000.0,418999.99999999994,-294000.00000000006,-1.0,0.0,0.0,0.0,0.0,0.0,0.0,0.0,0.0
1729690929.8719625,2002,1729690929,870466864,base_link,-59000.0,405999.99999999994,-290000.00000000006,-1.0,0.0,0.0,0.0,0.0,0.0,0.0,0.0,0.0
1729690929.9725225,2003,1729690929,970627208,base_link,-78000.0,404999.99999999994,-287000.00000000006,-1.0,0.0,0.0,0.0,0.0,0.0,0.0,0.0,0.0
1729690930.0697901,2004,1729690930,68151952,base_link,-103000.0,425999.99999999994,-311000.00000000006,-1.0,0.0,0.0,0.0,0.0,0.0,0.0,0.0,0.0
1729690930.1772335,2005,1729690930,175591968,base_link,-77000.0,405999.99999999994,-318000.00000000006,-1.0,0.0,0.0,0.0,0.0,0.0,0.0,0.0,0.0
1729690930.2713983,2006,1729690930,270359968,base_link,-63000.0,402999.99999999994,-322000.00000000006,-1.0,0.0,0.0,0.0,0.0,0.0,0.0,0.0,0.0
1729690930.3697102,2007,1729690930,368163592,base_link,-69000.0,395999.99999999994,-306000.00000000006,-1.0,0.0,0.0,0.0,0.0,0.0,0.0,0.0,0.0
1729690930.4697201,2008,1729690930,468222984,base_link,-81000.0,410999.99999999994,-295000.00000000006,-1.0,0.0,0.0,0.0,0.0,0.0,0.0,0.0,0.0
1729690930.5734186,2009,1729690930,570938120,base_link,-100000.0,418999.99999999994,-292000.00000000006,-1.0,0.0,0.0,0.0,0.0,0.0,0.0,0.0,0.0
1729690930.6705043,2010,1729690930,668905000,base_link,-107000.0,415999.99999999994,-290000.00000000006,-1.0,0.0,0.0,0.0,0.0,0.0,0.0,0.0,0.0
1729690930.7697275,2011,1729690930,768198392,base_link,-107000.0,415999.99999999994,-290000.00000000006,-1.0,0.0,0.0,0.0,0.0,0.0,0.0,0.0,0.0
1729690930.8718376,2012,1729690930,870420664,base_link,-92000.0,405999.99999999994,-292000.00000000006,-1.0,0.0,0.0,0.0,0.0,0.0,0.0,0.0,0.0
1729690930.9714427,2013,1729690930,970339640,base_link,-69000.0,412999.99999999994,-292000.00000000006,-1.0,0.0,0.0,0.0,0.0,0.0,0.0,0.0,0.0
1729690931.070436,2014,1729690931,69914824,base_link,-72000.0,404999.99999999994,-305000.00000000006,-1.0,0.0,0.0,0.0,0.0,0.0,0.0,0.0,0.0
1729690931.1715708,2015,1729690931,170067728,base_link,-61000.0,388999.99999999994,-311000.00000000006,-1.0,0.0,0.0,0.0,0.0,0.0,0.0,0.0,0.0
1729690931.2710128,2016,1729690931,269484608,base_link,-71000.0,394999.99999999994,-285000.00000000006,-1.0,0.0,0.0,0.0,0.0,0.0,0.0,0.0,0.0
1729690931.3685474,2017,1729690931,367187536,base_link,-80000.0,389999.99999999994,-312000.00000000006,-1.0,0.0,0.0,0.0,0.0,0.0,0.0,0.0,0.0
1729690931.4706035,2018,1729690931,469500696,base_link,-88000.0,390999.99999999994,-338000.00000000006,-1.0,0.0,0.0,0.0,0.0,0.0,0.0,0.0,0.0
1729690931.575475,2019,1729690931,574892408,base_link,-82000.0,387999.99999999994,-306000.00000000006,-1.0,0.0,0.0,0.0,0.0,0.0,0.0,0.0,0.0
1729690931.6689148,2020,1729690931,667123408,base_link,-85000.0,403999.99999999994,-314000.00000000006,-1.0,0.0,0.0,0.0,0.0,0.0,0.0,0.0,0.0
1729690931.7688987,2021,1729690931,767598080,base_link,-62000.0,396999.99999999994,-306000.00000000006,-1.0,0.0,0.0,0.0,0.0,0.0,0.0,0.0,0.0
1729690931.8709223,2022,1729690931,869969216,base_link,-69000.0,397999.99999999994,-288000.00000000006,-1.0,0.0,0.0,0.0,0.0,0.0,0.0,0.0,0.0
1729690931.9704604,2023,1729690931,969697376,base_link,-80000.0,427999.99999999994,-291000.00000000006,-1.0,0.0,0.0,0.0,0.0,0.0,0.0,0.0,0.0
