Time,header.seq,header.stamp.secs,header.stamp.nsecs,header.frame_id,status.status,status.service,latitude,longitude,altitude,position_covariance_0,position_covariance_1,position_covariance_2,position_covariance_3,position_covariance_4,position_covariance_5,position_covariance_6,position_covariance_7,position_covariance_8,position_covariance_type
1729690891.1174521,1598,1729690889,200123008,base_link,0,1,33.6370632,72.9913107,505.78588562222086,1.8496000000000004,0.0,0.0,0.0,1.8496000000000004,0.0,0.0,0.0,2.965284,2
1729690891.117587,1599,1729690889,200123008,base_link,0,1,33.6370632,72.9913107,505.78588562222086,1.8496000000000004,0.0,0.0,0.0,1.8496000000000004,0.0,0.0,0.0,2.965284,2
1729690891.1176887,1600,1729690889,400123008,base_link,0,1,33.6370637,72.9913117,505.7158926584834,1.841449,0.0,0.0,0.0,1.841449,0.0,0.0,0.0,2.968729,2
1729690891.1177828,1601,1729690889,400123008,base_link,0,1,33.6370637,72.9913117,505.7158926584834,1.841449,0.0,0.0,0.0,1.841449,0.0,0.0,0.0,2.968729,2
1729690891.117929,1602,1729690889,600123008,base_link,0,1,33.6370647,72.991313,505.6759039508743,1.836025,0.0,0.0,0.0,1.836025,0.0,0.0,0.0,2.9721759999999997,2
1729690891.1183333,1603,1729690889,600123008,base_link,0,1,33.6370647,72.991313,505.6759039508743,1.836025,0.0,0.0,0.0,1.836025,0.0,0.0,0.0,2.9721759999999997,2
1729690891.1186223,1604,1729690889,800123008,base_link,0,1,33.6370666,72.9913145,505.5559215539629,1.830609,0.0,0.0,0.0,1.830609,0.0,0.0,0.0,2.9549610000000004,2
1729690891.1187344,1605,1729690889,800123008,base_link,0,1,33.6370666,72.9913145,505.5559215539629,1.830609,0.0,0.0,0.0,1.830609,0.0,0.0,0.0,2.9549610000000004,2
1729690891.119496,1606,1729690890,123008,base_link,0,1,33.6370695,72.9913164,505.46594687508747,1.819801,0.0,0.0,0.0,1.819801,0.0,0.0,0.0,2.937796,2
1729690891.119608,1607,1729690890,123008,base_link,0,1,33.6370695,72.9913164,505.46594687508747,1.819801,0.0,0.0,0.0,1.819801,0.0,0.0,0.0,2.937796,2
1729690891.1199553,1608,1729690890,200123008,base_link,0,1,33.6370731,72.9913185,505.4259772812243,1.8117160000000003,0.0,0.0,0.0,1.8117160000000003,0.0,0.0,0.0,2.937796,2
1729690891.1201704,1609,1729690890,200123008,base_link,0,1,33.6370731,72.9913185,505.4259772812243,1.8117160000000003,0.0,0.0,0.0,1.8117160000000003,0.0,0.0,0.0,2.937796,2
1729690891.120442,1610,1729690890,400123008,base_link,0,1,33.6370769,72.9913205,505.4160085162574,1.8090249999999999,0.0,0.0,0.0,1.8090249999999999,0.0,0.0,0.0,2.9446559999999997,2
1729690891.1206,1611,1729690890,400123008,base_link,0,1,33.6370769,72.9913205,505.4160085162574,1.8090249999999999,0.0,0.0,0.0,1.8090249999999999,0.0,0.0,0.0,2.9446559999999997,2
1729690891.1211622,1612,1729690890,600123008,base_link,0,1,33.6370808,72.9913223,505.4060395700879,1.8063360000000002,0.0,0.0,0.0,1.8063360000000002,0.0,0.0,0.0,2.951524,2
1729690891.1215093,1613,1729690890,600123008,base_link,0,1,33.6370808,72.9913223,505.4060395700879,1.8063360000000002,0.0,0.0,0.0,1.8063360000000002,0.0,0.0,0.0,2.951524,2
1729690891.1255267,1614,1729690890,800123008,base_link,0,1,33.6370847,72.9913236,505.3960686382375,1.8036489999999998,0.0,0.0,0.0,1.8036489999999998,0.0,0.0,0.0,2.9583999999999997,2
1729690891.1259136,1615,1729690890,800123008,base_link,0,1,33.6370847,72.9913236,505.3960686382375,1.8036489999999998,0.0,0.0,0.0,1.8036489999999998,0.0,0.0,0.0,2.9583999999999997,2
1729690891.1261764,1616,1729690891,123008,base_link,0,1,33.6370882,72.9913243,505.3760928716942,1.7956000000000003,0.0,0.0,0.0,1.7956000000000003,0.0,0.0,0.0,2.961841,2
1729690891.1690962,1617,1729690891,123008,base_link,0,1,33.6370882,72.9913243,505.3760928716942,1.7956000000000003,0.0,0.0,0.0,1.7956000000000003,0.0,0.0,0.0,2.961841,2
1729690891.2667093,1618,1729690891,200123008,base_link,0,1,33.6370916,72.9913244,505.3561141092473,1.7848960000000003,0.0,0.0,0.0,1.7848960000000003,0.0,0.0,0.0,2.965284,2
1729690891.3750331,1619,1729690891,200123008,base_link,0,1,33.6370916,72.9913244,505.3561141092473,1.7848960000000003,0.0,0.0,0.0,1.7848960000000003,0.0,0.0,0.0,2.965284,2
1729690891.4658794,1620,1729690891,400123008,base_link,0,1,33.6370946,72.9913241,505.27613130635433,1.776889,0.0,0.0,0.0,1.776889,0.0,0.0,0.0,2.9756250000000004,2
1729690891.5718741,1621,1729690891,400123008,base_link,0,1,33.6370946,72.9913241,505.27613130635433,1.776889,0.0,0.0,0.0,1.776889,0.0,0.0,0.0,2.9756250000000004,2
1729690891.6635993,1622,1729690891,600121216,base_link,0,1,33.6370971,72.9913234,505.2261438500119,1.771561,0.0,0.0,0.0,1.771561,0.0,0.0,0.0,2.9859839999999997,2
1729690891.7630308,1623,1729690891,600119424,base_link,0,1,33.6370971,72.9913234,505.2261438500119,1.771561,0.0,0.0,0.0,1.771561,0.0,0.0,0.0,2.9859839999999997,2
1729690891.8620684,1624,1729690891,800119424,base_link,0,1,33.6370993,72.9913224,505.186153363282,1.7635840000000003,0.0,0.0,0.0,1.7635840000000003,0.0,0.0,0.0,2.999824,2
1729690891.9599233,1625,1729690891,800115584,base_link,0,1,33.6370993,72.9913224,505.186153363282,1.7635840000000003,0.0,0.0,0.0,1.7635840000000003,0.0,0.0,0.0,2.999824,2
1729690892.0615957,1626,1729690892,113536,base_link,0,1,33.6371014,72.9913209,505.1061602776993,1.755625,0.0,0.0,0.0,1.755625,0.0,0.0,0.0,3.0032890000000005,2
1729690892.1598663,1627,1729690892,113280,base_link,0,1,33.6371014,72.9913209,505.1061602776993,1.755625,0.0,0.0,0.0,1.755625,0.0,0.0,0.0,3.0032890000000005,2
1729690892.2600777,1628,1729690892,200113024,base_link,0,1,33.6371031,72.9913192,505.06616394591794,1.7503289999999998,0.0,0.0,0.0,1.7503289999999998,0.0,0.0,0.0,3.010225,2
1729690892.3597267,1629,1729690892,200112768,base_link,0,1,33.6371031,72.9913192,505.06616394591794,1.7503289999999998,0.0,0.0,0.0,1.7503289999999998,0.0,0.0,0.0,3.010225,2
1729690892.461325,1630,1729690892,400112768,base_link,0,1,33.6371045,72.9913172,504.9961645837048,1.7450409999999998,0.0,0.0,0.0,1.7450409999999998,0.0,0.0,0.0,3.0241210000000005,2
1729690892.5634763,1631,1729690892,400113024,base_link,0,1,33.6371045,72.9913172,504.9961645837048,1.7450409999999998,0.0,0.0,0.0,1.7450409999999998,0.0,0.0,0.0,3.0241210000000005,2
1729690892.6670728,1632,1729690892,600113792,base_link,0,1,33.6371055,72.9913151,504.966162372461,1.7424000000000002,0.0,0.0,0.0,1.7424000000000002,0.0,0.0,0.0,3.0380490000000004,2
1729690892.7622557,1633,1729690892,600114560,base_link,0,1,33.6371055,72.9913151,504.966162372461,1.7424000000000002,0.0,0.0,0.0,1.7424000000000002,0.0,0.0,0.0,3.0380490000000004,2
1729690892.8627603,1634,1729690892,800113792,base_link,0,1,33.637106,72.991313,504.90615709640906,1.7424000000000002,0.0,0.0,0.0,1.7424000000000002,0.0,0.0,0.0,3.0520090000000004,2
1729690892.9732945,1635,1729690892,800113280,base_link,0,1,33.637106,72.991313,504.90615709640906,1.7424000000000002,0.0,0.0,0.0,1.7424000000000002,0.0,0.0,0.0,3.0520090000000004,2
1729690893.0706847,1636,1729690893,113280,base_link,0,1,33.637106,72.9913111,504.85614954992263,1.7476840000000002,0.0,0.0,0.0,1.7476840000000002,0.0,0.0,0.0,3.0660009999999995,2
1729690893.165995,1637,1729690893,113280,base_link,0,1,33.637106,72.9913111,504.85614954992263,1.7476840000000002,0.0,0.0,0.0,1.7476840000000002,0.0,0.0,0.0,3.0660009999999995,2
1729690893.2617557,1638,1729690893,200113280,base_link,0,1,33.6371056,72.9913093,504.8061399487881,1.752976,0.0,0.0,0.0,1.752976,0.0,0.0,0.0,3.0870489999999995,2
1729690893.3633137,1639,1729690893,200113536,base_link,0,1,33.6371056,72.9913093,504.8061399487881,1.752976,0.0,0.0,0.0,1.752976,0.0,0.0,0.0,3.0870489999999995,2
1729690893.460519,1640,1729690893,400110720,base_link,0,1,33.6371051,72.9913079,504.756131323439,1.760929,0.0,0.0,0.0,1.760929,0.0,0.0,0.0,3.1081689999999997,2
1729690893.5605304,1641,1729690893,400110464,base_link,0,1,33.6371051,72.9913079,504.756131323439,1.760929,0.0,0.0,0.0,1.760929,0.0,0.0,0.0,3.1081689999999997,2
1729690893.6606483,1642,1729690893,600110208,base_link,0,1,33.6371041,72.9913066,504.6961200304976,1.7689000000000001,0.0,0.0,0.0,1.7689000000000001,0.0,0.0,0.0,3.122289,2
1729690893.763589,1643,1729690893,600110464,base_link,0,1,33.6371041,72.9913066,504.6961200304976,1.7689000000000001,0.0,0.0,0.0,1.7689000000000001,0.0,0.0,0.0,3.122289,2
1729690893.8610365,1644,1729690893,800109696,base_link,0,1,33.6371026,72.9913051,504.6561048784425,1.776889,0.0,0.0,0.0,1.776889,0.0,0.0,0.0,3.1364409999999996,2
1729690893.9608965,1645,1729690893,800108672,base_link,0,1,33.6371026,72.9913051,504.6561048784425,1.776889,0.0,0.0,0.0,1.776889,0.0,0.0,0.0,3.1364409999999996,2
1729690894.0630293,1646,1729690894,108160,base_link,0,1,33.637101,72.9913038,504.6660899078378,1.7848960000000003,0.0,0.0,0.0,1.7848960000000003,0.0,0.0,0.0,3.154176,2
1729690894.161574,1647,1729690894,109440,base_link,0,1,33.637101,72.9913038,504.6660899078378,1.7848960000000003,0.0,0.0,0.0,1.7848960000000003,0.0,0.0,0.0,3.154176,2
1729690894.2671306,1648,1729690894,200109696,base_link,0,1,33.6370996,72.9913029,504.65607775189454,1.792921,0.0,0.0,0.0,1.792921,0.0,0.0,0.0,3.179089,2
1729690894.3630865,1649,1729690894,200109440,base_link,0,1,33.6370996,72.9913029,504.65607775189454,1.792921,0.0,0.0,0.0,1.792921,0.0,0.0,0.0,3.179089,2
1729690894.464179,1650,1729690894,400107648,base_link,0,1,33.637098,72.9913026,504.6260667531487,1.8009640000000002,0.0,0.0,0.0,1.8009640000000002,0.0,0.0,0.0,3.1933689999999997,2
1729690894.563941,1651,1729690894,400108672,base_link,0,1,33.637098,72.9913026,504.6260667531487,1.8009640000000002,0.0,0.0,0.0,1.8009640000000002,0.0,0.0,0.0,3.1933689999999997,2
1729690894.665222,1652,1729690894,600106112,base_link,0,1,33.6370963,72.9913029,504.6460575245442,1.8090249999999999,0.0,0.0,0.0,1.8090249999999999,0.0,0.0,0.0,3.2041,2
1729690894.7644558,1653,1729690894,600105600,base_link,0,1,33.6370963,72.9913029,504.6460575245442,1.8090249999999999,0.0,0.0,0.0,1.8090249999999999,0.0,0.0,0.0,3.2041,2
1729690894.8637834,1654,1729690894,800105344,base_link,0,1,33.6370953,72.9913037,504.6460545724777,1.8171040000000003,0.0,0.0,0.0,1.8171040000000003,0.0,0.0,0.0,3.218436,2
1729690894.966105,1655,1729690894,800103552,base_link,0,1,33.6370953,72.9913037,504.6460545724777,1.8171040000000003,0.0,0.0,0.0,1.8171040000000003,0.0,0.0,0.0,3.218436,2
1729690895.0601745,1656,1729690895,103552,base_link,0,1,33.6370947,72.9913046,504.66605446938206,1.8252009999999999,0.0,0.0,0.0,1.8252009999999999,0.0,0.0,0.0,3.2292089999999996,2
1729690895.1801434,1657,1729690895,101504,base_link,0,1,33.6370947,72.9913046,504.66605446938206,1.8252009999999999,0.0,0.0,0.0,1.8252009999999999,0.0,0.0,0.0,3.2292089999999996,2
1729690895.26265,1658,1729690895,200102016,base_link,0,1,33.6370944,72.9913058,504.7360573966613,1.8387360000000001,0.0,0.0,0.0,1.8387360000000001,0.0,0.0,0.0,3.243601,2
1729690895.3624196,1659,1729690895,200101248,base_link,0,1,33.6370944,72.9913058,504.7360573966613,1.8387360000000001,0.0,0.0,0.0,1.8387360000000001,0.0,0.0,0.0,3.243601,2
1729690895.4643397,1660,1729690895,400102528,base_link,0,1,33.6370942,72.9913073,504.79606212842157,1.8496000000000004,0.0,0.0,0.0,1.8496000000000004,0.0,0.0,0.0,3.258025,2
1729690895.5614963,1661,1729690895,400100736,base_link,0,1,33.6370942,72.9913073,504.79606212842157,1.8496000000000004,0.0,0.0,0.0,1.8496000000000004,0.0,0.0,0.0,3.258025,2
1729690895.6644256,1662,1729690895,600098944,base_link,0,1,33.6370944,72.9913087,504.9060689148042,1.857769,0.0,0.0,0.0,1.857769,0.0,0.0,0.0,3.272481,2
1729690895.7642884,1663,1729690895,600097408,base_link,0,1,33.6370944,72.9913087,504.9060689148042,1.857769,0.0,0.0,0.0,1.857769,0.0,0.0,0.0,3.272481,2
1729690895.8653886,1664,1729690895,800098432,base_link,0,1,33.6370951,72.9913101,505.10607876594605,1.8659560000000004,0.0,0.0,0.0,1.8659560000000004,0.0,0.0,0.0,3.283344,2
1729690895.9626563,1665,1729690895,800093056,base_link,0,1,33.6370951,72.9913101,505.10607876594605,1.8659560000000004,0.0,0.0,0.0,1.8659560000000004,0.0,0.0,0.0,3.283344,2
1729690896.0593913,1666,1729690896,88704,base_link,0,1,33.637096,72.9913114,505.2560894458301,1.8714240000000002,0.0,0.0,0.0,1.8714240000000002,0.0,0.0,0.0,3.294225,2
1729690896.1626456,1667,1729690896,86144,base_link,0,1,33.637096,72.9913114,505.2560894458301,1.8714240000000002,0.0,0.0,0.0,1.8714240000000002,0.0,0.0,0.0,3.294225,2
1729690896.2615983,1668,1729690896,200084608,base_link,0,1,33.6370971,72.9913126,505.38610095446256,1.879641,0.0,0.0,0.0,1.879641,0.0,0.0,0.0,3.316041,2
1729690896.360136,1669,1729690896,200080512,base_link,0,1,33.6370971,72.9913126,505.38610095446256,1.879641,0.0,0.0,0.0,1.879641,0.0,0.0,0.0,3.316041,2
1729690896.4602118,1670,1729690896,400080000,base_link,0,1,33.6370983,72.9913136,505.51611228171464,1.885129,0.0,0.0,0.0,1.885129,0.0,0.0,0.0,3.326976,2
1729690896.559605,1671,1729690896,400079232,base_link,0,1,33.6370983,72.9913136,505.51611228171464,1.885129,0.0,0.0,0.0,1.885129,0.0,0.0,0.0,3.326976,2
1729690896.6608334,1672,1729690896,600078720,base_link,0,1,33.6370993,72.9913148,505.67612317744187,1.885129,0.0,0.0,0.0,1.885129,0.0,0.0,0.0,3.341584,2
1729690896.7617404,1673,1729690896,600078464,base_link,0,1,33.6370993,72.9913148,505.67612317744187,1.885129,0.0,0.0,0.0,1.885129,0.0,0.0,0.0,3.341584,2
1729690896.8652894,1674,1729690896,800076160,base_link,0,1,33.6371004,72.9913159,505.80613428896766,1.8878760000000003,0.0,0.0,0.0,1.8878760000000003,0.0,0.0,0.0,3.3525609999999997,2
1729690896.9826086,1675,1729690896,800070016,base_link,0,1,33.6371004,72.9913159,505.80613428896766,1.8878760000000003,0.0,0.0,0.0,1.8878760000000003,0.0,0.0,0.0,3.3525609999999997,2
1729690897.0627391,1676,1729690897,66432,base_link,0,1,33.6371015,72.9913167,505.94614420896954,1.8878760000000003,0.0,0.0,0.0,1.8878760000000003,0.0,0.0,0.0,3.367225,2
1729690897.1626484,1677,1729690897,66432,base_link,0,1,33.6371015,72.9913167,505.94614420896954,1.8878760000000003,0.0,0.0,0.0,1.8878760000000003,0.0,0.0,0.0,3.367225,2
1729690897.2603467,1678,1729690897,200064896,base_link,0,1,33.6371026,72.9913174,506.0961537318082,1.890625,0.0,0.0,0.0,1.890625,0.0,0.0,0.0,3.3782440000000005,2
1729690897.361711,1679,1729690897,200064896,base_link,0,1,33.6371026,72.9913174,506.0961537318082,1.890625,0.0,0.0,0.0,1.890625,0.0,0.0,0.0,3.3782440000000005,2
1729690897.4610162,1680,1729690897,400067712,base_link,0,1,33.6371036,72.9913178,506.2361614501523,1.8878760000000003,0.0,0.0,0.0,1.8878760000000003,0.0,0.0,0.0,3.3856,2
1729690897.563268,1681,1729690897,400065664,base_link,0,1,33.6371036,72.9913178,506.2361614501523,1.8878760000000003,0.0,0.0,0.0,1.8878760000000003,0.0,0.0,0.0,3.3856,2
1729690897.6603715,1682,1729690897,600065920,base_link,0,1,33.6371044,72.991318,506.32616714821546,1.8823840000000003,0.0,0.0,0.0,1.8823840000000003,0.0,0.0,0.0,3.4003360000000002,2
1729690897.7630022,1683,1729690897,600066688,base_link,0,1,33.6371044,72.991318,506.32616714821546,1.8823840000000003,0.0,0.0,0.0,1.8823840000000003,0.0,0.0,0.0,3.4003360000000002,2
1729690897.8621612,1684,1729690897,800068992,base_link,0,1,33.6371049,72.9913182,506.49617100739704,1.8769000000000002,0.0,0.0,0.0,1.8769000000000002,0.0,0.0,0.0,3.4151040000000004,2
1729690897.964298,1685,1729690897,800067712,base_link,0,1,33.6371049,72.9913182,506.49617100739704,1.8769000000000002,0.0,0.0,0.0,1.8769000000000002,0.0,0.0,0.0,3.4151040000000004,2
1729690898.0615556,1686,1729690898,67968,base_link,0,1,33.6371052,72.9913181,506.56617244910143,1.874161,0.0,0.0,0.0,1.874161,0.0,0.0,0.0,3.4151040000000004,2
1729690898.1635683,1687,1729690898,66432,base_link,0,1,33.6371052,72.9913181,506.56617244910143,1.874161,0.0,0.0,0.0,1.874161,0.0,0.0,0.0,3.4151040000000004,2
1729690898.261444,1688,1729690898,200071040,base_link,0,1,33.6371054,72.9913185,506.6561752637666,1.8659560000000004,0.0,0.0,0.0,1.8659560000000004,0.0,0.0,0.0,3.411409,2
1729690898.3639066,1689,1729690898,200070528,base_link,0,1,33.6371054,72.9913185,506.6561752637666,1.8659560000000004,0.0,0.0,0.0,1.8659560000000004,0.0,0.0,0.0,3.411409,2
1729690898.462643,1690,1729690898,400071040,base_link,0,1,33.6371055,72.9913184,506.68617547954517,1.8604960000000004,0.0,0.0,0.0,1.8604960000000004,0.0,0.0,0.0,3.411409,2
1729690898.5626888,1691,1729690898,400067968,base_link,0,1,33.6371055,72.9913184,506.68617547954517,1.8604960000000004,0.0,0.0,0.0,1.8604960000000004,0.0,0.0,0.0,3.411409,2
1729690898.6618483,1692,1729690898,600065664,base_link,0,1,33.6371054,72.9913181,506.7361736750279,1.8523209999999999,0.0,0.0,0.0,1.8523209999999999,0.0,0.0,0.0,3.4151040000000004,2
1729690898.7658455,1693,1729690898,600065664,base_link,0,1,33.6371054,72.9913181,506.7361736750279,1.8523209999999999,0.0,0.0,0.0,1.8523209999999999,0.0,0.0,0.0,3.4151040000000004,2
1729690898.8634946,1694,1729690898,800066432,base_link,0,1,33.6371052,72.9913181,506.7561724491015,1.8441640000000004,0.0,0.0,0.0,1.8441640000000004,0.0,0.0,0.0,3.4225000000000003,2
1729690898.960929,1695,1729690898,800066176,base_link,0,1,33.6371052,72.9913181,506.7561724491015,1.8441640000000004,0.0,0.0,0.0,1.8441640000000004,0.0,0.0,0.0,3.4225000000000003,2
1729690899.0677843,1696,1729690899,61056,base_link,0,1,33.637105,72.9913179,506.7361704288066,1.836025,0.0,0.0,0.0,1.836025,0.0,0.0,0.0,3.426201,2
1729690899.1632953,1697,1729690899,60032,base_link,0,1,33.637105,72.9913179,506.7361704288066,1.836025,0.0,0.0,0.0,1.836025,0.0,0.0,0.0,3.426201,2
1729690899.2622132,1698,1729690899,200062080,base_link,0,1,33.6371047,72.9913176,506.7061673983657,1.830609,0.0,0.0,0.0,1.830609,0.0,0.0,0.0,3.433609,2
1729690899.3619506,1699,1729690899,200059520,base_link,0,1,33.6371047,72.9913176,506.7061673983657,1.830609,0.0,0.0,0.0,1.830609,0.0,0.0,0.0,3.433609,2
1729690899.4606528,1700,1729690899,400052864,base_link,0,1,33.6371042,72.9913172,506.66616274481896,1.8225000000000002,0.0,0.0,0.0,1.8225000000000002,0.0,0.0,0.0,3.433609,2
1729690899.5597415,1701,1729690899,400048768,base_link,0,1,33.6371042,72.9913172,506.66616274481896,1.8225000000000002,0.0,0.0,0.0,1.8225000000000002,0.0,0.0,0.0,3.433609,2
1729690899.664689,1702,1729690899,600048512,base_link,0,1,33.6371038,72.991317,506.6261594986051,1.819801,0.0,0.0,0.0,1.819801,0.0,0.0,0.0,3.4373160000000005,2
1729690899.764613,1703,1729690899,600049536,base_link,0,1,33.6371038,72.991317,506.6261594986051,1.819801,0.0,0.0,0.0,1.819801,0.0,0.0,0.0,3.4373160000000005,2
1729690899.8616316,1704,1729690899,800051072,base_link,0,1,33.6371033,72.9913167,506.6261552422491,1.8171040000000003,0.0,0.0,0.0,1.8171040000000003,0.0,0.0,0.0,3.4447360000000002,2
1729690899.9647942,1705,1729690899,800050048,base_link,0,1,33.6371033,72.9913167,506.6261552422491,1.8171040000000003,0.0,0.0,0.0,1.8171040000000003,0.0,0.0,0.0,3.4447360000000002,2
1729690900.0640109,1706,1729690900,50048,base_link,0,1,33.6371029,72.9913164,506.6261515988572,1.819801,0.0,0.0,0.0,1.819801,0.0,0.0,0.0,3.448449,2
1729690900.1601598,1707,1729690900,47488,base_link,0,1,33.6371029,72.9913164,506.6261515988572,1.819801,0.0,0.0,0.0,1.819801,0.0,0.0,0.0,3.448449,2
1729690900.265724,1708,1729690900,200043648,base_link,0,1,33.6371025,72.991316,506.606147558285,1.819801,0.0,0.0,0.0,1.819801,0.0,0.0,0.0,3.448449,2
1729690900.3609438,1709,1729690900,200039808,base_link,0,1,33.6371025,72.991316,506.606147558285,1.819801,0.0,0.0,0.0,1.819801,0.0,0.0,0.0,3.448449,2
1729690900.4638116,1710,1729690900,400037248,base_link,0,1,33.6371022,72.9913156,506.6061441306752,1.8225000000000002,0.0,0.0,0.0,1.8225000000000002,0.0,0.0,0.0,3.4521640000000002,2
1729690900.5620732,1711,1729690900,400029568,base_link,0,1,33.6371022,72.9913156,506.6061441306752,1.8225000000000002,0.0,0.0,0.0,1.8225000000000002,0.0,0.0,0.0,3.4521640000000002,2
1729690900.6607656,1712,1729690900,600029568,base_link,0,1,33.6371019,72.9913152,506.5961407030677,1.8225000000000002,0.0,0.0,0.0,1.8225000000000002,0.0,0.0,0.0,3.4558809999999998,2
1729690900.764776,1713,1729690900,600042880,base_link,0,1,33.6371019,72.9913152,506.5961407030677,1.8225000000000002,0.0,0.0,0.0,1.8225000000000002,0.0,0.0,0.0,3.4558809999999998,2
1729690900.8674562,1714,1729690900,800037248,base_link,0,1,33.6371015,72.9913148,506.56613666250394,1.8225000000000002,0.0,0.0,0.0,1.8225000000000002,0.0,0.0,0.0,3.4521640000000002,2
1729690900.9657688,1715,1729690900,800037248,base_link,0,1,33.6371015,72.9913148,506.56613666250394,1.8225000000000002,0.0,0.0,0.0,1.8225000000000002,0.0,0.0,0.0,3.4521640000000002,2
1729690901.063082,1716,1729690901,37248,base_link,0,1,33.6371014,72.9913143,506.5661340636352,1.8225000000000002,0.0,0.0,0.0,1.8225000000000002,0.0,0.0,0.0,3.4521640000000002,2
1729690901.1652017,1717,1729690901,39808,base_link,0,1,33.6371014,72.9913143,506.5661340636352,1.8225000000000002,0.0,0.0,0.0,1.8225000000000002,0.0,0.0,0.0,3.4521640000000002,2
1729690901.2700262,1718,1729690901,200039808,base_link,0,1,33.6371014,72.9913138,506.5661320777254,1.8225000000000002,0.0,0.0,0.0,1.8225000000000002,0.0,0.0,0.0,3.4558809999999998,2
1729690901.3679473,1719,1729690901,200043136,base_link,0,1,33.6371014,72.9913138,506.5661320777254,1.8225000000000002,0.0,0.0,0.0,1.8225000000000002,0.0,0.0,0.0,3.4558809999999998,2
1729690901.4726748,1720,1729690901,400041344,base_link,0,1,33.6371015,72.9913133,506.5461307047739,1.819801,0.0,0.0,0.0,1.819801,0.0,0.0,0.0,3.463321,2
1729690901.5673351,1721,1729690901,400041088,base_link,0,1,33.6371015,72.9913133,506.5461307047739,1.819801,0.0,0.0,0.0,1.819801,0.0,0.0,0.0,3.463321,2
1729690901.6714163,1722,1729690901,600043904,base_link,0,1,33.6371016,72.991313,506.5661301261861,1.8171040000000003,0.0,0.0,0.0,1.8171040000000003,0.0,0.0,0.0,3.4670440000000005,2
1729690901.7689884,1723,1729690901,600044928,base_link,0,1,33.6371016,72.991313,506.5661301261861,1.8171040000000003,0.0,0.0,0.0,1.8171040000000003,0.0,0.0,0.0,3.4670440000000005,2
1729690901.8693042,1724,1729690901,800045952,base_link,0,1,33.6371018,72.9913129,506.5861309549196,1.8117160000000003,0.0,0.0,0.0,1.8117160000000003,0.0,0.0,0.0,3.4707689999999998,2
1729690901.9648862,1725,1729690901,800045184,base_link,0,1,33.6371018,72.9913129,506.5861309549196,1.8117160000000003,0.0,0.0,0.0,1.8117160000000003,0.0,0.0,0.0,3.4707689999999998,2
1729690902.0630715,1726,1729690902,41856,base_link,0,1,33.637102,72.991313,506.61613257801747,1.8117160000000003,0.0,0.0,0.0,1.8117160000000003,0.0,0.0,0.0,3.4744960000000003,2
1729690902.1629252,1727,1729690902,41600,base_link,0,1,33.637102,72.991313,506.61613257801747,1.8117160000000003,0.0,0.0,0.0,1.8117160000000003,0.0,0.0,0.0,3.4744960000000003,2
1729690902.2632954,1728,1729690902,200040832,base_link,0,1,33.6371022,72.9913131,506.6461342011157,1.8090249999999999,0.0,0.0,0.0,1.8090249999999999,0.0,0.0,0.0,3.4744960000000003,2
1729690902.3622723,1729,1729690902,200042112,base_link,0,1,33.6371022,72.9913131,506.6461342011157,1.8090249999999999,0.0,0.0,0.0,1.8090249999999999,0.0,0.0,0.0,3.4744960000000003,2
1729690902.4647763,1730,1729690902,400039552,base_link,0,1,33.6371024,72.9913132,506.6761358242145,1.8090249999999999,0.0,0.0,0.0,1.8090249999999999,0.0,0.0,0.0,3.478225,2
1729690902.5656464,1731,1729690902,400039296,base_link,0,1,33.6371024,72.9913132,506.6761358242145,1.8090249999999999,0.0,0.0,0.0,1.8090249999999999,0.0,0.0,0.0,3.478225,2
1729690902.6630561,1732,1729690902,600039040,base_link,0,1,33.6371026,72.9913134,506.68613784449616,1.8090249999999999,0.0,0.0,0.0,1.8090249999999999,0.0,0.0,0.0,3.478225,2
1729690902.7638059,1733,1729690902,600038272,base_link,0,1,33.6371026,72.9913134,506.68613784449616,1.8090249999999999,0.0,0.0,0.0,1.8090249999999999,0.0,0.0,0.0,3.478225,2
1729690902.8651352,1734,1729690902,800037760,base_link,0,1,33.6371028,72.9913135,506.70613946759624,1.8063360000000002,0.0,0.0,0.0,1.8063360000000002,0.0,0.0,0.0,3.485689,2
1729690902.9621053,1735,1729690902,800036992,base_link,0,1,33.6371028,72.9913135,506.70613946759624,1.8063360000000002,0.0,0.0,0.0,1.8063360000000002,0.0,0.0,0.0,3.485689,2
1729690903.0603065,1736,1729690903,33408,base_link,0,1,33.6371028,72.9913137,506.7061402619612,1.8036489999999998,0.0,0.0,0.0,1.8036489999999998,0.0,0.0,0.0,3.4894240000000005,2
1729690903.164124,1737,1729690903,34176,base_link,0,1,33.6371028,72.9913137,506.7061402619612,1.8036489999999998,0.0,0.0,0.0,1.8036489999999998,0.0,0.0,0.0,3.4894240000000005,2
1729690903.2631967,1738,1729690903,200035968,base_link,0,1,33.6371028,72.9913138,506.6961406591437,1.798281,0.0,0.0,0.0,1.798281,0.0,0.0,0.0,3.493161,2
1729690903.3631833,1739,1729690903,200033920,base_link,0,1,33.6371028,72.9913138,506.6961406591437,1.798281,0.0,0.0,0.0,1.798281,0.0,0.0,0.0,3.493161,2
1729690903.4616144,1740,1729690903,400035456,base_link,0,1,33.6371026,72.9913139,506.69613983040813,1.7956000000000003,0.0,0.0,0.0,1.7956000000000003,0.0,0.0,0.0,3.500641,2
1729690903.5633864,1741,1729690903,400032640,base_link,0,1,33.6371026,72.9913139,506.69613983040813,1.7956000000000003,0.0,0.0,0.0,1.7956000000000003,0.0,0.0,0.0,3.500641,2
1729690903.6635365,1742,1729690903,600031360,base_link,0,1,33.6371025,72.9913139,506.66613921744926,1.7902440000000002,0.0,0.0,0.0,1.7902440000000002,0.0,0.0,0.0,3.5043840000000004,2
1729690903.7626805,1743,1729690903,600028032,base_link,0,1,33.6371025,72.9913139,506.66613921744926,1.7902440000000002,0.0,0.0,0.0,1.7902440000000002,0.0,0.0,0.0,3.5043840000000004,2
1729690903.861944,1744,1729690903,800025216,base_link,0,1,33.6371023,72.9913139,506.67613799153173,1.7848960000000003,0.0,0.0,0.0,1.7848960000000003,0.0,0.0,0.0,3.5118760000000004,2
1729690903.9623704,1745,1729690903,800024960,base_link,0,1,33.6371023,72.9913139,506.67613799153173,1.7848960000000003,0.0,0.0,0.0,1.7848960000000003,0.0,0.0,0.0,3.5118760000000004,2
1729690904.0617206,1746,1729690904,23168,base_link,0,1,33.6371021,72.9913141,506.6761375599791,1.7795560000000001,0.0,0.0,0.0,1.7795560000000001,0.0,0.0,0.0,3.515625,2
1729690904.1637876,1747,1729690904,22912,base_link,0,1,33.6371021,72.9913141,506.6761375599791,1.7795560000000001,0.0,0.0,0.0,1.7795560000000001,0.0,0.0,0.0,3.515625,2
1729690904.2624257,1748,1729690904,200024192,base_link,0,1,33.6371019,72.9913142,506.6461367312444,1.7795560000000001,0.0,0.0,0.0,1.7795560000000001,0.0,0.0,0.0,3.523129,2
1729690904.3653667,1749,1729690904,200021376,base_link,0,1,33.6371019,72.9913142,506.6461367312444,1.7795560000000001,0.0,0.0,0.0,1.7795560000000001,0.0,0.0,0.0,3.523129,2
1729690904.461556,1750,1729690904,400022912,base_link,0,1,33.6371018,72.9913143,506.60613651546817,1.7795560000000001,0.0,0.0,0.0,1.7795560000000001,0.0,0.0,0.0,3.530641,2
1729690904.5621693,1751,1729690904,400021888,base_link,0,1,33.6371018,72.9913143,506.60613651546817,1.7795560000000001,0.0,0.0,0.0,1.7795560000000001,0.0,0.0,0.0,3.530641,2
1729690904.6612427,1752,1729690904,600020096,base_link,0,1,33.6371017,72.9913143,506.59613590250984,1.776889,0.0,0.0,0.0,1.776889,0.0,0.0,0.0,3.5343999999999998,2
1729690904.765419,1753,1729690904,600020352,base_link,0,1,33.6371017,72.9913143,506.59613590250984,1.776889,0.0,0.0,0.0,1.776889,0.0,0.0,0.0,3.5343999999999998,2
1729690904.8644674,1754,1729690904,800017792,base_link,0,1,33.6371016,72.9913142,506.56613489236946,1.776889,0.0,0.0,0.0,1.776889,0.0,0.0,0.0,3.5419239999999994,2
1729690904.9604049,1755,1729690904,800017280,base_link,0,1,33.6371016,72.9913142,506.56613489236946,1.776889,0.0,0.0,0.0,1.776889,0.0,0.0,0.0,3.5419239999999994,2
1729690905.0624974,1756,1729690905,15744,base_link,0,1,33.6371015,72.9913141,506.52613388222926,1.776889,0.0,0.0,0.0,1.776889,0.0,0.0,0.0,3.5494559999999997,2
1729690905.1632617,1757,1729690905,16256,base_link,0,1,33.6371015,72.9913141,506.52613388222926,1.776889,0.0,0.0,0.0,1.776889,0.0,0.0,0.0,3.5494559999999997,2
1729690905.2630227,1758,1729690905,200017792,base_link,0,1,33.6371015,72.991314,506.47613348504734,1.776889,0.0,0.0,0.0,1.776889,0.0,0.0,0.0,3.556996,2
1729690905.365383,1759,1729690905,200017536,base_link,0,1,33.6371015,72.991314,506.47613348504734,1.776889,0.0,0.0,0.0,1.776889,0.0,0.0,0.0,3.556996,2
1729690905.4621203,1760,1729690905,400017280,base_link,0,1,33.6371013,72.9913139,506.4061318619495,1.776889,0.0,0.0,0.0,1.776889,0.0,0.0,0.0,3.560769,2
1729690905.5614047,1761,1729690905,400014464,base_link,0,1,33.6371013,72.9913139,506.4061318619495,1.776889,0.0,0.0,0.0,1.776889,0.0,0.0,0.0,3.560769,2
1729690905.6605904,1762,1729690905,600014208,base_link,0,1,33.6371013,72.9913137,506.36613106758585,1.7795560000000001,0.0,0.0,0.0,1.7795560000000001,0.0,0.0,0.0,3.568321,2
1729690905.762627,1763,1729690905,600015232,base_link,0,1,33.6371013,72.9913137,506.36613106758585,1.7795560000000001,0.0,0.0,0.0,1.7795560000000001,0.0,0.0,0.0,3.568321,2
1729690905.8643873,1764,1729690905,800013952,base_link,0,1,33.6371012,72.9913135,506.3161296602646,1.7795560000000001,0.0,0.0,0.0,1.7795560000000001,0.0,0.0,0.0,3.5721,2
1729690905.9640765,1765,1729690905,800014464,base_link,0,1,33.6371012,72.9913135,506.3161296602646,1.7795560000000001,0.0,0.0,0.0,1.7795560000000001,0.0,0.0,0.0,3.5721,2
1729690906.0623503,1766,1729690906,10624,base_link,0,1,33.6371012,72.9913133,506.27612886590117,1.7795560000000001,0.0,0.0,0.0,1.7795560000000001,0.0,0.0,0.0,3.575881,2
1729690906.1637576,1767,1729690906,11136,base_link,0,1,33.6371012,72.9913133,506.27612886590117,1.7795560000000001,0.0,0.0,0.0,1.7795560000000001,0.0,0.0,0.0,3.575881,2
1729690906.2645354,1768,1729690906,200018048,base_link,0,1,33.6371012,72.9913132,506.2561284687195,1.776889,0.0,0.0,0.0,1.776889,0.0,0.0,0.0,3.575881,2
1729690906.3608987,1769,1729690906,200019328,base_link,0,1,33.6371012,72.9913132,506.2561284687195,1.776889,0.0,0.0,0.0,1.776889,0.0,0.0,0.0,3.575881,2
1729690906.462363,1770,1729690906,400016256,base_link,0,1,33.6371014,72.9913133,506.2561300918162,1.7742240000000002,0.0,0.0,0.0,1.7742240000000002,0.0,0.0,0.0,3.575881,2
1729690906.5610828,1771,1729690906,400016512,base_link,0,1,33.6371014,72.9913133,506.2561300918162,1.7742240000000002,0.0,0.0,0.0,1.7742240000000002,0.0,0.0,0.0,3.575881,2
1729690906.6640038,1772,1729690906,600010624,base_link,0,1,33.6371015,72.9913133,506.20613070477384,1.7689000000000001,0.0,0.0,0.0,1.7689000000000001,0.0,0.0,0.0,3.5645439999999997,2
1729690906.7609577,1773,1729690906,600006784,base_link,0,1,33.6371015,72.9913133,506.20613070477384,1.7689000000000001,0.0,0.0,0.0,1.7689000000000001,0.0,0.0,0.0,3.5645439999999997,2
1729690906.867745,1774,1729690906,800004224,base_link,0,1,33.6371017,72.9913135,506.19613272505336,1.7635840000000003,0.0,0.0,0.0,1.7635840000000003,0.0,0.0,0.0,3.553225,2
1729690906.962545,1775,1729690906,799995520,base_link,0,1,33.6371017,72.9913135,506.19613272505336,1.7635840000000003,0.0,0.0,0.0,1.7635840000000003,0.0,0.0,0.0,3.553225,2
1729690907.0630596,1776,1729690906,999995520,base_link,0,1,33.6371018,72.9913137,506.14613413237544,1.7582760000000002,0.0,0.0,0.0,1.7582760000000002,0.0,0.0,0.0,3.5419239999999994,2
1729690907.1641247,1777,1729690906,999987584,base_link,0,1,33.6371018,72.9913137,506.14613413237544,1.7582760000000002,0.0,0.0,0.0,1.7582760000000002,0.0,0.0,0.0,3.5419239999999994,2
1729690907.2678618,1778,1729690907,199981952,base_link,0,1,33.6371018,72.9913139,506.11613492673956,1.755625,0.0,0.0,0.0,1.755625,0.0,0.0,0.0,3.5268839999999995,2
1729690907.365395,1779,1729690907,199976576,base_link,0,1,33.6371018,72.9913139,506.11613492673956,1.755625,0.0,0.0,0.0,1.755625,0.0,0.0,0.0,3.5268839999999995,2
1729690907.4675214,1780,1729690907,399973760,base_link,0,1,33.6371018,72.991314,506.0761353239217,1.7503289999999998,0.0,0.0,0.0,1.7503289999999998,0.0,0.0,0.0,3.515625,2
1729690907.5667832,1781,1729690907,399975552,base_link,0,1,33.6371018,72.991314,506.0761353239217,1.7503289999999998,0.0,0.0,0.0,1.7503289999999998,0.0,0.0,0.0,3.515625,2
1729690907.6698542,1782,1729690907,599972736,base_link,0,1,33.6371019,72.9913142,506.05613673124435,1.7476840000000002,0.0,0.0,0.0,1.7476840000000002,0.0,0.0,0.0,3.5043840000000004,2
1729690907.7710373,1783,1729690907,599974272,base_link,0,1,33.6371019,72.9913142,506.05613673124435,1.7476840000000002,0.0,0.0,0.0,1.7476840000000002,0.0,0.0,0.0,3.5043840000000004,2
1729690907.8696432,1784,1729690907,799972224,base_link,0,1,33.637102,72.9913143,506.0461377413851,1.7450409999999998,0.0,0.0,0.0,1.7450409999999998,0.0,0.0,0.0,3.493161,2
1729690907.9658546,1785,1729690907,799972480,base_link,0,1,33.637102,72.9913143,506.0461377413851,1.7450409999999998,0.0,0.0,0.0,1.7450409999999998,0.0,0.0,0.0,3.493161,2
1729690908.0669296,1786,1729690907,999966080,base_link,0,1,33.6371021,72.9913143,505.9861383543438,1.7424000000000002,0.0,0.0,0.0,1.7424000000000002,0.0,0.0,0.0,3.4819560000000003,2
1729690908.1608534,1787,1729690907,999962752,base_link,0,1,33.6371021,72.9913143,505.9861383543438,1.7424000000000002,0.0,0.0,0.0,1.7424000000000002,0.0,0.0,0.0,3.4819560000000003,2
1729690908.2618873,1788,1729690908,199960960,base_link,0,1,33.6371021,72.9913143,505.9661383543438,1.739761,0.0,0.0,0.0,1.739761,0.0,0.0,0.0,3.4744960000000003,2
1729690908.3631685,1789,1729690908,199961984,base_link,0,1,33.6371021,72.9913143,505.9661383543438,1.739761,0.0,0.0,0.0,1.739761,0.0,0.0,0.0,3.4744960000000003,2
1729690908.4622002,1790,1729690908,399963264,base_link,0,1,33.6371022,72.9913142,505.97613857012016,1.739761,0.0,0.0,0.0,1.739761,0.0,0.0,0.0,3.478225,2
1729690908.5609612,1791,1729690908,399963008,base_link,0,1,33.6371022,72.9913142,505.97613857012016,1.739761,0.0,0.0,0.0,1.739761,0.0,0.0,0.0,3.478225,2
1729690908.6620336,1792,1729690908,599959680,base_link,0,1,33.6371021,72.9913141,505.9761375599792,1.7424000000000002,0.0,0.0,0.0,1.7424000000000002,0.0,0.0,0.0,3.4819560000000003,2
1729690908.7622797,1793,1729690908,599960448,base_link,0,1,33.6371021,72.9913141,505.9761375599792,1.7424000000000002,0.0,0.0,0.0,1.7424000000000002,0.0,0.0,0.0,3.4819560000000003,2
1729690908.86131,1794,1729690908,799956352,base_link,0,1,33.637102,72.991314,505.95613654983833,1.7424000000000002,0.0,0.0,0.0,1.7424000000000002,0.0,0.0,0.0,3.478225,2
1729690908.9642296,1795,1729690908,799954560,base_link,0,1,33.637102,72.991314,505.95613654983833,1.7424000000000002,0.0,0.0,0.0,1.7424000000000002,0.0,0.0,0.0,3.478225,2
1729690909.0642555,1796,1729690908,999950720,base_link,0,1,33.6371018,72.9913139,505.9361349267395,1.7450409999999998,0.0,0.0,0.0,1.7450409999999998,0.0,0.0,0.0,3.4707689999999998,2
1729690909.1610897,1797,1729690908,999946112,base_link,0,1,33.6371018,72.9913139,505.9361349267395,1.7450409999999998,0.0,0.0,0.0,1.7450409999999998,0.0,0.0,0.0,3.4707689999999998,2
1729690909.2620661,1798,1729690909,199946112,base_link,0,1,33.6371017,72.9913139,505.91613431378136,1.7450409999999998,0.0,0.0,0.0,1.7450409999999998,0.0,0.0,0.0,3.4744960000000003,2
1729690909.3631358,1799,1729690909,199945856,base_link,0,1,33.6371017,72.9913139,505.91613431378136,1.7450409999999998,0.0,0.0,0.0,1.7450409999999998,0.0,0.0,0.0,3.4744960000000003,2
1729690909.4619675,1800,1729690909,399944064,base_link,0,1,33.6371015,72.991314,505.93613348504726,1.7424000000000002,0.0,0.0,0.0,1.7424000000000002,0.0,0.0,0.0,3.4819560000000003,2
1729690909.5632765,1801,1729690909,399945344,base_link,0,1,33.6371015,72.991314,505.93613348504726,1.7424000000000002,0.0,0.0,0.0,1.7424000000000002,0.0,0.0,0.0,3.4819560000000003,2
1729690909.6634955,1802,1729690909,599943296,base_link,0,1,33.6371013,72.991314,505.93613225913145,1.739761,0.0,0.0,0.0,1.739761,0.0,0.0,0.0,3.4894240000000005,2
1729690909.7648234,1803,1729690909,599943296,base_link,0,1,33.6371013,72.991314,505.93613225913145,1.739761,0.0,0.0,0.0,1.739761,0.0,0.0,0.0,3.4894240000000005,2
1729690909.8631308,1804,1729690909,799941248,base_link,0,1,33.637101,72.991314,505.9261304202584,1.7371240000000001,0.0,0.0,0.0,1.7371240000000001,0.0,0.0,0.0,3.4894240000000005,2
1729690909.965241,1805,1729690909,799938432,base_link,0,1,33.637101,72.991314,505.9261304202584,1.7371240000000001,0.0,0.0,0.0,1.7371240000000001,0.0,0.0,0.0,3.4894240000000005,2
1729690910.0610707,1806,1729690909,999934336,base_link,0,1,33.6371009,72.9913141,505.91613020448256,1.7371240000000001,0.0,0.0,0.0,1.7371240000000001,0.0,0.0,0.0,3.485689,2
1729690910.1621363,1807,1729690909,999932288,base_link,0,1,33.6371009,72.9913141,505.91613020448256,1.7371240000000001,0.0,0.0,0.0,1.7371240000000001,0.0,0.0,0.0,3.485689,2
1729690910.2598243,1808,1729690910,199932288,base_link,0,1,33.6371008,72.9913141,505.9061295915251,1.7371240000000001,0.0,0.0,0.0,1.7371240000000001,0.0,0.0,0.0,3.485689,2
1729690910.3693697,1809,1729690910,199930240,base_link,0,1,33.6371008,72.9913141,505.9061295915251,1.7371240000000001,0.0,0.0,0.0,1.7371240000000001,0.0,0.0,0.0,3.485689,2
1729690910.4641807,1810,1729690910,399930752,base_link,0,1,33.6371008,72.9913141,505.8761295915251,1.7371240000000001,0.0,0.0,0.0,1.7371240000000001,0.0,0.0,0.0,3.485689,2
1729690910.56393,1811,1729690910,399930752,base_link,0,1,33.6371008,72.9913141,505.8761295915251,1.7371240000000001,0.0,0.0,0.0,1.7371240000000001,0.0,0.0,0.0,3.485689,2
1729690910.662365,1812,1729690910,599929472,base_link,0,1,33.6371007,72.9913142,505.84612937574957,1.7371240000000001,0.0,0.0,0.0,1.7371240000000001,0.0,0.0,0.0,3.485689,2
1729690910.7608516,1813,1729690910,599925376,base_link,0,1,33.6371007,72.9913142,505.84612937574957,1.7371240000000001,0.0,0.0,0.0,1.7371240000000001,0.0,0.0,0.0,3.485689,2
1729690910.8633947,1814,1729690910,799923840,base_link,0,1,33.6371007,72.9913143,505.81612977293116,1.7371240000000001,0.0,0.0,0.0,1.7371240000000001,0.0,0.0,0.0,3.485689,2
1729690910.9621842,1815,1729690910,799924608,base_link,0,1,33.6371007,72.9913143,505.81612977293116,1.7371240000000001,0.0,0.0,0.0,1.7371240000000001,0.0,0.0,0.0,3.485689,2
1729690911.063511,1816,1729690910,999922816,base_link,0,1,33.6371007,72.9913144,505.7661301701129,1.7371240000000001,0.0,0.0,0.0,1.7371240000000001,0.0,0.0,0.0,3.4819560000000003,2
1729690911.1603217,1817,1729690910,999923840,base_link,0,1,33.6371007,72.9913144,505.7661301701129,1.7371240000000001,0.0,0.0,0.0,1.7371240000000001,0.0,0.0,0.0,3.4819560000000003,2
1729690911.2636878,1818,1729690911,199924352,base_link,0,1,33.6371007,72.9913145,505.7361305672947,1.7371240000000001,0.0,0.0,0.0,1.7371240000000001,0.0,0.0,0.0,3.4819560000000003,2
1729690911.3630643,1819,1729690911,199926144,base_link,0,1,33.6371007,72.9913145,505.7361305672947,1.7371240000000001,0.0,0.0,0.0,1.7371240000000001,0.0,0.0,0.0,3.4819560000000003,2
1729690911.4603686,1820,1729690911,401926400,base_link,0,1,33.6371007,72.9913147,505.7261313616583,1.739761,0.0,0.0,0.0,1.739761,0.0,0.0,0.0,3.4819560000000003,2
1729690911.56173,1821,1729690911,401926400,base_link,0,1,33.6371007,72.9913147,505.7261313616583,1.739761,0.0,0.0,0.0,1.739761,0.0,0.0,0.0,3.4819560000000003,2
1729690911.6608844,1822,1729690911,601926656,base_link,0,1,33.6371006,72.9913148,505.70613114588235,1.739761,0.0,0.0,0.0,1.739761,0.0,0.0,0.0,3.478225,2
1729690911.7626934,1823,1729690911,601925632,base_link,0,1,33.6371006,72.9913148,505.70613114588235,1.739761,0.0,0.0,0.0,1.739761,0.0,0.0,0.0,3.478225,2
1729690911.8644712,1824,1729690911,801918720,base_link,0,1,33.6371005,72.9913149,505.6961309301067,1.739761,0.0,0.0,0.0,1.739761,0.0,0.0,0.0,3.478225,2
1729690911.9635305,1825,1729690911,801917952,base_link,0,1,33.6371005,72.9913149,505.6961309301067,1.739761,0.0,0.0,0.0,1.739761,0.0,0.0,0.0,3.478225,2
1729690912.0614638,1826,1729690912,1915904,base_link,0,1,33.6371004,72.991315,505.656130714331,1.7371240000000001,0.0,0.0,0.0,1.7371240000000001,0.0,0.0,0.0,3.4744960000000003,2
1729690912.1623013,1827,1729690912,1913600,base_link,0,1,33.6371004,72.991315,505.656130714331,1.7371240000000001,0.0,0.0,0.0,1.7371240000000001,0.0,0.0,0.0,3.4744960000000003,2
1729690912.2637923,1828,1729690912,201911296,base_link,0,1,33.6371002,72.991315,505.59612948841635,1.734489,0.0,0.0,0.0,1.734489,0.0,0.0,0.0,3.4707689999999998,2
1729690912.360307,1829,1729690912,201906688,base_link,0,1,33.6371002,72.991315,505.59612948841635,1.734489,0.0,0.0,0.0,1.734489,0.0,0.0,0.0,3.4707689999999998,2
1729690912.461147,1830,1729690912,401905408,base_link,0,1,33.6371002,72.9913149,505.5361290912346,1.734489,0.0,0.0,0.0,1.734489,0.0,0.0,0.0,3.4707689999999998,2
1729690912.5616815,1831,1729690912,401902336,base_link,0,1,33.6371002,72.9913149,505.5361290912346,1.734489,0.0,0.0,0.0,1.734489,0.0,0.0,0.0,3.4707689999999998,2
1729690912.661627,1832,1729690912,601913344,base_link,0,1,33.6371001,72.9913148,505.48612808109584,1.731856,0.0,0.0,0.0,1.731856,0.0,0.0,0.0,3.4707689999999998,2
1729690912.7604733,1833,1729690912,601925888,base_link,0,1,33.6371001,72.9913148,505.48612808109584,1.731856,0.0,0.0,0.0,1.731856,0.0,0.0,0.0,3.4707689999999998,2
1729690912.8640878,1834,1729690912,801918208,base_link,0,1,33.6371001,72.9913149,505.4761284782775,1.731856,0.0,0.0,0.0,1.731856,0.0,0.0,0.0,3.4707689999999998,2
1729690912.9640055,1835,1729690912,801909760,base_link,0,1,33.6371001,72.9913149,505.4761284782775,1.731856,0.0,0.0,0.0,1.731856,0.0,0.0,0.0,3.4707689999999998,2
1729690913.0646784,1836,1729690913,1903360,base_link,0,1,33.6371001,72.9913151,505.4461292726406,1.731856,0.0,0.0,0.0,1.731856,0.0,0.0,0.0,3.4670440000000005,2
1729690913.1694531,1837,1729690913,1896704,base_link,0,1,33.6371001,72.9913151,505.4461292726406,1.731856,0.0,0.0,0.0,1.731856,0.0,0.0,0.0,3.4670440000000005,2
1729690913.2663836,1838,1729690913,201894656,base_link,0,1,33.6371002,72.9913152,505.4661302827797,1.731856,0.0,0.0,0.0,1.731856,0.0,0.0,0.0,3.4670440000000005,2
1729690913.3656068,1839,1729690913,201894400,base_link,0,1,33.6371002,72.9913152,505.4661302827797,1.731856,0.0,0.0,0.0,1.731856,0.0,0.0,0.0,3.4670440000000005,2
1729690913.4667017,1840,1729690913,401894144,base_link,0,1,33.6371003,72.9913153,505.42613129291874,1.731856,0.0,0.0,0.0,1.731856,0.0,0.0,0.0,3.463321,2
1729690913.5654845,1841,1729690913,401892352,base_link,0,1,33.6371003,72.9913153,505.42613129291874,1.731856,0.0,0.0,0.0,1.731856,0.0,0.0,0.0,3.463321,2
1729690913.6702888,1842,1729690913,601893376,base_link,0,1,33.6371005,72.9913154,505.3761329160159,1.731856,0.0,0.0,0.0,1.731856,0.0,0.0,0.0,3.4596000000000005,2
1729690913.7687762,1843,1729690913,601892608,base_link,0,1,33.6371005,72.9913154,505.3761329160159,1.731856,0.0,0.0,0.0,1.731856,0.0,0.0,0.0,3.4596000000000005,2
1729690913.8701236,1844,1729690913,801891840,base_link,0,1,33.6371006,72.9913154,505.3361335289735,1.731856,0.0,0.0,0.0,1.731856,0.0,0.0,0.0,3.4670440000000005,2
1729690913.9595027,1845,1729690913,801895424,base_link,0,1,33.6371006,72.9913154,505.3361335289735,1.731856,0.0,0.0,0.0,1.731856,0.0,0.0,0.0,3.4670440000000005,2
1729690914.0700371,1846,1729690914,1889280,base_link,0,1,33.6371007,72.9913155,505.29613453911344,1.7292249999999998,0.0,0.0,0.0,1.7292249999999998,0.0,0.0,0.0,3.4744960000000003,2
1729690914.1630597,1847,1729690914,1890304,base_link,0,1,33.6371007,72.9913155,505.29613453911344,1.7292249999999998,0.0,0.0,0.0,1.7292249999999998,0.0,0.0,0.0,3.4744960000000003,2
1729690914.264762,1848,1729690914,201888256,base_link,0,1,33.6371007,72.9913155,505.2461345391135,1.7292249999999998,0.0,0.0,0.0,1.7292249999999998,0.0,0.0,0.0,3.4819560000000003,2
1729690914.3628545,1849,1729690914,201886464,base_link,0,1,33.6371007,72.9913155,505.2461345391135,1.7292249999999998,0.0,0.0,0.0,1.7292249999999998,0.0,0.0,0.0,3.4819560000000003,2
1729690914.4602056,1850,1729690914,401886976,base_link,0,1,33.6371007,72.9913156,505.2161349362955,1.7292249999999998,0.0,0.0,0.0,1.7292249999999998,0.0,0.0,0.0,3.4819560000000003,2
1729690914.561851,1851,1729690914,401885696,base_link,0,1,33.6371007,72.9913156,505.2161349362955,1.7292249999999998,0.0,0.0,0.0,1.7292249999999998,0.0,0.0,0.0,3.4819560000000003,2
1729690914.6608102,1852,1729690914,601888256,base_link,0,1,33.6371006,72.9913158,505.18613511770144,1.7265960000000002,0.0,0.0,0.0,1.7265960000000002,0.0,0.0,0.0,3.478225,2
1729690914.7631512,1853,1729690914,601889024,base_link,0,1,33.6371006,72.9913158,505.18613511770144,1.7265960000000002,0.0,0.0,0.0,1.7265960000000002,0.0,0.0,0.0,3.478225,2
1729690914.8631783,1854,1729690914,801889280,base_link,0,1,33.6371006,72.991316,505.1461359120656,1.7265960000000002,0.0,0.0,0.0,1.7265960000000002,0.0,0.0,0.0,3.4744960000000003,2
1729690914.9644728,1855,1729690914,801886464,base_link,0,1,33.6371006,72.991316,505.1461359120656,1.7265960000000002,0.0,0.0,0.0,1.7265960000000002,0.0,0.0,0.0,3.4744960000000003,2
1729690915.0630004,1856,1729690915,1885184,base_link,0,1,33.6371005,72.9913161,505.1161356962897,1.7265960000000002,0.0,0.0,0.0,1.7265960000000002,0.0,0.0,0.0,3.4744960000000003,2
1729690915.16053,1857,1729690915,1885440,base_link,0,1,33.6371005,72.9913161,505.1161356962897,1.7265960000000002,0.0,0.0,0.0,1.7265960000000002,0.0,0.0,0.0,3.4744960000000003,2
1729690915.2609649,1858,1729690915,201882624,base_link,0,1,33.6371004,72.9913162,505.0761354805136,1.7292249999999998,0.0,0.0,0.0,1.7292249999999998,0.0,0.0,0.0,3.4819560000000003,2
1729690915.3642566,1859,1729690915,201883392,base_link,0,1,33.6371004,72.9913162,505.0761354805136,1.7292249999999998,0.0,0.0,0.0,1.7292249999999998,0.0,0.0,0.0,3.4819560000000003,2
1729690915.4613185,1860,1729690915,401879040,base_link,0,1,33.6371005,72.9913163,505.0561364906537,1.731856,0.0,0.0,0.0,1.731856,0.0,0.0,0.0,3.493161,2
1729690915.5632553,1861,1729690915,401876992,base_link,0,1,33.6371005,72.9913163,505.0561364906537,1.731856,0.0,0.0,0.0,1.731856,0.0,0.0,0.0,3.493161,2
1729690915.6617062,1862,1729690915,601876480,base_link,0,1,33.6371007,72.9913162,505.016137319388,1.734489,0.0,0.0,0.0,1.734489,0.0,0.0,0.0,3.500641,2
1729690915.7640407,1863,1729690915,601873664,base_link,0,1,33.6371007,72.9913162,505.016137319388,1.734489,0.0,0.0,0.0,1.734489,0.0,0.0,0.0,3.500641,2
1729690915.8608747,1864,1729690915,801871872,base_link,0,1,33.6371009,72.9913161,505.00613814812243,1.7371240000000001,0.0,0.0,0.0,1.7371240000000001,0.0,0.0,0.0,3.5043840000000004,2
1729690915.9619472,1865,1729690915,801870080,base_link,0,1,33.6371009,72.9913161,505.00613814812243,1.7371240000000001,0.0,0.0,0.0,1.7371240000000001,0.0,0.0,0.0,3.5043840000000004,2
1729690916.0620382,1866,1729690916,1865984,base_link,0,1,33.6371011,72.991316,504.98613897685715,1.7371240000000001,0.0,0.0,0.0,1.7371240000000001,0.0,0.0,0.0,3.5118760000000004,2
1729690916.162916,1867,1729690916,1867520,base_link,0,1,33.6371011,72.991316,504.98613897685715,1.7371240000000001,0.0,0.0,0.0,1.7371240000000001,0.0,0.0,0.0,3.5118760000000004,2
1729690916.2637448,1868,1729690916,201867776,base_link,0,1,33.6371013,72.9913158,504.95613940840946,1.7371240000000001,0.0,0.0,0.0,1.7371240000000001,0.0,0.0,0.0,3.515625,2
1729690916.365088,1869,1729690916,201869312,base_link,0,1,33.6371013,72.9913158,504.95613940840946,1.7371240000000001,0.0,0.0,0.0,1.7371240000000001,0.0,0.0,0.0,3.515625,2
1729690916.4637132,1870,1729690916,401874176,base_link,0,1,33.6371014,72.9913155,504.9361388298212,1.739761,0.0,0.0,0.0,1.739761,0.0,0.0,0.0,3.523129,2
1729690916.563069,1871,1729690916,401872896,base_link,0,1,33.6371014,72.9913155,504.9361388298212,1.739761,0.0,0.0,0.0,1.739761,0.0,0.0,0.0,3.523129,2
1729690916.6610782,1872,1729690916,601873920,base_link,0,1,33.6371014,72.9913153,504.9161380354566,1.7450409999999998,0.0,0.0,0.0,1.7450409999999998,0.0,0.0,0.0,3.5268839999999995,2
1729690916.7620575,1873,1729690916,601874176,base_link,0,1,33.6371014,72.9913153,504.9161380354566,1.7450409999999998,0.0,0.0,0.0,1.7450409999999998,0.0,0.0,0.0,3.5268839999999995,2
1729690916.8622975,1874,1729690916,801874688,base_link,0,1,33.6371015,72.9913152,504.9061382512329,1.7503289999999998,0.0,0.0,0.0,1.7503289999999998,0.0,0.0,0.0,3.5343999999999998,2
1729690916.9594173,1875,1729690916,801871872,base_link,0,1,33.6371015,72.9913152,504.9061382512329,1.7503289999999998,0.0,0.0,0.0,1.7503289999999998,0.0,0.0,0.0,3.5343999999999998,2
1729690917.0623713,1876,1729690917,1870848,base_link,0,1,33.6371015,72.9913149,504.8761370596862,1.752976,0.0,0.0,0.0,1.752976,0.0,0.0,0.0,3.538161,2
1729690917.1601677,1877,1729690917,1870848,base_link,0,1,33.6371015,72.9913149,504.8761370596862,1.752976,0.0,0.0,0.0,1.752976,0.0,0.0,0.0,3.538161,2
1729690917.2642887,1878,1729690917,201869056,base_link,0,1,33.6371015,72.9913148,504.876136662504,1.7582760000000002,0.0,0.0,0.0,1.7582760000000002,0.0,0.0,0.0,3.5419239999999994,2
1729690917.3630943,1879,1729690917,201867520,base_link,0,1,33.6371015,72.9913148,504.876136662504,1.7582760000000002,0.0,0.0,0.0,1.7582760000000002,0.0,0.0,0.0,3.5419239999999994,2
1729690917.466641,1880,1729690917,401865216,base_link,0,1,33.6371013,72.9913147,504.8761350394054,1.760929,0.0,0.0,0.0,1.760929,0.0,0.0,0.0,3.5494559999999997,2
1729690917.5630953,1881,1729690917,401864448,base_link,0,1,33.6371013,72.9913147,504.8761350394054,1.760929,0.0,0.0,0.0,1.760929,0.0,0.0,0.0,3.5494559999999997,2
1729690917.6633787,1882,1729690917,601864448,base_link,0,1,33.6371013,72.9913145,504.84613424504136,1.7635840000000003,0.0,0.0,0.0,1.7635840000000003,0.0,0.0,0.0,3.556996,2
1729690917.763377,1883,1729690917,601865216,base_link,0,1,33.6371013,72.9913145,504.84613424504136,1.7635840000000003,0.0,0.0,0.0,1.7635840000000003,0.0,0.0,0.0,3.556996,2
1729690917.859933,1884,1729690917,801868800,base_link,0,1,33.6371012,72.9913145,504.82613363208327,1.766241,0.0,0.0,0.0,1.766241,0.0,0.0,0.0,3.560769,2
1729690917.9639099,1885,1729690917,801869056,base_link,0,1,33.6371012,72.9913145,504.82613363208327,1.766241,0.0,0.0,0.0,1.766241,0.0,0.0,0.0,3.560769,2
1729690918.0630214,1886,1729690918,1861632,base_link,0,1,33.6371011,72.9913145,504.77613301912544,1.7689000000000001,0.0,0.0,0.0,1.7689000000000001,0.0,0.0,0.0,3.568321,2
1729690918.1633348,1887,1729690918,1859328,base_link,0,1,33.6371011,72.9913145,504.77613301912544,1.7689000000000001,0.0,0.0,0.0,1.7689000000000001,0.0,0.0,0.0,3.568321,2
1729690918.264647,1888,1729690918,201859072,base_link,0,1,33.637101,72.9913145,504.7261324061676,1.7742240000000002,0.0,0.0,0.0,1.7742240000000002,0.0,0.0,0.0,3.575881,2
1729690918.3618371,1889,1729690918,201860352,base_link,0,1,33.637101,72.9913145,504.7261324061676,1.7742240000000002,0.0,0.0,0.0,1.7742240000000002,0.0,0.0,0.0,3.575881,2
1729690918.4624107,1890,1729690918,401861120,base_link,0,1,33.6371009,72.9913144,504.6761313960279,1.7742240000000002,0.0,0.0,0.0,1.7742240000000002,0.0,0.0,0.0,3.5796639999999997,2
1729690918.5609856,1891,1729690918,401860352,base_link,0,1,33.6371009,72.9913144,504.6761313960279,1.7742240000000002,0.0,0.0,0.0,1.7742240000000002,0.0,0.0,0.0,3.5796639999999997,2
1729690918.6642184,1892,1729690918,601859840,base_link,0,1,33.6371009,72.9913143,504.64613099884616,1.776889,0.0,0.0,0.0,1.776889,0.0,0.0,0.0,3.5872359999999994,2
1729690918.7613912,1893,1729690918,601862912,base_link,0,1,33.6371009,72.9913143,504.64613099884616,1.776889,0.0,0.0,0.0,1.776889,0.0,0.0,0.0,3.5872359999999994,2
1729690918.8643348,1894,1729690918,801867264,base_link,0,1,33.6371009,72.9913141,504.5961302044826,1.7795560000000001,0.0,0.0,0.0,1.7795560000000001,0.0,0.0,0.0,3.594816,2
1729690918.9629447,1895,1729690918,801866240,base_link,0,1,33.6371009,72.9913141,504.5961302044826,1.7795560000000001,0.0,0.0,0.0,1.7795560000000001,0.0,0.0,0.0,3.594816,2
1729690919.0659742,1896,1729690919,1863936,base_link,0,1,33.6371009,72.9913139,504.5461294101191,1.782225,0.0,0.0,0.0,1.782225,0.0,0.0,0.0,3.591025,2
1729690919.164712,1897,1729690919,1858816,base_link,0,1,33.6371009,72.9913139,504.5461294101191,1.782225,0.0,0.0,0.0,1.782225,0.0,0.0,0.0,3.591025,2
1729690919.2684684,1898,1729690919,201856256,base_link,0,1,33.637101,72.9913136,504.51612883153143,1.782225,0.0,0.0,0.0,1.782225,0.0,0.0,0.0,3.591025,2
1729690919.3677158,1899,1729690919,201855488,base_link,0,1,33.637101,72.9913136,504.51612883153143,1.782225,0.0,0.0,0.0,1.782225,0.0,0.0,0.0,3.591025,2
1729690919.4656477,1900,1729690919,401856256,base_link,0,1,33.6371012,72.9913133,504.4761288659012,1.7848960000000003,0.0,0.0,0.0,1.7848960000000003,0.0,0.0,0.0,3.598609,2
1729690919.568628,1901,1729690919,401852928,base_link,0,1,33.6371012,72.9913133,504.4761288659012,1.7848960000000003,0.0,0.0,0.0,1.7848960000000003,0.0,0.0,0.0,3.598609,2
1729690919.6673932,1902,1729690919,601852160,base_link,0,1,33.6371013,72.991313,504.4761282873136,1.7902440000000002,0.0,0.0,0.0,1.7902440000000002,0.0,0.0,0.0,3.606201,2
1729690919.7705827,1903,1729690919,601848576,base_link,0,1,33.6371013,72.991313,504.4761282873136,1.7902440000000002,0.0,0.0,0.0,1.7902440000000002,0.0,0.0,0.0,3.606201,2
1729690919.8696604,1904,1729690919,801849856,base_link,0,1,33.6371013,72.9913127,504.44612709576853,1.7956000000000003,0.0,0.0,0.0,1.7956000000000003,0.0,0.0,0.0,3.6176039999999996,2
1729690919.9695587,1905,1729690919,801848064,base_link,0,1,33.6371013,72.9913127,504.44612709576853,1.7956000000000003,0.0,0.0,0.0,1.7956000000000003,0.0,0.0,0.0,3.6176039999999996,2
1729690920.0699534,1906,1729690920,1850624,base_link,0,1,33.6371011,72.9913126,504.4161254726728,1.798281,0.0,0.0,0.0,1.798281,0.0,0.0,0.0,3.6252159999999995,2
1729690920.162234,1907,1729690920,1850624,base_link,0,1,33.6371011,72.9913126,504.4161254726728,1.798281,0.0,0.0,0.0,1.798281,0.0,0.0,0.0,3.6252159999999995,2
1729690920.2609205,1908,1729690920,201847808,base_link,0,1,33.6371009,72.9913126,504.39612424675886,1.8036489999999998,0.0,0.0,0.0,1.8036489999999998,0.0,0.0,0.0,3.6328359999999997,2
1729690920.3655329,1909,1729690920,201847296,base_link,0,1,33.6371009,72.9913126,504.39612424675886,1.8036489999999998,0.0,0.0,0.0,1.8036489999999998,0.0,0.0,0.0,3.6328359999999997,2
1729690920.4647124,1910,1729690920,401843968,base_link,0,1,33.6371005,72.9913127,504.4061221921134,1.8063360000000002,0.0,0.0,0.0,1.8063360000000002,0.0,0.0,0.0,3.6366490000000002,2
1729690920.563027,1911,1729690920,401842176,base_link,0,1,33.6371005,72.9913127,504.4061221921134,1.8063360000000002,0.0,0.0,0.0,1.8063360000000002,0.0,0.0,0.0,3.6366490000000002,2
1729690920.6628308,1912,1729690920,601841152,base_link,0,1,33.6371003,72.9913128,504.3561213633817,1.8117160000000003,0.0,0.0,0.0,1.8117160000000003,0.0,0.0,0.0,3.6328359999999997,2
1729690920.7624588,1913,1729690920,601840384,base_link,0,1,33.6371003,72.9913128,504.3561213633817,1.8117160000000003,0.0,0.0,0.0,1.8117160000000003,0.0,0.0,0.0,3.6328359999999997,2
1729690920.8629298,1914,1729690920,801840128,base_link,0,1,33.6371002,72.9913129,504.30612114760646,1.814409,0.0,0.0,0.0,1.814409,0.0,0.0,0.0,3.629025,2
1729690920.9595404,1915,1729690920,801838592,base_link,0,1,33.6371002,72.9913129,504.30612114760646,1.814409,0.0,0.0,0.0,1.814409,0.0,0.0,0.0,3.629025,2
1729690921.0647385,1916,1729690921,1836544,base_link,0,1,33.6371003,72.9913131,504.27612255492534,1.8171040000000003,0.0,0.0,0.0,1.8171040000000003,0.0,0.0,0.0,3.6252159999999995,2
1729690921.1655986,1917,1729690921,1836032,base_link,0,1,33.6371003,72.9913131,504.27612255492534,1.8171040000000003,0.0,0.0,0.0,1.8171040000000003,0.0,0.0,0.0,3.6252159999999995,2
1729690921.2635932,1918,1729690921,201836032,base_link,0,1,33.6371003,72.9913132,504.2161229521067,1.8171040000000003,0.0,0.0,0.0,1.8171040000000003,0.0,0.0,0.0,3.621409,2
1729690921.3631394,1919,1729690921,201837056,base_link,0,1,33.6371003,72.9913132,504.2161229521067,1.8171040000000003,0.0,0.0,0.0,1.8171040000000003,0.0,0.0,0.0,3.621409,2
1729690921.4641573,1920,1729690921,401835264,base_link,0,1,33.6371002,72.9913133,504.1661227363314,1.819801,0.0,0.0,0.0,1.819801,0.0,0.0,0.0,3.6252159999999995,2
1729690921.564398,1921,1729690921,401833472,base_link,0,1,33.6371002,72.9913133,504.1661227363314,1.819801,0.0,0.0,0.0,1.819801,0.0,0.0,0.0,3.6252159999999995,2
1729690921.666837,1922,1729690921,601831424,base_link,0,1,33.6371003,72.9913134,504.1661237464692,1.819801,0.0,0.0,0.0,1.819801,0.0,0.0,0.0,3.6328359999999997,2
1729690921.76284,1923,1729690921,601830400,base_link,0,1,33.6371003,72.9913134,504.1661237464692,1.819801,0.0,0.0,0.0,1.819801,0.0,0.0,0.0,3.6328359999999997,2
1729690921.8620439,1924,1729690921,801829632,base_link,0,1,33.6371004,72.9913134,504.1561243594259,1.819801,0.0,0.0,0.0,1.819801,0.0,0.0,0.0,3.6404639999999997,2
1729690921.9644752,1925,1729690921,801830400,base_link,0,1,33.6371004,72.9913134,504.1561243594259,1.819801,0.0,0.0,0.0,1.819801,0.0,0.0,0.0,3.6404639999999997,2
1729690922.062137,1926,1729690922,1827072,base_link,0,1,33.6371005,72.9913133,504.1461245752014,1.8225000000000002,0.0,0.0,0.0,1.8225000000000002,0.0,0.0,0.0,3.651921,2
1729690922.1618657,1927,1729690922,1824000,base_link,0,1,33.6371005,72.9913133,504.1461245752014,1.8225000000000002,0.0,0.0,0.0,1.8225000000000002,0.0,0.0,0.0,3.651921,2
1729690922.2630408,1928,1729690922,201825024,base_link,0,1,33.6371006,72.9913132,504.1461247909768,1.8225000000000002,0.0,0.0,0.0,1.8225000000000002,0.0,0.0,0.0,3.6595690000000003,2
1729690922.3630228,1929,1729690922,201823744,base_link,0,1,33.6371006,72.9913132,504.1461247909768,1.8225000000000002,0.0,0.0,0.0,1.8225000000000002,0.0,0.0,0.0,3.6595690000000003,2
1729690922.4621098,1930,1729690922,401823488,base_link,0,1,33.6371007,72.9913131,504.17612500675216,1.8252009999999999,0.0,0.0,0.0,1.8252009999999999,0.0,0.0,0.0,3.6710559999999997,2
1729690922.5641212,1931,1729690922,401825280,base_link,0,1,33.6371007,72.9913131,504.17612500675216,1.8252009999999999,0.0,0.0,0.0,1.8252009999999999,0.0,0.0,0.0,3.6710559999999997,2
1729690922.6644332,1932,1729690922,601823744,base_link,0,1,33.6371007,72.991313,504.1861246095708,1.8279040000000002,0.0,0.0,0.0,1.8279040000000002,0.0,0.0,0.0,3.682561,2
1729690922.7610016,1933,1729690922,601825024,base_link,0,1,33.6371007,72.991313,504.1861246095708,1.8279040000000002,0.0,0.0,0.0,1.8279040000000002,0.0,0.0,0.0,3.682561,2
1729690922.864237,1934,1729690922,801825280,base_link,0,1,33.6371007,72.9913129,504.2361242123894,1.830609,0.0,0.0,0.0,1.830609,0.0,0.0,0.0,3.678724,2
1729690922.9619875,1935,1729690922,801824256,base_link,0,1,33.6371007,72.9913129,504.2361242123894,1.830609,0.0,0.0,0.0,1.830609,0.0,0.0,0.0,3.678724,2
1729690923.0640504,1936,1729690923,1822464,base_link,0,1,33.6371007,72.9913128,504.25612381520807,1.8333160000000002,0.0,0.0,0.0,1.8333160000000002,0.0,0.0,0.0,3.6748890000000003,2
1729690923.161085,1937,1729690923,1821696,base_link,0,1,33.6371007,72.9913128,504.25612381520807,1.8333160000000002,0.0,0.0,0.0,1.8333160000000002,0.0,0.0,0.0,3.6748890000000003,2
1729690923.2603397,1938,1729690923,201818112,base_link,0,1,33.6371006,72.9913126,504.2961224078886,1.830609,0.0,0.0,0.0,1.830609,0.0,0.0,0.0,3.6633959999999997,2
1729690923.3642375,1939,1729690923,201815552,base_link,0,1,33.6371006,72.9913126,504.2961224078886,1.830609,0.0,0.0,0.0,1.830609,0.0,0.0,0.0,3.6633959999999997,2
1729690923.4611597,1940,1729690923,401810944,base_link,0,1,33.6371004,72.9913126,504.31612118197563,1.8279040000000002,0.0,0.0,0.0,1.8279040000000002,0.0,0.0,0.0,3.655744,2
1729690923.5624368,1941,1729690923,401808896,base_link,0,1,33.6371004,72.9913126,504.31612118197563,1.8279040000000002,0.0,0.0,0.0,1.8279040000000002,0.0,0.0,0.0,3.655744,2
1729690923.6632843,1942,1729690923,601808640,base_link,0,1,33.6371001,72.9913128,504.37612013746906,1.8252009999999999,0.0,0.0,0.0,1.8252009999999999,0.0,0.0,0.0,3.6442810000000003,2
1729690923.7626984,1943,1729690923,601805312,base_link,0,1,33.6371001,72.9913128,504.37612013746906,1.8252009999999999,0.0,0.0,0.0,1.8252009999999999,0.0,0.0,0.0,3.6442810000000003,2
1729690923.8638592,1944,1729690923,801802496,base_link,0,1,33.6371,72.9913128,504.3961195245128,1.8252009999999999,0.0,0.0,0.0,1.8252009999999999,0.0,0.0,0.0,3.6328359999999997,2
1729690923.9605353,1945,1729690923,801800960,base_link,0,1,33.6371,72.9913128,504.3961195245128,1.8252009999999999,0.0,0.0,0.0,1.8252009999999999,0.0,0.0,0.0,3.6328359999999997,2
1729690924.0640905,1946,1729690924,1795584,base_link,0,1,33.6370998,72.9913129,504.4561186957817,1.8225000000000002,0.0,0.0,0.0,1.8225000000000002,0.0,0.0,0.0,3.6176039999999996,2
1729690924.162109,1947,1729690924,1794560,base_link,0,1,33.6370998,72.9913129,504.4561186957817,1.8225000000000002,0.0,0.0,0.0,1.8225000000000002,0.0,0.0,0.0,3.6176039999999996,2
1729690924.2626255,1948,1729690924,201794560,base_link,0,1,33.6370998,72.9913129,504.51611869578176,1.819801,0.0,0.0,0.0,1.819801,0.0,0.0,0.0,3.613801,2
