Time,header.seq,header.stamp.secs,header.stamp.nsecs,header.frame_id,twist.linear.x,twist.linear.y,twist.linear.z,twist.angular.x,twist.angular.y,twist.angular.z
1729690891.1175559,1599,1729690889,200123008,map,0.07013843959305205,0.40395618486594775,0.0,0.0,0.0,0.0
1729690891.1176827,1600,1729690889,400123008,map,0.3338074587696558,0.44963605334730955,0.0,0.0,0.0,0.0
1729690891.1178029,1601,1729690889,400123008,map,0.3338074587696558,0.44963605334730955,0.0,0.0,0.0,0.0
1729690891.1179123,1602,1729690889,600123008,map,0.6198837494817476,0.6798118395029981,0.0,0.0,0.0,0.0
1729690891.118079,1603,1729690889,600123008,map,0.6198837494817476,0.6798118395029981,0.0,0.0,0.0,0.0
1729690891.118308,1604,1729690889,800123008,map,0.7451646639482707,1.313327690868833,0.0,0.0,0.0,0.0
1729690891.1185873,1605,1729690889,800123008,map,0.7451646639482707,1.313327690868833,0.0,0.0,0.0,0.0
1729690891.1187418,1606,1729690890,123008,map,0.9504407903247545,1.850151967835847,0.0,0.0,0.0,0.0
1729690891.119114,1607,1729690890,123008,map,0.9504407903247545,1.850151967835847,0.0,0.0,0.0,0.0
1729690891.1192775,1608,1729690890,200123008,map,0.9994862146790964,2.0492504255621005,0.0,0.0,0.0,0.0
1729690891.1195323,1609,1729690890,200123008,map,0.9994862146790964,2.0492504255621005,0.0,0.0,0.0,0.0
1729690891.1199512,1610,1729690890,400123008,map,0.9188644564526267,2.064773137821203,0.0,0.0,0.0,0.0
1729690891.1201735,1611,1729690890,400123008,map,0.9188644564526267,2.064773137821203,0.0,0.0,0.0,0.0
1729690891.1215227,1612,1729690890,600123008,map,0.8128603860634144,2.172937641251777,0.0,0.0,0.0,0.0
1729690891.121876,1613,1729690890,600123008,map,0.8128603860634144,2.172937641251777,0.0,0.0,0.0,0.0
1729690891.1228848,1614,1729690890,800123008,map,0.5850625112153409,2.037670694192366,0.0,0.0,0.0,0.0
1729690891.1283154,1615,1729690890,800123008,map,0.5850625112153409,2.037670694192366,0.0,0.0,0.0,0.0
1729690891.12896,1616,1729690891,123008,map,0.31292462140350363,1.894327896991298,0.0,0.0,0.0,0.0
1729690891.1691697,1617,1729690891,123008,map,0.31292462140350363,1.894327896991298,0.0,0.0,0.0,0.0
1729690891.2667365,1618,1729690891,200123008,map,0.11182352497133405,1.876671388193198,0.0,0.0,0.0,0.0
1729690891.3750658,1619,1729690891,200123008,map,0.11182352497133405,1.876671388193198,0.0,0.0,0.0,0.0
1729690891.4659045,1620,1729690891,400123008,map,-0.07451005774804874,1.6282961190441934,0.0,0.0,0.0,0.0
1729690891.572394,1621,1729690891,400123008,map,-0.07451005774804874,1.6282961190441934,0.0,0.0,0.0,0.0
1729690891.6636882,1622,1729690891,600121216,map,-0.22123585240823984,1.4127826080502264,0.0,0.0,0.0,0.0
1729690891.763613,1623,1729690891,600119424,map,-0.22123585240823984,1.4127826080502264,0.0,0.0,0.0,0.0
1729690891.8622246,1624,1729690891,800119424,map,-0.4526376452085538,1.271856580806207,0.0,0.0,0.0,0.0
1729690891.960132,1625,1729690891,800115584,map,-0.4526376452085538,1.271856580806207,0.0,0.0,0.0,0.0
1729690892.0617266,1626,1729690892,113536,map,-0.6075272876646184,1.1831359155831895,0.0,0.0,0.0,0.0
1729690892.1599755,1627,1729690892,113280,map,-0.6075272876646184,1.1831359155831895,0.0,0.0,0.0,0.0
1729690892.2601812,1628,1729690892,200113024,map,-0.7712948439259364,0.9836687774516711,0.0,0.0,0.0,0.0
1729690892.3597755,1629,1729690892,200112768,map,-0.7712948439259364,0.9836687774516711,0.0,0.0,0.0,0.0
1729690892.4613426,1630,1729690892,400112768,map,-0.9032092689564891,0.8201298778066096,0.0,0.0,0.0,0.0
1729690892.5635724,1631,1729690892,400113024,map,-0.9032092689564891,0.8201298778066096,0.0,0.0,0.0,0.0
1729690892.6675854,1632,1729690892,600113792,map,-0.9375838827141497,0.6484878278538921,0.0,0.0,0.0,0.0
1729690892.7630944,1633,1729690892,600114560,map,-0.9375838827141497,0.6484878278538921,0.0,0.0,0.0,0.0
1729690892.862913,1634,1729690892,800113792,map,-0.9471110072384246,0.4296286070175226,0.0,0.0,0.0,0.0
1729690892.9735541,1635,1729690892,800113280,map,-0.9471110072384246,0.4296286070175226,0.0,0.0,0.0,0.0
1729690893.071755,1636,1729690893,113280,map,-0.9162630771686053,0.15925442982070742,0.0,0.0,0.0,0.0
1729690893.1660676,1637,1729690893,113280,map,-0.9162630771686053,0.15925442982070742,0.0,0.0,0.0,0.0
1729690893.2617822,1638,1729690893,200113280,map,-0.849998951354748,0.0013351763287060077,0.0,0.0,0.0,0.0
1729690893.3639944,1639,1729690893,200113536,map,-0.849998951354748,0.0013351763287060077,0.0,0.0,0.0,0.0
1729690893.4607117,1640,1729690893,400110720,map,-0.7957056054337486,-0.15150112039622565,0.0,0.0,0.0,0.0
1729690893.5607512,1641,1729690893,400110464,map,-0.7957056054337486,-0.15150112039622565,0.0,0.0,0.0,0.0
1729690893.660722,1642,1729690893,600110208,map,-0.9152889723928627,-0.5919004114004464,0.0,0.0,0.0,0.0
1729690893.7636797,1643,1729690893,600110464,map,-0.9152889723928627,-0.5919004114004464,0.0,0.0,0.0,0.0
1729690893.8612716,1644,1729690893,800109696,map,-0.8269616445722118,-0.7404285505073552,0.0,0.0,0.0,0.0
1729690893.9609323,1645,1729690893,800108672,map,-0.8269616445722118,-0.7404285505073552,0.0,0.0,0.0,0.0
1729690894.063066,1646,1729690894,108160,map,-0.7233611771070367,-0.80196546525042,0.0,0.0,0.0,0.0
1729690894.161662,1647,1729690894,109440,map,-0.7233611771070367,-0.80196546525042,0.0,0.0,0.0,0.0
1729690894.2674708,1648,1729690894,200109696,map,-0.4463899529561127,-0.7467502995646131,0.0,0.0,0.0,0.0
1729690894.363185,1649,1729690894,200109440,map,-0.4463899529561127,-0.7467502995646131,0.0,0.0,0.0,0.0
1729690894.4642248,1650,1729690894,400107648,map,-0.23262274562216692,-0.9622820055572091,0.0,0.0,0.0,0.0
1729690894.5641363,1651,1729690894,400108672,map,-0.23262274562216692,-0.9622820055572091,0.0,0.0,0.0,0.0
1729690894.6654549,1652,1729690894,600106112,map,0.03430776576836925,-0.8693232869352936,0.0,0.0,0.0,0.0
1729690894.764664,1653,1729690894,600105600,map,0.03430776576836925,-0.8693232869352936,0.0,0.0,0.0,0.0
1729690894.863655,1654,1729690894,800105344,map,0.12101533313116912,-0.5467680396174892,0.0,0.0,0.0,0.0
1729690894.9662068,1655,1729690894,800103552,map,0.12101533313116912,-0.5467680396174892,0.0,0.0,0.0,0.0
1729690895.0602596,1656,1729690895,103552,map,0.23781153528146487,-0.3937583950686926,0.0,0.0,0.0,0.0
1729690895.180218,1657,1729690895,101504,map,0.23781153528146487,-0.3937583950686926,0.0,0.0,0.0,0.0
1729690895.2626927,1658,1729690895,200102016,map,0.6000138891048463,-0.3199739565672139,0.0,0.0,0.0,0.0
1729690895.3624678,1659,1729690895,200101248,map,0.6000138891048463,-0.3199739565672139,0.0,0.0,0.0,0.0
1729690895.4645965,1660,1729690895,400102528,map,0.6827132427937521,-0.2286976784185603,0.0,0.0,0.0,0.0
1729690895.5616913,1661,1729690895,400100736,map,0.6827132427937521,-0.2286976784185603,0.0,0.0,0.0,0.0
1729690895.6646748,1662,1729690895,600098944,map,0.5496716215952351,-0.019002852755959754,0.0,0.0,0.0,0.0
1729690895.7643976,1663,1729690895,600097408,map,0.5496716215952351,-0.019002852755959754,0.0,0.0,0.0,0.0
1729690895.8654423,1664,1729690895,800098432,map,0.6875103380558191,0.27373259774161607,0.0,0.0,0.0,0.0
1729690895.9627805,1665,1729690895,800093056,map,0.6875103380558191,0.27373259774161607,0.0,0.0,0.0,0.0
1729690896.0594625,1666,1729690896,88704,map,0.708574344744792,0.3713790489102592,0.0,0.0,0.0,0.0
1729690896.1626868,1667,1729690896,86144,map,0.708574344744792,0.3713790489102592,0.0,0.0,0.0,0.0
1729690896.2616136,1668,1729690896,200084608,map,0.6355545525700476,0.6230332340312887,0.0,0.0,0.0,0.0
1729690896.3602383,1669,1729690896,200080512,map,0.6355545525700476,0.6230332340312887,0.0,0.0,0.0,0.0
1729690896.4602559,1670,1729690896,400080000,map,0.4941960910485745,0.5507905442110541,0.0,0.0,0.0,0.0
1729690896.5597117,1671,1729690896,400079232,map,0.4941960910485745,0.5507905442110541,0.0,0.0,0.0,0.0
1729690896.6609435,1672,1729690896,600078720,map,0.5478013844075774,0.6235492308079142,0.0,0.0,0.0,0.0
1729690896.761814,1673,1729690896,600078464,map,0.5478013844075774,0.6235492308079142,0.0,0.0,0.0,0.0
1729690896.8655105,1674,1729690896,800076160,map,0.437510136980326,0.5591823316588752,0.0,0.0,0.0,0.0
1729690896.9826734,1675,1729690896,800070016,map,0.437510136980326,0.5591823316588752,0.0,0.0,0.0,0.0
1729690897.0628314,1676,1729690897,66432,map,0.336020680029659,0.6367810476077358,0.0,0.0,0.0,0.0
1729690897.1627424,1677,1729690897,66432,map,0.336020680029659,0.6367810476077358,0.0,0.0,0.0,0.0
1729690897.2604222,1678,1729690897,200064896,map,0.24847029110174187,0.5018590583418971,0.0,0.0,0.0,0.0
1729690897.3617728,1679,1729690897,200064896,map,0.24847029110174187,0.5018590583418971,0.0,0.0,0.0,0.0
1729690897.461122,1680,1729690897,400067712,map,0.13695134582168217,0.5016416339157168,0.0,0.0,0.0,0.0
1729690897.5633135,1681,1729690897,400065664,map,0.13695134582168217,0.5016416339157168,0.0,0.0,0.0,0.0
1729690897.660475,1682,1729690897,600065920,map,0.09717316100463183,0.3983181853498129,0.0,0.0,0.0,0.0
1729690897.7630758,1683,1729690897,600066688,map,0.09717316100463183,0.3983181853498129,0.0,0.0,0.0,0.0
1729690897.862227,1684,1729690897,800068992,map,0.026070848074413417,0.10686585460604736,0.0,0.0,0.0,0.0
1729690897.9645014,1685,1729690897,800067712,map,0.026070848074413417,0.10686585460604736,0.0,0.0,0.0,0.0
1729690898.061645,1686,1729690898,67968,map,0.04740154195347895,0.19430155382917702,0.0,0.0,0.0,0.0
1729690898.1636474,1687,1729690898,66432,map,0.04740154195347895,0.19430155382917702,0.0,0.0,0.0,0.0
1729690898.2616754,1688,1729690898,200071040,map,0.028440925172087364,0.11658093229750621,0.0,0.0,0.0,0.0
1729690898.36414,1689,1729690898,200070528,map,0.028440925172087364,0.11658093229750621,0.0,0.0,0.0,0.0
1729690898.4632456,1690,1729690898,400071040,map,0.021330693879065523,0.08743569922312966,0.0,0.0,0.0,0.0
1729690898.563032,1691,1729690898,400067968,map,0.021330693879065523,0.08743569922312966,0.0,0.0,0.0,0.0
1729690898.6632097,1692,1729690898,600065664,map,0.026070848074413417,0.10686585460604736,0.0,0.0,0.0,0.0
1729690898.766367,1693,1729690898,600065664,map,0.026070848074413417,0.10686585460604736,0.0,0.0,0.0,0.0
1729690898.8638813,1694,1729690898,800066432,map,0.028440925172087364,0.11658093229750621,0.0,0.0,0.0,0.0
1729690898.9610608,1695,1729690898,800066176,map,0.028440925172087364,0.11658093229750621,0.0,0.0,0.0,0.0
1729690899.0678425,1696,1729690899,61056,map,0.0402913106604571,0.16515632075480047,0.0,0.0,0.0,0.0
1729690899.1633174,1697,1729690899,60032,map,0.0402913106604571,0.16515632075480047,0.0,0.0,0.0,0.0
1729690899.262281,1698,1729690899,200062080,map,0.05925192744184868,0.24287694228647128,0.0,0.0,0.0,0.0
1729690899.3619676,1699,1729690899,200059520,map,0.05925192744184868,0.24287694228647128,0.0,0.0,0.0,0.0
1729690899.4607067,1700,1729690899,400052864,map,0.06636215873487053,0.27202217536084783,0.0,0.0,0.0,0.0
1729690899.5597935,1701,1729690899,400048768,map,0.06636215873487053,0.27202217536084783,0.0,0.0,0.0,0.0
1729690899.6648874,1702,1729690899,600048512,map,0.07347239002789237,0.3011674084352244,0.0,0.0,0.0,0.0
1729690899.7647414,1703,1729690899,600049536,map,0.07347239002789237,0.3011674084352244,0.0,0.0,0.0,0.0
1729690899.8617454,1704,1729690899,800051072,map,0.07821254422324025,0.3205975638181421,0.0,0.0,0.0,0.0
1729690899.9650118,1705,1729690899,800050048,map,0.07821254422324025,0.3205975638181421,0.0,0.0,0.0,0.0
1729690900.064055,1706,1729690900,50048,map,0.07347239002789237,0.3011674084352244,0.0,0.0,0.0,0.0
1729690900.16027,1707,1729690900,47488,map,0.07347239002789237,0.3011674084352244,0.0,0.0,0.0,0.0
1729690900.2659218,1708,1729690900,200043648,map,0.0805826213209142,0.33031264150960093,0.0,0.0,0.0,0.0
1729690900.3611653,1709,1729690900,200039808,map,0.0805826213209142,0.33031264150960093,0.0,0.0,0.0,0.0
1729690900.4640322,1710,1729690900,400037248,map,0.06399208163719658,0.262307097669389,0.0,0.0,0.0,0.0
1729690900.5622911,1711,1729690900,400029568,map,0.06399208163719658,0.262307097669389,0.0,0.0,0.0,0.0
1729690900.661026,1712,1729690900,600029568,map,0.0758424671255663,0.31088248612668323,0.0,0.0,0.0,0.0
1729690900.7648437,1713,1729690900,600042880,map,0.0758424671255663,0.31088248612668323,0.0,0.0,0.0,0.0
1729690900.8676498,1714,1729690900,800037248,map,0.06162200453952263,0.2525920199779301,0.0,0.0,0.0,0.0
1729690900.9659696,1715,1729690900,800037248,map,0.06162200453952263,0.2525920199779301,0.0,0.0,0.0,0.0
1729690901.063214,1716,1729690901,37248,map,0.05688185034417473,0.23316186459501242,0.0,0.0,0.0,0.0
1729690901.16529,1717,1729690901,39808,map,0.05688185034417473,0.23316186459501242,0.0,0.0,0.0,0.0
1729690901.2700717,1718,1729690901,200039808,map,0.03792123356278315,0.15544124306334162,0.0,0.0,0.0,0.0
1729690901.3681574,1719,1729690901,200043136,map,0.03792123356278315,0.15544124306334162,0.0,0.0,0.0,0.0
1729690901.4729128,1720,1729690901,400041344,map,0.021330693879065523,0.08743569922312966,0.0,0.0,0.0,0.0
1729690901.5676985,1721,1729690901,400041088,map,0.021330693879065523,0.08743569922312966,0.0,0.0,0.0,0.0
1729690901.671536,1722,1729690901,600043904,map,0.009480308390695788,0.038860310765835404,0.0,0.0,0.0,0.0
1729690901.769523,1723,1729690901,600044928,map,0.009480308390695788,0.038860310765835404,0.0,0.0,0.0,0.0
1729690901.8699515,1724,1729690901,800045952,map,0.014220462586043682,0.058290466148753106,0.0,0.0,0.0,0.0
1729690901.9650958,1725,1729690901,800045184,map,0.014220462586043682,0.058290466148753106,0.0,0.0,0.0,0.0
1729690902.0631142,1726,1729690902,41856,map,0.018960616781391576,0.07772062153167081,0.0,0.0,0.0,0.0
1729690902.1631336,1727,1729690902,41600,map,0.018960616781391576,0.07772062153167081,0.0,0.0,0.0,0.0
1729690902.2633448,1728,1729690902,200040832,map,0.028440925172087364,0.11658093229750621,0.0,0.0,0.0,0.0
1729690902.3625314,1729,1729690902,200042112,map,0.028440925172087364,0.11658093229750621,0.0,0.0,0.0,0.0
1729690902.4650059,1730,1729690902,400039552,map,0.018960616781391576,0.07772062153167081,0.0,0.0,0.0,0.0
1729690902.5658748,1731,1729690902,400039296,map,0.018960616781391576,0.07772062153167081,0.0,0.0,0.0,0.0
1729690902.6633456,1732,1729690902,600039040,map,0.026070848074413417,0.10686585460604736,0.0,0.0,0.0,0.0
1729690902.7639258,1733,1729690902,600038272,map,0.026070848074413417,0.10686585460604736,0.0,0.0,0.0,0.0
1729690902.8653483,1734,1729690902,800037760,map,0.021330693879065523,0.08743569922312966,0.0,0.0,0.0,0.0
1729690902.9621887,1735,1729690902,800036992,map,0.021330693879065523,0.08743569922312966,0.0,0.0,0.0,0.0
1729690903.0605583,1736,1729690903,33408,map,0.028440925172087364,0.11658093229750621,0.0,0.0,0.0,0.0
1729690903.164339,1737,1729690903,34176,map,0.028440925172087364,0.11658093229750621,0.0,0.0,0.0,0.0
1729690903.263388,1738,1729690903,200035968,map,0.016590539683717632,0.06800554384021196,0.0,0.0,0.0,0.0
1729690903.363395,1739,1729690903,200033920,map,0.016590539683717632,0.06800554384021196,0.0,0.0,0.0,0.0
1729690903.461652,1740,1729690903,400035456,map,0.028440925172087364,0.11658093229750621,0.0,0.0,0.0,0.0
1729690903.5636535,1741,1729690903,400032640,map,0.028440925172087364,0.11658093229750621,0.0,0.0,0.0,0.0
1729690903.664365,1742,1729690903,600031360,map,0.018960616781391576,0.07772062153167081,0.0,0.0,0.0,0.0
1729690903.7627532,1743,1729690903,600028032,map,0.018960616781391576,0.07772062153167081,0.0,0.0,0.0,0.0
1729690903.8620765,1744,1729690903,800025216,map,0.030811002269761315,0.12629600998896506,0.0,0.0,0.0,0.0
1729690903.9624646,1745,1729690903,800024960,map,0.030811002269761315,0.12629600998896506,0.0,0.0,0.0,0.0
1729690904.0619354,1746,1729690904,23168,map,0.0402913106604571,0.16515632075480047,0.0,0.0,0.0,0.0
1729690904.163904,1747,1729690904,22912,map,0.0402913106604571,0.16515632075480047,0.0,0.0,0.0,0.0
1729690904.2627585,1748,1729690904,200024192,map,0.021330693879065523,0.08743569922312966,0.0,0.0,0.0,0.0
1729690904.3657584,1749,1729690904,200021376,map,0.021330693879065523,0.08743569922312966,0.0,0.0,0.0,0.0
1729690904.4617865,1750,1729690904,400022912,map,0.011850385488369737,0.048575388457294255,0.0,0.0,0.0,0.0
1729690904.5622575,1751,1729690904,400021888,map,0.011850385488369737,0.048575388457294255,0.0,0.0,0.0,0.0
1729690904.6612747,1752,1729690904,600020096,map,0.021330693879065523,0.08743569922312966,0.0,0.0,0.0,0.0
1729690904.7656133,1753,1729690904,600020352,map,0.021330693879065523,0.08743569922312966,0.0,0.0,0.0,0.0
1729690904.8646848,1754,1729690904,800017792,map,0.014220462586043682,0.058290466148753106,0.0,0.0,0.0,0.0
1729690904.96053,1755,1729690904,800017280,map,0.014220462586043682,0.058290466148753106,0.0,0.0,0.0,0.0
1729690905.0625741,1756,1729690905,15744,map,0.023700770976739474,0.09715077691458851,0.0,0.0,0.0,0.0
1729690905.1634958,1757,1729690905,16256,map,0.023700770976739474,0.09715077691458851,0.0,0.0,0.0,0.0
1729690905.2631838,1758,1729690905,200017792,map,0.026070848074413417,0.10686585460604736,0.0,0.0,0.0,0.0
1729690905.3654523,1759,1729690905,200017536,map,0.026070848074413417,0.10686585460604736,0.0,0.0,0.0,0.0
1729690905.462151,1760,1729690905,400017280,map,0.023700770976739474,0.09715077691458851,0.0,0.0,0.0,0.0
1729690905.5615125,1761,1729690905,400014464,map,0.023700770976739474,0.09715077691458851,0.0,0.0,0.0,0.0
1729690905.6607344,1762,1729690905,600014208,map,0.021330693879065523,0.08743569922312966,0.0,0.0,0.0,0.0
1729690905.7628953,1763,1729690905,600015232,map,0.021330693879065523,0.08743569922312966,0.0,0.0,0.0,0.0
1729690905.864783,1764,1729690905,800013952,map,0.033181079367435265,0.13601108768042391,0.0,0.0,0.0,0.0
1729690905.9641225,1765,1729690905,800014464,map,0.033181079367435265,0.13601108768042391,0.0,0.0,0.0,0.0
1729690906.0624619,1766,1729690906,10624,map,0.023700770976739474,0.09715077691458851,0.0,0.0,0.0,0.0
1729690906.1639812,1767,1729690906,11136,map,0.023700770976739474,0.09715077691458851,0.0,0.0,0.0,0.0
1729690906.2645788,1768,1729690906,200018048,map,0.011850385488369737,0.048575388457294255,0.0,0.0,0.0,0.0
1729690906.3609986,1769,1729690906,200019328,map,0.011850385488369737,0.048575388457294255,0.0,0.0,0.0,0.0
1729690906.4624338,1770,1729690906,400016256,map,0.018960616781391576,0.07772062153167081,0.0,0.0,0.0,0.0
1729690906.5612817,1771,1729690906,400016512,map,0.018960616781391576,0.07772062153167081,0.0,0.0,0.0,0.0
1729690906.6642213,1772,1729690906,600010624,map,0.026070848074413417,0.10686585460604736,0.0,0.0,0.0,0.0
1729690906.7611637,1773,1729690906,600006784,map,0.026070848074413417,0.10686585460604736,0.0,0.0,0.0,0.0
1729690906.8679695,1774,1729690906,800004224,map,0.033181079367435265,0.13601108768042391,0.0,0.0,0.0,0.0
1729690906.962754,1775,1729690906,799995520,map,0.033181079367435265,0.13601108768042391,0.0,0.0,0.0,0.0
1729690907.0632954,1776,1729690906,999995520,map,0.023700770976739474,0.09715077691458851,0.0,0.0,0.0,0.0
1729690907.164349,1777,1729690906,999987584,map,0.023700770976739474,0.09715077691458851,0.0,0.0,0.0,0.0
1729690907.2680767,1778,1729690907,199981952,map,0.014220462586043682,0.058290466148753106,0.0,0.0,0.0,0.0
1729690907.3656127,1779,1729690907,199976576,map,0.014220462586043682,0.058290466148753106,0.0,0.0,0.0,0.0
1729690907.4677331,1780,1729690907,399973760,map,0.018960616781391576,0.07772062153167081,0.0,0.0,0.0,0.0
1729690907.5669858,1781,1729690907,399975552,map,0.018960616781391576,0.07772062153167081,0.0,0.0,0.0,0.0
1729690907.6700683,1782,1729690907,599972736,map,0.023700770976739474,0.09715077691458851,0.0,0.0,0.0,0.0
1729690907.7712605,1783,1729690907,599974272,map,0.023700770976739474,0.09715077691458851,0.0,0.0,0.0,0.0
1729690907.8698716,1784,1729690907,799972224,map,0.011850385488369737,0.048575388457294255,0.0,0.0,0.0,0.0
1729690907.9660606,1785,1729690907,799972480,map,0.011850385488369737,0.048575388457294255,0.0,0.0,0.0,0.0
1729690908.0670612,1786,1729690907,999966080,map,0.007110231293021841,0.029145233074376553,0.0,0.0,0.0,0.0
1729690908.1610584,1787,1729690907,999962752,map,0.007110231293021841,0.029145233074376553,0.0,0.0,0.0,0.0
1729690908.262092,1788,1729690908,199960960,map,0.009480308390695788,0.038860310765835404,0.0,0.0,0.0,0.0
1729690908.3633826,1789,1729690908,199961984,map,0.009480308390695788,0.038860310765835404,0.0,0.0,0.0,0.0
1729690908.4624426,1790,1729690908,399963264,map,0.009480308390695788,0.038860310765835404,0.0,0.0,0.0,0.0
1729690908.561112,1791,1729690908,399963008,map,0.009480308390695788,0.038860310765835404,0.0,0.0,0.0,0.0
1729690908.6622398,1792,1729690908,599959680,map,0.018960616781391576,0.07772062153167081,0.0,0.0,0.0,0.0
1729690908.7624686,1793,1729690908,599960448,map,0.018960616781391576,0.07772062153167081,0.0,0.0,0.0,0.0
1729690908.861529,1794,1729690908,799956352,map,0.021330693879065523,0.08743569922312966,0.0,0.0,0.0,0.0
1729690908.9643366,1795,1729690908,799954560,map,0.021330693879065523,0.08743569922312966,0.0,0.0,0.0,0.0
1729690909.064363,1796,1729690908,999950720,map,0.018960616781391576,0.07772062153167081,0.0,0.0,0.0,0.0
1729690909.1611242,1797,1729690908,999946112,map,0.018960616781391576,0.07772062153167081,0.0,0.0,0.0,0.0
1729690909.2622726,1798,1729690909,199946112,map,0.009480308390695788,0.038860310765835404,0.0,0.0,0.0,0.0
1729690909.3632474,1799,1729690909,199945856,map,0.009480308390695788,0.038860310765835404,0.0,0.0,0.0,0.0
1729690909.4620633,1800,1729690909,399944064,map,0.028440925172087364,0.11658093229750621,0.0,0.0,0.0,0.0
1729690909.5635457,1801,1729690909,399945344,map,0.028440925172087364,0.11658093229750621,0.0,0.0,0.0,0.0
1729690909.663659,1802,1729690909,599943296,map,0.028440925172087364,0.11658093229750621,0.0,0.0,0.0,0.0
1729690909.765054,1803,1729690909,599943296,map,0.028440925172087364,0.11658093229750621,0.0,0.0,0.0,0.0
1729690909.8632278,1804,1729690909,799941248,map,0.021330693879065523,0.08743569922312966,0.0,0.0,0.0,0.0
1729690909.9653547,1805,1729690909,799938432,map,0.021330693879065523,0.08743569922312966,0.0,0.0,0.0,0.0
1729690910.0611773,1806,1729690909,999934336,map,0.009480308390695788,0.038860310765835404,0.0,0.0,0.0,0.0
1729690910.162312,1807,1729690909,999932288,map,0.009480308390695788,0.038860310765835404,0.0,0.0,0.0,0.0
1729690910.260007,1808,1729690910,199932288,map,0.007110231293021841,0.029145233074376553,0.0,0.0,0.0,0.0
1729690910.3694634,1809,1729690910,199930240,map,0.007110231293021841,0.029145233074376553,0.0,0.0,0.0,0.0
1729690910.4643714,1810,1729690910,399930752,map,0.009480308390695788,0.038860310765835404,0.0,0.0,0.0,0.0
1729690910.563987,1811,1729690910,399930752,map,0.009480308390695788,0.038860310765835404,0.0,0.0,0.0,0.0
1729690910.6625497,1812,1729690910,599929472,map,0.004740154195347894,0.019430155382917702,0.0,0.0,0.0,0.0
1729690910.7610924,1813,1729690910,599925376,map,0.004740154195347894,0.019430155382917702,0.0,0.0,0.0,0.0
1729690910.8635154,1814,1729690910,799923840,map,0.014220462586043682,0.058290466148753106,0.0,0.0,0.0,0.0
1729690910.96229,1815,1729690910,799924608,map,0.014220462586043682,0.058290466148753106,0.0,0.0,0.0,0.0
1729690911.06362,1816,1729690910,999922816,map,0.011850385488369737,0.048575388457294255,0.0,0.0,0.0,0.0
1729690911.1604273,1817,1729690910,999923840,map,0.011850385488369737,0.048575388457294255,0.0,0.0,0.0,0.0
1729690911.2638383,1818,1729690911,199924352,map,0.007110231293021841,0.029145233074376553,0.0,0.0,0.0,0.0
1729690911.3631847,1819,1729690911,199926144,map,0.007110231293021841,0.029145233074376553,0.0,0.0,0.0,0.0
1729690911.4604788,1820,1729690911,401926400,map,0.0,0.0,0.0,0.0,0.0,0.0
1729690911.5619457,1821,1729690911,401926400,map,0.0,0.0,0.0,0.0,0.0,0.0
1729690911.660987,1822,1729690911,601926656,map,0.002370077097673947,0.009715077691458851,0.0,0.0,0.0,0.0
1729690911.762885,1823,1729690911,601925632,map,0.002370077097673947,0.009715077691458851,0.0,0.0,0.0,0.0
1729690911.8648067,1824,1729690911,801918720,map,0.004740154195347894,0.019430155382917702,0.0,0.0,0.0,0.0
1729690911.9638863,1825,1729690911,801917952,map,0.004740154195347894,0.019430155382917702,0.0,0.0,0.0,0.0
1729690912.0615714,1826,1729690912,1915904,map,0.014220462586043682,0.058290466148753106,0.0,0.0,0.0,0.0
1729690912.1624975,1827,1729690912,1913600,map,0.014220462586043682,0.058290466148753106,0.0,0.0,0.0,0.0
1729690912.2639256,1828,1729690912,201911296,map,0.016590539683717632,0.06800554384021196,0.0,0.0,0.0,0.0
1729690912.3605149,1829,1729690912,201906688,map,0.016590539683717632,0.06800554384021196,0.0,0.0,0.0,0.0
1729690912.4613557,1830,1729690912,401905408,map,0.026070848074413417,0.10686585460604736,0.0,0.0,0.0,0.0
1729690912.5618834,1831,1729690912,401902336,map,0.026070848074413417,0.10686585460604736,0.0,0.0,0.0,0.0
1729690912.6618686,1832,1729690912,601913344,map,0.009480308390695788,0.038860310765835404,0.0,0.0,0.0,0.0
1729690912.7606804,1833,1729690912,601925888,map,0.009480308390695788,0.038860310765835404,0.0,0.0,0.0,0.0
1729690912.8642962,1834,1729690912,801918208,map,0.021330693879065523,0.08743569922312966,0.0,0.0,0.0,0.0
1729690912.9642112,1835,1729690912,801909760,map,0.021330693879065523,0.08743569922312966,0.0,0.0,0.0,0.0
1729690913.064888,1836,1729690913,1903360,map,0.021330693879065523,0.08743569922312966,0.0,0.0,0.0,0.0
1729690913.1696632,1837,1729690913,1896704,map,0.021330693879065523,0.08743569922312966,0.0,0.0,0.0,0.0
1729690913.2666245,1838,1729690913,201894656,map,0.016590539683717632,0.06800554384021196,0.0,0.0,0.0,0.0
1729690913.3658166,1839,1729690913,201894400,map,0.016590539683717632,0.06800554384021196,0.0,0.0,0.0,0.0
1729690913.4670057,1840,1729690913,401894144,map,0.026070848074413417,0.10686585460604736,0.0,0.0,0.0,0.0
1729690913.5655756,1841,1729690913,401892352,map,0.026070848074413417,0.10686585460604736,0.0,0.0,0.0,0.0
1729690913.6703281,1842,1729690913,601893376,map,0.03555115646510921,0.14572616537188277,0.0,0.0,0.0,0.0
1729690913.7687864,1843,1729690913,601892608,map,0.03555115646510921,0.14572616537188277,0.0,0.0,0.0,0.0
1729690913.8703413,1844,1729690913,801891840,map,0.0,0.0,0.0,0.0,0.0,0.0
1729690913.959754,1845,1729690913,801895424,map,0.0,0.0,0.0,0.0,0.0,0.0
1729690914.0700727,1846,1729690914,1889280,map,0.023700770976739474,0.09715077691458851,0.0,0.0,0.0,0.0
1729690914.1631548,1847,1729690914,1890304,map,0.023700770976739474,0.09715077691458851,0.0,0.0,0.0,0.0
1729690914.2649019,1848,1729690914,201888256,map,0.0,0.0,0.0,0.0,0.0,0.0
1729690914.3630598,1849,1729690914,201886464,map,0.0,0.0,0.0,0.0,0.0,0.0
1729690914.4604068,1850,1729690914,401886976,map,0.014220462586043682,0.058290466148753106,0.0,0.0,0.0,0.0
1729690914.5621133,1851,1729690914,401885696,map,0.014220462586043682,0.058290466148753106,0.0,0.0,0.0,0.0
1729690914.6610184,1852,1729690914,601888256,map,0.023700770976739474,0.09715077691458851,0.0,0.0,0.0,0.0
1729690914.7633646,1853,1729690914,601889024,map,0.023700770976739474,0.09715077691458851,0.0,0.0,0.0,0.0
1729690914.8635995,1854,1729690914,801889280,map,0.016590539683717632,0.06800554384021196,0.0,0.0,0.0,0.0
1729690914.9645753,1855,1729690914,801886464,map,0.016590539683717632,0.06800554384021196,0.0,0.0,0.0,0.0
1729690915.0630445,1856,1729690915,1885184,map,0.009480308390695788,0.038860310765835404,0.0,0.0,0.0,0.0
1729690915.1606445,1857,1729690915,1885440,map,0.009480308390695788,0.038860310765835404,0.0,0.0,0.0,0.0
1729690915.2609875,1858,1729690915,201882624,map,0.007110231293021841,0.029145233074376553,0.0,0.0,0.0,0.0
1729690915.364366,1859,1729690915,201883392,map,0.007110231293021841,0.029145233074376553,0.0,0.0,0.0,0.0
1729690915.4615557,1860,1729690915,401879040,map,0.016590539683717632,0.06800554384021196,0.0,0.0,0.0,0.0
1729690915.5635023,1861,1729690915,401876992,map,0.016590539683717632,0.06800554384021196,0.0,0.0,0.0,0.0
1729690915.6617384,1862,1729690915,601876480,map,0.030811002269761315,0.12629600998896506,0.0,0.0,0.0,0.0
1729690915.7642632,1863,1729690915,601873664,map,0.030811002269761315,0.12629600998896506,0.0,0.0,0.0,0.0
1729690915.860907,1864,1729690915,801871872,map,0.030811002269761315,0.12629600998896506,0.0,0.0,0.0,0.0
1729690915.9621081,1865,1729690915,801870080,map,0.030811002269761315,0.12629600998896506,0.0,0.0,0.0,0.0
1729690916.0623584,1866,1729690916,1865984,map,0.021330693879065523,0.08743569922312966,0.0,0.0,0.0,0.0
1729690916.1631455,1867,1729690916,1867520,map,0.021330693879065523,0.08743569922312966,0.0,0.0,0.0,0.0
1729690916.2639952,1868,1729690916,201867776,map,0.04740154195347895,0.19430155382917702,0.0,0.0,0.0,0.0
1729690916.365172,1869,1729690916,201869312,map,0.04740154195347895,0.19430155382917702,0.0,0.0,0.0,0.0
1729690916.464019,1870,1729690916,401874176,map,0.033181079367435265,0.13601108768042391,0.0,0.0,0.0,0.0
1729690916.5638223,1871,1729690916,401872896,map,0.033181079367435265,0.13601108768042391,0.0,0.0,0.0,0.0
1729690916.661205,1872,1729690916,601873920,map,0.016590539683717632,0.06800554384021196,0.0,0.0,0.0,0.0
1729690916.762157,1873,1729690916,601874176,map,0.016590539683717632,0.06800554384021196,0.0,0.0,0.0,0.0
1729690916.8625057,1874,1729690916,801874688,map,0.018960616781391576,0.07772062153167081,0.0,0.0,0.0,0.0
1729690916.9596465,1875,1729690916,801871872,map,0.018960616781391576,0.07772062153167081,0.0,0.0,0.0,0.0
1729690917.0625875,1876,1729690917,1870848,map,0.028440925172087364,0.11658093229750621,0.0,0.0,0.0,0.0
1729690917.1602945,1877,1729690917,1870848,map,0.028440925172087364,0.11658093229750621,0.0,0.0,0.0,0.0
1729690917.2645087,1878,1729690917,201869056,map,0.023700770976739474,0.09715077691458851,0.0,0.0,0.0,0.0
1729690917.3631997,1879,1729690917,201867520,map,0.023700770976739474,0.09715077691458851,0.0,0.0,0.0,0.0
1729690917.4666793,1880,1729690917,401865216,map,0.026070848074413417,0.10686585460604736,0.0,0.0,0.0,0.0
1729690917.5631943,1881,1729690917,401864448,map,0.026070848074413417,0.10686585460604736,0.0,0.0,0.0,0.0
1729690917.663626,1882,1729690917,601864448,map,0.011850385488369737,0.048575388457294255,0.0,0.0,0.0,0.0
1729690917.7635021,1883,1729690917,601865216,map,0.011850385488369737,0.048575388457294255,0.0,0.0,0.0,0.0
1729690917.8601418,1884,1729690917,801868800,map,0.009480308390695788,0.038860310765835404,0.0,0.0,0.0,0.0
1729690917.964024,1885,1729690917,801869056,map,0.009480308390695788,0.038860310765835404,0.0,0.0,0.0,0.0
1729690918.0631282,1886,1729690918,1861632,map,0.014220462586043682,0.058290466148753106,0.0,0.0,0.0,0.0
1729690918.1636052,1887,1729690918,1859328,map,0.014220462586043682,0.058290466148753106,0.0,0.0,0.0,0.0
1729690918.2647378,1888,1729690918,201859072,map,0.016590539683717632,0.06800554384021196,0.0,0.0,0.0,0.0
1729690918.3619592,1889,1729690918,201860352,map,0.016590539683717632,0.06800554384021196,0.0,0.0,0.0,0.0
1729690918.4625335,1890,1729690918,401861120,map,0.014220462586043682,0.058290466148753106,0.0,0.0,0.0,0.0
1729690918.561113,1891,1729690918,401860352,map,0.014220462586043682,0.058290466148753106,0.0,0.0,0.0,0.0
1729690918.66449,1892,1729690918,601859840,map,0.016590539683717632,0.06800554384021196,0.0,0.0,0.0,0.0
1729690918.7615893,1893,1729690918,601862912,map,0.016590539683717632,0.06800554384021196,0.0,0.0,0.0,0.0
1729690918.864417,1894,1729690918,801867264,map,0.021330693879065523,0.08743569922312966,0.0,0.0,0.0,0.0
1729690918.9631732,1895,1729690918,801866240,map,0.021330693879065523,0.08743569922312966,0.0,0.0,0.0,0.0
1729690919.066201,1896,1729690919,1863936,map,0.028440925172087364,0.11658093229750621,0.0,0.0,0.0,0.0
1729690919.1649442,1897,1729690919,1858816,map,0.028440925172087364,0.11658093229750621,0.0,0.0,0.0,0.0
1729690919.268673,1898,1729690919,201856256,map,0.033181079367435265,0.13601108768042391,0.0,0.0,0.0,0.0
1729690919.3679478,1899,1729690919,201855488,map,0.033181079367435265,0.13601108768042391,0.0,0.0,0.0,0.0
1729690919.4658692,1900,1729690919,401856256,map,0.03555115646510921,0.14572616537188277,0.0,0.0,0.0,0.0
1729690919.5688326,1901,1729690919,401852928,map,0.03555115646510921,0.14572616537188277,0.0,0.0,0.0,0.0
1729690919.667605,1902,1729690919,601852160,map,0.042661387758131046,0.17487139844625932,0.0,0.0,0.0,0.0
1729690919.7706847,1903,1729690919,601848576,map,0.042661387758131046,0.17487139844625932,0.0,0.0,0.0,0.0
1729690919.8697593,1904,1729690919,801849856,map,0.042661387758131046,0.17487139844625932,0.0,0.0,0.0,0.0
1729690919.9698176,1905,1729690919,801848064,map,0.042661387758131046,0.17487139844625932,0.0,0.0,0.0,0.0
1729690920.0699868,1906,1729690920,1850624,map,0.028440925172087364,0.11658093229750621,0.0,0.0,0.0,0.0
1729690920.1623561,1907,1729690920,1850624,map,0.028440925172087364,0.11658093229750621,0.0,0.0,0.0,0.0
1729690920.261135,1908,1729690920,201847808,map,0.03792123356278315,0.15544124306334162,0.0,0.0,0.0,0.0
1729690920.3656998,1909,1729690920,201847296,map,0.03792123356278315,0.15544124306334162,0.0,0.0,0.0,0.0
1729690920.464813,1910,1729690920,401843968,map,0.030811002269761315,0.12629600998896506,0.0,0.0,0.0,0.0
1729690920.5632358,1911,1729690920,401842176,map,0.030811002269761315,0.12629600998896506,0.0,0.0,0.0,0.0
1729690920.6630452,1912,1729690920,601841152,map,0.016590539683717632,0.06800554384021196,0.0,0.0,0.0,0.0
1729690920.762487,1913,1729690920,601840384,map,0.016590539683717632,0.06800554384021196,0.0,0.0,0.0,0.0
1729690920.8630364,1914,1729690920,801840128,map,0.021330693879065523,0.08743569922312966,0.0,0.0,0.0,0.0
1729690920.9597824,1915,1729690920,801838592,map,0.021330693879065523,0.08743569922312966,0.0,0.0,0.0,0.0
1729690921.0648263,1916,1729690921,1836544,map,0.03792123356278315,0.15544124306334162,0.0,0.0,0.0,0.0
1729690921.1658278,1917,1729690921,1836032,map,0.03792123356278315,0.15544124306334162,0.0,0.0,0.0,0.0
1729690921.2638156,1918,1729690921,201836032,map,0.016590539683717632,0.06800554384021196,0.0,0.0,0.0,0.0
1729690921.3631833,1919,1729690921,201837056,map,0.016590539683717632,0.06800554384021196,0.0,0.0,0.0,0.0
1729690921.4642556,1920,1729690921,401835264,map,0.007110231293021841,0.029145233074376553,0.0,0.0,0.0,0.0
1729690921.5646458,1921,1729690921,401833472,map,0.007110231293021841,0.029145233074376553,0.0,0.0,0.0,0.0
1729690921.666921,1922,1729690921,601831424,map,0.03555115646510921,0.14572616537188277,0.0,0.0,0.0,0.0
1729690921.7629411,1923,1729690921,601830400,map,0.03555115646510921,0.14572616537188277,0.0,0.0,0.0,0.0
1729690921.8622704,1924,1729690921,801829632,map,0.016590539683717632,0.06800554384021196,0.0,0.0,0.0,0.0
1729690921.9647074,1925,1729690921,801830400,map,0.016590539683717632,0.06800554384021196,0.0,0.0,0.0,0.0
1729690922.0623424,1926,1729690922,1827072,map,0.016590539683717632,0.06800554384021196,0.0,0.0,0.0,0.0
1729690922.1620674,1927,1729690922,1824000,map,0.016590539683717632,0.06800554384021196,0.0,0.0,0.0,0.0
1729690922.263243,1928,1729690922,201825024,map,0.023700770976739474,0.09715077691458851,0.0,0.0,0.0,0.0
1729690922.3632176,1929,1729690922,201823744,map,0.023700770976739474,0.09715077691458851,0.0,0.0,0.0,0.0
1729690922.462328,1930,1729690922,401823488,map,0.014220462586043682,0.058290466148753106,0.0,0.0,0.0,0.0
1729690922.5643444,1931,1729690922,401825280,map,0.014220462586043682,0.058290466148753106,0.0,0.0,0.0,0.0
1729690922.6646647,1932,1729690922,601823744,map,0.011850385488369737,0.048575388457294255,0.0,0.0,0.0,0.0
1729690922.7610383,1933,1729690922,601825024,map,0.011850385488369737,0.048575388457294255,0.0,0.0,0.0,0.0
1729690922.8644478,1934,1729690922,801825280,map,0.021330693879065523,0.08743569922312966,0.0,0.0,0.0,0.0
1729690922.962216,1935,1729690922,801824256,map,0.021330693879065523,0.08743569922312966,0.0,0.0,0.0,0.0
1729690923.0642633,1936,1729690923,1822464,map,0.023700770976739474,0.09715077691458851,0.0,0.0,0.0,0.0
1729690923.1612544,1937,1729690923,1821696,map,0.023700770976739474,0.09715077691458851,0.0,0.0,0.0,0.0
1729690923.2605555,1938,1729690923,201818112,map,0.018960616781391576,0.07772062153167081,0.0,0.0,0.0,0.0
1729690923.3644402,1939,1729690923,201815552,map,0.018960616781391576,0.07772062153167081,0.0,0.0,0.0,0.0
1729690923.4613757,1940,1729690923,401810944,map,0.033181079367435265,0.13601108768042391,0.0,0.0,0.0,0.0
1729690923.5626383,1941,1729690923,401808896,map,0.033181079367435265,0.13601108768042391,0.0,0.0,0.0,0.0
1729690923.6635456,1942,1729690923,601808640,map,0.0402913106604571,0.16515632075480047,0.0,0.0,0.0,0.0
1729690923.7630181,1943,1729690923,601805312,map,0.0402913106604571,0.16515632075480047,0.0,0.0,0.0,0.0
1729690923.864062,1944,1729690923,801802496,map,0.021330693879065523,0.08743569922312966,0.0,0.0,0.0,0.0
1729690923.9607453,1945,1729690923,801800960,map,0.021330693879065523,0.08743569922312966,0.0,0.0,0.0,0.0
1729690924.0641844,1946,1729690924,1795584,map,0.030811002269761315,0.12629600998896506,0.0,0.0,0.0,0.0
1729690924.1625519,1947,1729690924,1794560,map,0.030811002269761315,0.12629600998896506,0.0,0.0,0.0,0.0
1729690924.2628675,1948,1729690924,201794560,map,0.007110231293021841,0.029145233074376553,0.0,0.0,0.0,0.0
1729690924.3641005,1949,1729690924,201796352,map,0.007110231293021841,0.029145233074376553,0.0,0.0,0.0,0.0
1729690924.4644809,1950,1729690924,401792768,map,0.009480308390695788,0.038860310765835404,0.0,0.0,0.0,0.0
1729690924.561206,1951,1729690924,401784320,map,0.009480308390695788,0.038860310765835404,0.0,0.0,0.0,0.0
1729690924.6627042,1952,1729690924,601783040,map,0.018960616781391576,0.07772062153167081,0.0,0.0,0.0,0.0
1729690924.7606122,1953,1729690924,601780480,map,0.018960616781391576,0.07772062153167081,0.0,0.0,0.0,0.0
1729690924.8665435,1954,1729690924,801784064,map,0.011850385488369737,0.048575388457294255,0.0,0.0,0.0,0.0
1729690924.9602976,1955,1729690924,801782016,map,0.011850385488369737,0.048575388457294255,0.0,0.0,0.0,0.0
1729690925.070643,1956,1729690925,1797376,map,0.023700770976739474,0.09715077691458851,0.0,0.0,0.0,0.0
1729690925.1643324,1957,1729690925,1795072,map,0.023700770976739474,0.09715077691458851,0.0,0.0,0.0,0.0
1729690925.2647552,1958,1729690925,201795072,map,0.021330693879065523,0.08743569922312966,0.0,0.0,0.0,0.0
1729690925.3635812,1959,1729690925,201795072,map,0.021330693879065523,0.08743569922312966,0.0,0.0,0.0,0.0
1729690925.4677603,1960,1729690925,401793024,map,0.016590539683717632,0.06800554384021196,0.0,0.0,0.0,0.0
1729690925.5692632,1961,1729690925,401792768,map,0.016590539683717632,0.06800554384021196,0.0,0.0,0.0,0.0
1729690925.668321,1962,1729690925,601794304,map,0.023700770976739474,0.09715077691458851,0.0,0.0,0.0,0.0
1729690925.7677038,1963,1729690925,601795840,map,0.023700770976739474,0.09715077691458851,0.0,0.0,0.0,0.0
1729690925.866752,1964,1729690925,801794048,map,0.007110231293021841,0.029145233074376553,0.0,0.0,0.0,0.0
1729690925.969871,1965,1729690925,801795072,map,0.007110231293021841,0.029145233074376553,0.0,0.0,0.0,0.0
1729690926.063759,1966,1729690926,1792000,map,0.002370077097673947,0.009715077691458851,0.0,0.0,0.0,0.0
1729690926.1616912,1967,1729690926,1793024,map,0.002370077097673947,0.009715077691458851,0.0,0.0,0.0,0.0
1729690926.2607765,1968,1729690926,201793792,map,0.007110231293021841,0.029145233074376553,0.0,0.0,0.0,0.0
1729690926.3703454,1969,1729690926,201794816,map,0.007110231293021841,0.029145233074376553,0.0,0.0,0.0,0.0
1729690926.460905,1970,1729690926,401794560,map,0.021330693879065523,0.08743569922312966,0.0,0.0,0.0,0.0
1729690926.5639927,1971,1729690926,401792000,map,0.021330693879065523,0.08743569922312966,0.0,0.0,0.0,0.0
1729690926.6629958,1972,1729690926,601793024,map,0.011850385488369737,0.048575388457294255,0.0,0.0,0.0,0.0
1729690926.7628524,1973,1729690926,601786112,map,0.011850385488369737,0.048575388457294255,0.0,0.0,0.0,0.0
1729690926.8628714,1974,1729690926,801787392,map,0.018960616781391576,0.07772062153167081,0.0,0.0,0.0,0.0
1729690926.9643846,1975,1729690926,801784320,map,0.018960616781391576,0.07772062153167081,0.0,0.0,0.0,0.0
1729690927.0639741,1976,1729690927,1785856,map,0.004740154195347894,0.019430155382917702,0.0,0.0,0.0,0.0
1729690927.1642175,1977,1729690927,1784064,map,0.004740154195347894,0.019430155382917702,0.0,0.0,0.0,0.0
1729690927.2638743,1978,1729690927,201783296,map,0.014220462586043682,0.058290466148753106,0.0,0.0,0.0,0.0
1729690927.3670404,1979,1729690927,201782016,map,0.014220462586043682,0.058290466148753106,0.0,0.0,0.0,0.0
1729690927.4607446,1980,1729690927,401782784,map,0.009480308390695788,0.038860310765835404,0.0,0.0,0.0,0.0
1729690927.5647612,1981,1729690927,401779712,map,0.009480308390695788,0.038860310765835404,0.0,0.0,0.0,0.0
1729690927.6637065,1982,1729690927,601774336,map,0.011850385488369737,0.048575388457294255,0.0,0.0,0.0,0.0
1729690927.7619622,1983,1729690927,601778432,map,0.011850385488369737,0.048575388457294255,0.0,0.0,0.0,0.0
1729690927.8617752,1984,1729690927,801782272,map,0.0,0.0,0.0,0.0,0.0,0.0
1729690927.9631774,1985,1729690927,801783808,map,0.0,0.0,0.0,0.0,0.0,0.0
1729690928.064242,1986,1729690928,1782272,map,0.016590539683717632,0.06800554384021196,0.0,0.0,0.0,0.0
1729690928.1630578,1987,1729690928,1782272,map,0.016590539683717632,0.06800554384021196,0.0,0.0,0.0,0.0
1729690928.2624056,1988,1729690928,201779200,map,0.004740154195347894,0.019430155382917702,0.0,0.0,0.0,0.0
1729690928.3654923,1989,1729690928,201776640,map,0.004740154195347894,0.019430155382917702,0.0,0.0,0.0,0.0
1729690928.4631991,1990,1729690928,401776640,map,0.016590539683717632,0.06800554384021196,0.0,0.0,0.0,0.0
1729690928.561978,1991,1729690928,401776384,map,0.016590539683717632,0.06800554384021196,0.0,0.0,0.0,0.0
1729690928.663302,1992,1729690928,601774848,map,0.004740154195347894,0.019430155382917702,0.0,0.0,0.0,0.0
1729690928.7628248,1993,1729690928,601775104,map,0.004740154195347894,0.019430155382917702,0.0,0.0,0.0,0.0
1729690928.8650074,1994,1729690928,801773312,map,0.007110231293021841,0.029145233074376553,0.0,0.0,0.0,0.0
1729690928.962412,1995,1729690928,801771008,map,0.007110231293021841,0.029145233074376553,0.0,0.0,0.0,0.0
1729690929.0650473,1996,1729690929,1768192,map,0.030811002269761315,0.12629600998896506,0.0,0.0,0.0,0.0
1729690929.1607935,1997,1729690929,1763584,map,0.030811002269761315,0.12629600998896506,0.0,0.0,0.0,0.0
1729690929.2610595,1998,1729690929,201763072,map,0.011850385488369737,0.048575388457294255,0.0,0.0,0.0,0.0
1729690929.364534,1999,1729690929,201764096,map,0.011850385488369737,0.048575388457294255,0.0,0.0,0.0,0.0
1729690929.4610162,2000,1729690929,401760768,map,0.023700770976739474,0.09715077691458851,0.0,0.0,0.0,0.0
1729690929.5645502,2001,1729690929,401761280,map,0.023700770976739474,0.09715077691458851,0.0,0.0,0.0,0.0
1729690929.6605885,2002,1729690929,601761280,map,0.009480308390695788,0.038860310765835404,0.0,0.0,0.0,0.0
1729690929.7642958,2003,1729690929,601761792,map,0.009480308390695788,0.038860310765835404,0.0,0.0,0.0,0.0
1729690929.860834,2004,1729690929,801762048,map,0.014220462586043682,0.058290466148753106,0.0,0.0,0.0,0.0
1729690929.964789,2005,1729690929,801761024,map,0.014220462586043682,0.058290466148753106,0.0,0.0,0.0,0.0
1729690930.0620472,2006,1729690930,1757696,map,0.014220462586043682,0.058290466148753106,0.0,0.0,0.0,0.0
1729690930.1655104,2007,1729690930,1757952,map,0.014220462586043682,0.058290466148753106,0.0,0.0,0.0,0.0
1729690930.2639143,2008,1729690930,201752320,map,0.007110231293021841,0.029145233074376553,0.0,0.0,0.0,0.0
1729690930.3629792,2009,1729690930,201752576,map,0.007110231293021841,0.029145233074376553,0.0,0.0,0.0,0.0
1729690930.4630492,2010,1729690930,401752832,map,0.018960616781391576,0.07772062153167081,0.0,0.0,0.0,0.0
1729690930.5610428,2011,1729690930,401748736,map,0.018960616781391576,0.07772062153167081,0.0,0.0,0.0,0.0
1729690930.664383,2012,1729690930,601749504,map,0.009480308390695788,0.038860310765835404,0.0,0.0,0.0,0.0
1729690930.760448,2013,1729690930,601748736,map,0.009480308390695788,0.038860310765835404,0.0,0.0,0.0,0.0
1729690930.862344,2014,1729690930,801748736,map,0.009480308390695788,0.038860310765835404,0.0,0.0,0.0,0.0
1729690930.962426,2015,1729690930,801748480,map,0.009480308390695788,0.038860310765835404,0.0,0.0,0.0,0.0
1729690931.0615926,2016,1729690931,1746176,map,0.004740154195347894,0.019430155382917702,0.0,0.0,0.0,0.0
1729690931.1619825,2017,1729690931,1742592,map,0.004740154195347894,0.019430155382917702,0.0,0.0,0.0,0.0
1729690931.2625883,2018,1729690931,201745408,map,0.009480308390695788,0.038860310765835404,0.0,0.0,0.0,0.0
1729690931.3645632,2019,1729690931,201750528,map,0.009480308390695788,0.038860310765835404,0.0,0.0,0.0,0.0
1729690931.466231,2020,1729690931,403750528,map,0.014220462586043682,0.058290466148753106,0.0,0.0,0.0,0.0
1729690931.562381,2021,1729690931,403749760,map,0.014220462586043682,0.058290466148753106,0.0,0.0,0.0,0.0
1729690931.666329,2022,1729690931,603749760,map,0.014220462586043682,0.058290466148753106,0.0,0.0,0.0,0.0
1729690931.7632904,2023,1729690931,603749760,map,0.014220462586043682,0.058290466148753106,0.0,0.0,0.0,0.0
1729690931.8614485,2024,1729690931,803744384,map,0.033181079367435265,0.13601108768042391,0.0,0.0,0.0,0.0
1729690931.9653327,2025,1729690931,803737472,map,0.033181079367435265,0.13601108768042391,0.0,0.0,0.0,0.0
1729690932.066647,2026,1729690932,3736704,map,0.03792123356278315,0.15544124306334162,0.0,0.0,0.0,0.0
1729690932.167738,2027,1729690932,3736192,map,0.03792123356278315,0.15544124306334162,0.0,0.0,0.0,0.0
1729690932.2694643,2028,1729690932,203735424,map,0.018960616781391576,0.07772062153167081,0.0,0.0,0.0,0.0
1729690932.3715494,2029,1729690932,203734144,map,0.018960616781391576,0.07772062153167081,0.0,0.0,0.0,0.0
1729690932.4676418,2030,1729690932,403733376,map,0.011850385488369737,0.048575388457294255,0.0,0.0,0.0,0.0
1729690932.569597,2031,1729690932,403731840,map,0.011850385488369737,0.048575388457294255,0.0,0.0,0.0,0.0
1729690932.6686273,2032,1729690932,603731584,map,0.028440925172087364,0.11658093229750621,0.0,0.0,0.0,0.0
1729690932.7668006,2033,1729690932,603731072,map,0.028440925172087364,0.11658093229750621,0.0,0.0,0.0,0.0
1729690932.8648705,2034,1729690932,803728256,map,0.0,0.0,0.0,0.0,0.0,0.0
1729690932.9608388,2035,1729690932,803727488,map,0.0,0.0,0.0,0.0,0.0,0.0
1729690933.0659585,2036,1729690933,3725696,map,0.014220462586043682,0.058290466148753106,0.0,0.0,0.0,0.0
1729690933.1617064,2037,1729690933,3726976,map,0.014220462586043682,0.058290466148753106,0.0,0.0,0.0,0.0
1729690933.2648568,2038,1729690933,203723904,map,0.002370077097673947,0.009715077691458851,0.0,0.0,0.0,0.0
1729690933.3607697,2039,1729690933,203720320,map,0.002370077097673947,0.009715077691458851,0.0,0.0,0.0,0.0
1729690933.4618084,2040,1729690933,403718528,map,0.009480308390695788,0.038860310765835404,0.0,0.0,0.0,0.0
1729690933.563144,2041,1729690933,403716992,map,0.009480308390695788,0.038860310765835404,0.0,0.0,0.0,0.0
1729690933.661884,2042,1729690933,603714432,map,0.021330693879065523,0.08743569922312966,0.0,0.0,0.0,0.0
1729690933.7633247,2043,1729690933,603714944,map,0.021330693879065523,0.08743569922312966,0.0,0.0,0.0,0.0
1729690933.862027,2044,1729690933,803713152,map,0.014220462586043682,0.058290466148753106,0.0,0.0,0.0,0.0
1729690933.9640977,2045,1729690933,803711360,map,0.014220462586043682,0.058290466148753106,0.0,0.0,0.0,0.0
1729690934.0643945,2046,1729690934,3711616,map,0.002370077097673947,0.009715077691458851,0.0,0.0,0.0,0.0
1729690934.1640556,2047,1729690934,3711104,map,0.002370077097673947,0.009715077691458851,0.0,0.0,0.0,0.0
1729690934.2620642,2048,1729690934,203707520,map,0.011850385488369737,0.048575388457294255,0.0,0.0,0.0,0.0
1729690934.3621945,2049,1729690934,203711616,map,0.011850385488369737,0.048575388457294255,0.0,0.0,0.0,0.0
1729690934.4618404,2050,1729690934,403713408,map,0.011850385488369737,0.048575388457294255,0.0,0.0,0.0,0.0
1729690934.563223,2051,1729690934,403714688,map,0.011850385488369737,0.048575388457294255,0.0,0.0,0.0,0.0
1729690934.6608274,2052,1729690934,603713152,map,0.002370077097673947,0.009715077691458851,0.0,0.0,0.0,0.0
1729690934.76216,2053,1729690934,603711360,map,0.002370077097673947,0.009715077691458851,0.0,0.0,0.0,0.0
1729690934.8630698,2054,1729690934,803712128,map,0.009480308390695788,0.038860310765835404,0.0,0.0,0.0,0.0
1729690934.9637735,2055,1729690934,803709056,map,0.009480308390695788,0.038860310765835404,0.0,0.0,0.0,0.0
1729690935.0657434,2056,1729690935,3704448,map,0.011850385488369737,0.048575388457294255,0.0,0.0,0.0,0.0
1729690935.1647983,2057,1729690935,3703680,map,0.011850385488369737,0.048575388457294255,0.0,0.0,0.0,0.0
1729690935.2638826,2058,1729690935,203699072,map,0.011850385488369737,0.048575388457294255,0.0,0.0,0.0,0.0
1729690935.3643756,2059,1729690935,203696256,map,0.011850385488369737,0.048575388457294255,0.0,0.0,0.0,0.0
1729690935.4638228,2060,1729690935,403695488,map,0.014220462586043682,0.058290466148753106,0.0,0.0,0.0,0.0
1729690935.562751,2061,1729690935,403694208,map,0.014220462586043682,0.058290466148753106,0.0,0.0,0.0,0.0
1729690935.662208,2062,1729690935,603695232,map,0.007110231293021841,0.029145233074376553,0.0,0.0,0.0,0.0
1729690935.7618682,2063,1729690935,603693440,map,0.007110231293021841,0.029145233074376553,0.0,0.0,0.0,0.0
1729690935.864192,2064,1729690935,803692416,map,0.011850385488369737,0.048575388457294255,0.0,0.0,0.0,0.0
1729690935.9631195,2065,1729690935,803690112,map,0.011850385488369737,0.048575388457294255,0.0,0.0,0.0,0.0
1729690936.0622315,2066,1729690936,3690624,map,0.023700770976739474,0.09715077691458851,0.0,0.0,0.0,0.0
1729690936.1623175,2067,1729690936,3691904,map,0.023700770976739474,0.09715077691458851,0.0,0.0,0.0,0.0
1729690936.2632778,2068,1729690936,203690368,map,0.023700770976739474,0.09715077691458851,0.0,0.0,0.0,0.0
1729690936.363274,2069,1729690936,203690368,map,0.023700770976739474,0.09715077691458851,0.0,0.0,0.0,0.0
1729690936.461577,2070,1729690936,403688832,map,0.016590539683717632,0.06800554384021196,0.0,0.0,0.0,0.0
1729690936.5607355,2071,1729690936,403689344,map,0.016590539683717632,0.06800554384021196,0.0,0.0,0.0,0.0
1729690936.666091,2072,1729690936,603687808,map,0.016590539683717632,0.06800554384021196,0.0,0.0,0.0,0.0
1729690936.7650392,2073,1729690936,603687296,map,0.016590539683717632,0.06800554384021196,0.0,0.0,0.0,0.0
1729690936.8608294,2074,1729690936,803682688,map,0.004740154195347894,0.019430155382917702,0.0,0.0,0.0,0.0
1729690936.96457,2075,1729690936,803680128,map,0.004740154195347894,0.019430155382917702,0.0,0.0,0.0,0.0
1729690937.062067,2076,1729690937,3682176,map,0.014220462586043682,0.058290466148753106,0.0,0.0,0.0,0.0
1729690937.1601074,2077,1729690937,3682688,map,0.014220462586043682,0.058290466148753106,0.0,0.0,0.0,0.0
1729690937.264576,2078,1729690937,203681664,map,0.016590539683717632,0.06800554384021196,0.0,0.0,0.0,0.0
1729690937.3616009,2079,1729690937,203682432,map,0.016590539683717632,0.06800554384021196,0.0,0.0,0.0,0.0
1729690937.4619205,2080,1729690937,403680128,map,0.016590539683717632,0.06800554384021196,0.0,0.0,0.0,0.0
1729690937.5642982,2081,1729690937,403677824,map,0.016590539683717632,0.06800554384021196,0.0,0.0,0.0,0.0
1729690937.6635091,2082,1729690937,603668096,map,0.018960616781391576,0.07772062153167081,0.0,0.0,0.0,0.0
1729690937.7635121,2083,1729690937,603665536,map,0.018960616781391576,0.07772062153167081,0.0,0.0,0.0,0.0
1729690937.8616443,2084,1729690937,803665536,map,0.018960616781391576,0.07772062153167081,0.0,0.0,0.0,0.0
1729690937.9636889,2085,1729690937,803659392,map,0.018960616781391576,0.07772062153167081,0.0,0.0,0.0,0.0
1729690938.0672987,2086,1729690938,3659392,map,0.004740154195347894,0.019430155382917702,0.0,0.0,0.0,0.0
1729690938.1666784,2087,1729690938,3659392,map,0.004740154195347894,0.019430155382917702,0.0,0.0,0.0,0.0
1729690938.2676802,2088,1729690938,203663744,map,0.011850385488369737,0.048575388457294255,0.0,0.0,0.0,0.0
1729690938.3717005,2089,1729690938,203662464,map,0.011850385488369737,0.048575388457294255,0.0,0.0,0.0,0.0
1729690938.4690251,2090,1729690938,403663488,map,0.009480308390695788,0.038860310765835404,0.0,0.0,0.0,0.0
1729690938.567696,2091,1729690938,403662720,map,0.009480308390695788,0.038860310765835404,0.0,0.0,0.0,0.0
1729690938.6733527,2092,1729690938,603660416,map,0.009480308390695788,0.038860310765835404,0.0,0.0,0.0,0.0
1729690938.7715626,2093,1729690938,603659648,map,0.009480308390695788,0.038860310765835404,0.0,0.0,0.0,0.0
1729690938.8709486,2094,1729690938,803658368,map,0.007110231293021841,0.029145233074376553,0.0,0.0,0.0,0.0
1729690938.9704156,2095,1729690938,803658112,map,0.007110231293021841,0.029145233074376553,0.0,0.0,0.0,0.0
1729690939.0604582,2096,1729690939,3657600,map,0.021330693879065523,0.08743569922312966,0.0,0.0,0.0,0.0
1729690939.1613286,2097,1729690939,3657088,map,0.021330693879065523,0.08743569922312966,0.0,0.0,0.0,0.0
1729690939.2625253,2098,1729690939,203656576,map,0.03792123356278315,0.15544124306334162,0.0,0.0,0.0,0.0
1729690939.3637295,2099,1729690939,203656064,map,0.03792123356278315,0.15544124306334162,0.0,0.0,0.0,0.0
1729690939.4637206,2100,1729690939,403657088,map,0.021330693879065523,0.08743569922312966,0.0,0.0,0.0,0.0
1729690939.5617952,2101,1729690939,403655296,map,0.021330693879065523,0.08743569922312966,0.0,0.0,0.0,0.0
1729690939.665478,2102,1729690939,603656576,map,0.030811002269761315,0.12629600998896506,0.0,0.0,0.0,0.0
1729690939.7606423,2103,1729690939,603654784,map,0.030811002269761315,0.12629600998896506,0.0,0.0,0.0,0.0
1729690939.8629076,2104,1729690939,803654784,map,0.03555115646510921,0.14572616537188277,0.0,0.0,0.0,0.0
1729690939.962735,2105,1729690939,803651712,map,0.03555115646510921,0.14572616537188277,0.0,0.0,0.0,0.0
1729690940.062221,2106,1729690940,3650176,map,0.021330693879065523,0.08743569922312966,0.0,0.0,0.0,0.0
1729690940.163331,2107,1729690940,3643776,map,0.021330693879065523,0.08743569922312966,0.0,0.0,0.0,0.0
1729690940.2614448,2108,1729690940,203647872,map,0.002370077097673947,0.009715077691458851,0.0,0.0,0.0,0.0
1729690940.3610544,2109,1729690940,203652480,map,0.002370077097673947,0.009715077691458851,0.0,0.0,0.0,0.0
1729690940.4629638,2110,1729690940,403653504,map,0.014220462586043682,0.058290466148753106,0.0,0.0,0.0,0.0
1729690940.5641053,2111,1729690940,403654528,map,0.014220462586043682,0.058290466148753106,0.0,0.0,0.0,0.0
1729690940.6616914,2112,1729690940,603656064,map,0.026070848074413417,0.10686585460604736,0.0,0.0,0.0,0.0
1729690940.764688,2113,1729690940,603654784,map,0.026070848074413417,0.10686585460604736,0.0,0.0,0.0,0.0
1729690940.8640058,2114,1729690940,803654528,map,0.021330693879065523,0.08743569922312966,0.0,0.0,0.0,0.0
1729690940.9650111,2115,1729690940,803654528,map,0.021330693879065523,0.08743569922312966,0.0,0.0,0.0,0.0
1729690941.0617104,2116,1729690941,3649664,map,0.018960616781391576,0.07772062153167081,0.0,0.0,0.0,0.0
1729690941.163385,2117,1729690941,3648128,map,0.018960616781391576,0.07772062153167081,0.0,0.0,0.0,0.0
1729690941.2593765,2118,1729690941,203643520,map,0.002370077097673947,0.009715077691458851,0.0,0.0,0.0,0.0
1729690941.3629858,2119,1729690941,203644288,map,0.002370077097673947,0.009715077691458851,0.0,0.0,0.0,0.0
1729690941.4607542,2120,1729690941,403644288,map,0.007110231293021841,0.029145233074376553,0.0,0.0,0.0,0.0
1729690941.5649114,2121,1729690941,403642240,map,0.007110231293021841,0.029145233074376553,0.0,0.0,0.0,0.0
1729690941.6637876,2122,1729690941,603640192,map,0.009480308390695788,0.038860310765835404,0.0,0.0,0.0,0.0
1729690941.759659,2123,1729690941,603639680,map,0.009480308390695788,0.038860310765835404,0.0,0.0,0.0,0.0
1729690941.860797,2124,1729690941,803641216,map,0.007110231293021841,0.029145233074376553,0.0,0.0,0.0,0.0
1729690941.9610236,2125,1729690941,803638912,map,0.007110231293021841,0.029145233074376553,0.0,0.0,0.0,0.0
1729690942.0640407,2126,1729690942,3633024,map,0.007110231293021841,0.029145233074376553,0.0,0.0,0.0,0.0
1729690942.162078,2127,1729690942,3628672,map,0.007110231293021841,0.029145233074376553,0.0,0.0,0.0,0.0
1729690942.262669,2128,1729690942,203627392,map,0.002370077097673947,0.009715077691458851,0.0,0.0,0.0,0.0
1729690942.3623767,2129,1729690942,203627904,map,0.002370077097673947,0.009715077691458851,0.0,0.0,0.0,0.0
1729690942.461917,2130,1729690942,403627904,map,0.028440925172087364,0.11658093229750621,0.0,0.0,0.0,0.0
1729690942.5630488,2131,1729690942,403626368,map,0.028440925172087364,0.11658093229750621,0.0,0.0,0.0,0.0
1729690942.659879,2132,1729690942,603626368,map,0.016590539683717632,0.06800554384021196,0.0,0.0,0.0,0.0
1729690942.765035,2133,1729690942,603624576,map,0.016590539683717632,0.06800554384021196,0.0,0.0,0.0,0.0
1729690942.8631823,2134,1729690942,803626880,map,0.011850385488369737,0.048575388457294255,0.0,0.0,0.0,0.0
1729690942.961187,2135,1729690942,803625344,map,0.011850385488369737,0.048575388457294255,0.0,0.0,0.0,0.0
1729690943.064168,2136,1729690943,3621248,map,0.014220462586043682,0.058290466148753106,0.0,0.0,0.0,0.0
1729690943.1646252,2137,1729690943,3620992,map,0.014220462586043682,0.058290466148753106,0.0,0.0,0.0,0.0
1729690943.2645826,2138,1729690943,203619456,map,0.016590539683717632,0.06800554384021196,0.0,0.0,0.0,0.0
1729690943.36435,2139,1729690943,203618688,map,0.016590539683717632,0.06800554384021196,0.0,0.0,0.0,0.0
1729690943.4635806,2140,1729690943,403614080,map,0.009480308390695788,0.038860310765835404,0.0,0.0,0.0,0.0
1729690943.5618002,2141,1729690943,403611520,map,0.009480308390695788,0.038860310765835404,0.0,0.0,0.0,0.0
1729690943.6615326,2142,1729690943,603605888,map,0.007110231293021841,0.029145233074376553,0.0,0.0,0.0,0.0
1729690943.7623117,2143,1729690943,603597696,map,0.007110231293021841,0.029145233074376553,0.0,0.0,0.0,0.0
1729690943.8643668,2144,1729690943,803589248,map,0.014220462586043682,0.058290466148753106,0.0,0.0,0.0,0.0
1729690943.9614584,2145,1729690943,803582592,map,0.014220462586043682,0.058290466148753106,0.0,0.0,0.0,0.0
1729690944.0663416,2146,1729690944,3577216,map,0.028440925172087364,0.11658093229750621,0.0,0.0,0.0,0.0
1729690944.168488,2147,1729690944,3573888,map,0.028440925172087364,0.11658093229750621,0.0,0.0,0.0,0.0
1729690944.2676659,2148,1729690944,203572608,map,0.023700770976739474,0.09715077691458851,0.0,0.0,0.0,0.0
1729690944.3642378,2149,1729690944,203573120,map,0.023700770976739474,0.09715077691458851,0.0,0.0,0.0,0.0
1729690944.4620862,2150,1729690944,403578240,map,0.033181079367435265,0.13601108768042391,0.0,0.0,0.0,0.0
1729690944.568745,2151,1729690944,403574912,map,0.033181079367435265,0.13601108768042391,0.0,0.0,0.0,0.0
1729690944.667931,2152,1729690944,603572096,map,0.030811002269761315,0.12629600998896506,0.0,0.0,0.0,0.0
1729690944.7694266,2153,1729690944,603572096,map,0.030811002269761315,0.12629600998896506,0.0,0.0,0.0,0.0
1729690944.8592718,2154,1729690944,803570816,map,0.030811002269761315,0.12629600998896506,0.0,0.0,0.0,0.0
1729690944.967268,2155,1729690944,803571584,map,0.030811002269761315,0.12629600998896506,0.0,0.0,0.0,0.0
1729690945.065709,2156,1729690945,3566976,map,0.026070848074413417,0.10686585460604736,0.0,0.0,0.0,0.0
1729690945.1644738,2157,1729690945,3568000,map,0.026070848074413417,0.10686585460604736,0.0,0.0,0.0,0.0
1729690945.263837,2158,1729690945,203566976,map,0.011850385488369737,0.048575388457294255,0.0,0.0,0.0,0.0
1729690945.360476,2159,1729690945,203566720,map,0.011850385488369737,0.048575388457294255,0.0,0.0,0.0,0.0
1729690945.4655569,2160,1729690945,403566208,map,0.016590539683717632,0.06800554384021196,0.0,0.0,0.0,0.0
1729690945.563701,2161,1729690945,403567488,map,0.016590539683717632,0.06800554384021196,0.0,0.0,0.0,0.0
1729690945.6626093,2162,1729690945,603565696,map,0.014220462586043682,0.058290466148753106,0.0,0.0,0.0,0.0
1729690945.7654963,2163,1729690945,603563904,map,0.014220462586043682,0.058290466148753106,0.0,0.0,0.0,0.0
1729690945.8634336,2164,1729690945,803563392,map,0.016590539683717632,0.06800554384021196,0.0,0.0,0.0,0.0
1729690945.9631891,2165,1729690945,803561856,map,0.016590539683717632,0.06800554384021196,0.0,0.0,0.0,0.0
1729690946.06265,2166,1729690946,3561600,map,0.033181079367435265,0.13601108768042391,0.0,0.0,0.0,0.0
1729690946.1630955,2167,1729690946,3560064,map,0.033181079367435265,0.13601108768042391,0.0,0.0,0.0,0.0
1729690946.262034,2168,1729690946,203558272,map,0.0402913106604571,0.16515632075480047,0.0,0.0,0.0,0.0
1729690946.3620665,2169,1729690946,203556736,map,0.0402913106604571,0.16515632075480047,0.0,0.0,0.0,0.0
