Time,header.seq,header.stamp.secs,header.stamp.nsecs,header.frame_id,coordinate_frame,type_mask,latitude,longitude,altitude,velocity.x,velocity.y,velocity.z,acceleration_or_force.x,acceleration_or_force.y,acceleration_or_force.z,yaw,yaw_rate
1729690891.5521607,21667,0,0,,6,4088,33.63710418045728,72.99131330602437,1.25,0.0,0.0,0.0,0.0,0.0,0.0,0.0,0.0
1729690891.6049385,22084,0,0,,6,4088,33.63710418045728,72.99131330602437,1.25,0.0,0.0,0.0,0.0,0.0,0.0,0.0,0.0
1729690891.607322,22086,0,0,,6,4088,33.637104134381595,72.991313060536,1.25,0.0,0.0,0.0,0.0,0.0,0.0,0.0,0.0
1729690891.7063625,22861,0,0,,6,4088,33.637104134381595,72.991313060536,1.25,0.0,0.0,0.0,0.0,0.0,0.0,0.0,0.0
1729690891.7704053,23320,0,0,,6,4088,33.63710367143114,72.99131239306912,1.25,0.0,0.0,0.0,0.0,0.0,0.0,0.0,0.0
1729690891.7894952,23432,0,0,,6,4088,33.63710367143114,72.99131239306912,1.25,0.0,0.0,0.0,0.0,0.0,0.0,0.0,0.0
1729690891.8601177,24047,0,0,,6,4088,33.637103086129365,72.99131169352871,1.25,0.0,0.0,0.0,0.0,0.0,0.0,0.0,0.0
1729690891.8642075,24048,0,0,,6,4088,33.637103086129365,72.99131169352871,1.25,0.0,0.0,0.0,0.0,0.0,0.0,0.0,0.0
1729690891.9062607,24417,0,0,,6,4088,33.637102609889965,72.99131110137267,1.25,0.0,0.0,0.0,0.0,0.0,0.0,0.0,0.0
1729690891.9578815,24768,0,0,,6,4088,33.637102609889965,72.99131110137267,1.25,0.0,0.0,0.0,0.0,0.0,0.0,0.0,0.0
1729690891.99278,25065,0,0,,6,4088,33.637102609889965,72.99131110137267,1.25,0.0,0.0,0.0,0.0,0.0,0.0,0.0,0.0
1729690892.0033023,25137,0,0,,6,4088,33.637102609889965,72.99131110137267,1.25,0.0,0.0,0.0,0.0,0.0,0.0,0.0,0.0
1729690892.0163083,25200,0,0,,6,4088,33.637102310466275,72.99131069503028,1.25,0.0,0.0,0.0,0.0,0.0,0.0,0.0,0.0
1729690892.0568676,25544,0,0,,6,4088,33.637102310466275,72.99131069503028,1.25,0.0,0.0,0.0,0.0,0.0,0.0,0.0,0.0
1729690892.1050208,25929,0,0,,6,4088,33.637102310466275,72.99131069503028,1.25,0.0,0.0,0.0,0.0,0.0,0.0,0.0,0.0
1729690892.2530723,26421,0,0,,6,4088,33.63710202799253,72.99131051382216,1.25,0.0,0.0,0.0,0.0,0.0,0.0,0.0,0.0
1729690892.2582014,26697,0,0,,6,4088,33.63710202799253,72.99131051382216,1.25,0.0,0.0,0.0,0.0,0.0,0.0,0.0,0.0
1729690892.2582352,26699,0,0,,6,4088,33.63710222719471,72.99131072602671,1.25,0.0,0.0,0.0,0.0,0.0,0.0,0.0,0.0
1729690892.261137,27116,0,0,,6,4088,33.63710202719471,72.99131072602663,1.25,0.0,0.0,0.0,0.0,0.0,0.0,0.0,0.0
1729690892.2650921,27169,0,0,,6,4088,33.63710202719471,72.99131072602663,1.25,0.0,0.0,0.0,0.0,0.0,0.0,0.0,0.0
1729690892.3862152,27484,0,0,,6,4088,33.63710183896913,72.99131064399182,1.25,0.0,0.0,0.0,0.0,0.0,0.0,0.0,0.0
1729690892.3910491,27510,0,0,,6,4088,33.63710183896913,72.99131064399182,1.25,0.0,0.0,0.0,0.0,0.0,0.0,0.0,0.0
1729690892.3910718,28140,0,0,,6,4088,33.63710183896913,72.99131064399182,1.25,0.0,0.0,0.0,0.0,0.0,0.0,0.0,0.0
1729690892.405232,28258,0,0,,6,4088,33.63710183896913,72.99131064399182,1.25,0.0,0.0,0.0,0.0,0.0,0.0,0.0,0.0
1729690892.4107285,28301,0,0,,6,4088,33.63710156843752,72.99131057496115,1.25,0.0,0.0,0.0,0.0,0.0,0.0,0.0,0.0
1729690892.4133012,28305,0,0,,6,4088,33.63710156843752,72.99131057496115,1.25,0.0,0.0,0.0,0.0,0.0,0.0,0.0,0.0
1729690892.4147868,28306,0,0,,6,4088,33.63710156843752,72.99131057496115,1.25,0.0,0.0,0.0,0.0,0.0,0.0,0.0,0.0
1729690892.4162917,28313,0,0,,6,4088,33.63710156843752,72.99131057496115,1.25,0.0,0.0,0.0,0.0,0.0,0.0,0.0,0.0
1729690892.5573497,29423,0,0,,6,4088,33.637101150753786,72.991310456383,1.25,0.0,0.0,0.0,0.0,0.0,0.0,0.0,0.0
1729690892.6482112,29812,0,0,,6,4088,33.637101150753786,72.991310456383,1.25,0.0,0.0,0.0,0.0,0.0,0.0,0.0,0.0
1729690892.6521003,29862,0,0,,6,4088,33.63710098653579,72.99131059852944,1.25,0.0,0.0,0.0,0.0,0.0,0.0,0.0,0.0
1729690892.7792332,30570,0,0,,6,4088,33.63710098653579,72.99131059852944,1.25,0.0,0.0,0.0,0.0,0.0,0.0,0.0,0.0
1729690892.7884247,30616,0,0,,6,4088,33.63710071685778,72.9913106338819,1.25,0.0,0.0,0.0,0.0,0.0,0.0,0.0,0.0
1729690892.7884655,31049,0,0,,6,4088,33.63710071685778,72.9913106338819,1.25,0.0,0.0,0.0,0.0,0.0,0.0,0.0,0.0
1729690892.804207,31340,0,0,,6,4088,33.63710071685778,72.9913106338819,1.25,0.0,0.0,0.0,0.0,0.0,0.0,0.0,0.0
1729690892.8079464,31347,0,0,,6,4088,33.637102354058044,72.99131252785125,1.25,0.0,0.0,0.0,0.0,0.0,0.0,0.0,0.0
1729690892.8613055,31762,0,0,,6,4088,33.637102354058044,72.99131252785125,1.25,0.0,0.0,0.0,0.0,0.0,0.0,0.0,0.0
1729690892.9587429,32126,0,0,,6,4088,33.637102354058044,72.99131252785125,1.25,0.0,0.0,0.0,0.0,0.0,0.0,0.0,0.0
1729690892.9593315,32136,0,0,,6,4088,33.637099283372294,72.99130974973174,1.2580000162124634,0.0,0.0,0.0,0.0,0.0,0.0,0.0,0.0
1729690892.9595299,32137,0,0,,6,4088,33.637099283372294,72.99130974973174,1.2580000162124634,0.0,0.0,0.0,0.0,0.0,0.0,0.0,0.0
1729690892.9595642,32269,0,0,,6,4088,33.637099283372294,72.99130974973174,1.2580000162124634,0.0,0.0,0.0,0.0,0.0,0.0,0.0,0.0
1729690892.9595926,32271,0,0,,6,4088,33.637099283372294,72.99130974973174,1.2580000162124634,0.0,0.0,0.0,0.0,0.0,0.0,0.0,0.0
1729690892.960472,32274,0,0,,6,4088,33.637099283372294,72.99130974973174,1.2580000162124634,0.0,0.0,0.0,0.0,0.0,0.0,0.0,0.0
1729690892.960678,32276,0,0,,6,4088,33.637099283372294,72.99130974973174,1.2580000162124634,0.0,0.0,0.0,0.0,0.0,0.0,0.0,0.0
1729690892.9607124,32279,0,0,,6,4088,33.637099283372294,72.99130974973174,1.2580000162124634,0.0,0.0,0.0,0.0,0.0,0.0,0.0,0.0
1729690892.9607358,32282,0,0,,6,4088,33.637099283372294,72.99130974973174,1.2580000162124634,0.0,0.0,0.0,0.0,0.0,0.0,0.0,0.0
1729690892.9607596,32283,0,0,,6,4088,33.637099283372294,72.99130974973174,1.2580000162124634,0.0,0.0,0.0,0.0,0.0,0.0,0.0,0.0
1729690892.9614224,32285,0,0,,6,4088,33.637099283372294,72.99130974973174,1.2580000162124634,0.0,0.0,0.0,0.0,0.0,0.0,0.0,0.0
1729690892.961463,32290,0,0,,6,4088,33.637099283372294,72.99130974973174,1.2580000162124634,0.0,0.0,0.0,0.0,0.0,0.0,0.0,0.0
1729690892.9614997,32297,0,0,,6,4088,33.637099283372294,72.99130974973174,1.2580000162124634,0.0,0.0,0.0,0.0,0.0,0.0,0.0,0.0
1729690892.961539,32312,0,0,,6,4088,33.637099283372294,72.99130974973174,1.2580000162124634,0.0,0.0,0.0,0.0,0.0,0.0,0.0,0.0
1729690892.9615633,32326,0,0,,6,4088,33.637099283372294,72.99130974973174,1.2580000162124634,0.0,0.0,0.0,0.0,0.0,0.0,0.0,0.0
1729690892.961584,32327,0,0,,6,4088,33.637099283372294,72.99130974973174,1.2580000162124634,0.0,0.0,0.0,0.0,0.0,0.0,0.0,0.0
1729690892.9619431,32341,0,0,,6,4088,33.637099283372294,72.99130974973174,1.2580000162124634,0.0,0.0,0.0,0.0,0.0,0.0,0.0,0.0
1729690892.9619687,32356,0,0,,6,4088,33.637099283372294,72.99130974973174,1.2580000162124634,0.0,0.0,0.0,0.0,0.0,0.0,0.0,0.0
1729690892.9621181,32370,0,0,,6,4088,33.637099283372294,72.99130974973174,1.2580000162124634,0.0,0.0,0.0,0.0,0.0,0.0,0.0,0.0
1729690892.962691,32385,0,0,,6,4088,33.637099283372294,72.99130974973174,1.2580000162124634,0.0,0.0,0.0,0.0,0.0,0.0,0.0,0.0
1729690892.9650257,32475,0,0,,6,4088,33.637099283372294,72.99130974973174,1.2580000162124634,0.0,0.0,0.0,0.0,0.0,0.0,0.0,0.0
1729690893.088599,32775,0,0,,6,4088,33.637099283372294,72.99130974973174,1.2580000162124634,0.0,0.0,0.0,0.0,0.0,0.0,0.0,0.0
1729690893.0948198,33460,0,0,,6,4088,33.63709358448603,72.99130289106283,1.2660000324249268,0.0,0.0,0.0,0.0,0.0,0.0,0.0,0.0
1729690893.1071103,33560,0,0,,6,4088,33.63709358448603,72.99130289106283,1.2660000324249268,0.0,0.0,0.0,0.0,0.0,0.0,0.0,0.0
1729690893.115959,33584,0,0,,6,4088,33.6370911734447,72.99129926032988,1.2710000276565552,0.0,0.0,0.0,0.0,0.0,0.0,0.0,0.0
1729690893.2247117,34354,0,0,,6,4088,33.63709177193846,72.9913009581896,1.2760000228881836,0.0,0.0,0.0,0.0,0.0,0.0,0.0,0.0
1729690893.2268958,34415,0,0,,6,4088,33.63709177193846,72.9913009581896,1.2760000228881836,0.0,0.0,0.0,0.0,0.0,0.0,0.0,0.0
1729690893.2586033,34684,0,0,,6,4088,33.63709177193846,72.9913009581896,1.2760000228881836,0.0,0.0,0.0,0.0,0.0,0.0,0.0,0.0
1729690893.395751,35580,0,0,,6,4088,33.63709177193846,72.9913009581896,1.2760000228881836,0.0,0.0,0.0,0.0,0.0,0.0,0.0,0.0
1729690893.4024997,35719,0,0,,6,4088,33.63709420324343,72.9913052723066,1.2730000019073486,0.0,0.0,0.0,0.0,0.0,0.0,0.0,0.0
1729690893.4025464,35720,0,0,,6,4088,33.63709420324343,72.9913052723066,1.2730000019073486,0.0,0.0,0.0,0.0,0.0,0.0,0.0,0.0
1729690893.5694091,36583,0,0,,6,4088,33.637094003243426,72.99130547230652,1.2730000019073486,0.0,0.0,0.0,0.0,0.0,0.0,0.0,0.0
1729690893.579825,36588,0,0,,6,4088,33.63709380324343,72.99130557230644,1.2599999904632568,0.0,0.0,0.0,0.0,0.0,0.0,0.0,0.0
1729690893.5799074,36591,0,0,,6,4088,33.63709380324343,72.99130557230644,1.2599999904632568,0.0,0.0,0.0,0.0,0.0,0.0,0.0,0.0
1729690893.5799415,36593,0,0,,6,4088,33.63709380324343,72.99130557230644,1.2599999904632568,0.0,0.0,0.0,0.0,0.0,0.0,0.0,0.0
1729690893.5799682,36595,0,0,,6,4088,33.637097170374446,72.99130978303678,1.2599999904632568,0.0,0.0,0.0,0.0,0.0,0.0,0.0,0.0
1729690893.5801303,36597,0,0,,6,4088,33.637097170374446,72.99130978303678,1.2599999904632568,0.0,0.0,0.0,0.0,0.0,0.0,0.0,0.0
1729690893.5801578,36599,0,0,,6,4088,33.637097170374446,72.99130978303678,1.2599999904632568,0.0,0.0,0.0,0.0,0.0,0.0,0.0,0.0
1729690893.5805068,36600,0,0,,6,4088,33.637097170374446,72.99130978303678,1.2599999904632568,0.0,0.0,0.0,0.0,0.0,0.0,0.0,0.0
1729690893.580565,36602,0,0,,6,4088,33.637097170374446,72.99130978303678,1.2599999904632568,0.0,0.0,0.0,0.0,0.0,0.0,0.0,0.0
1729690893.5806255,36604,0,0,,6,4088,33.637097170374446,72.99130978303678,1.2599999904632568,0.0,0.0,0.0,0.0,0.0,0.0,0.0,0.0
1729690893.5806653,36606,0,0,,6,4088,33.637097170374446,72.99130978303678,1.2599999904632568,0.0,0.0,0.0,0.0,0.0,0.0,0.0,0.0
1729690893.580702,36608,0,0,,6,4088,33.637097170374446,72.99130978303678,1.2599999904632568,0.0,0.0,0.0,0.0,0.0,0.0,0.0,0.0
1729690893.5808728,36610,0,0,,6,4088,33.637097170374446,72.99130978303678,1.2599999904632568,0.0,0.0,0.0,0.0,0.0,0.0,0.0,0.0
1729690893.5809047,36612,0,0,,6,4088,33.637097170374446,72.99130978303678,1.2599999904632568,0.0,0.0,0.0,0.0,0.0,0.0,0.0,0.0
1729690893.5810654,36614,0,0,,6,4088,33.637097170374446,72.99130978303678,1.2599999904632568,0.0,0.0,0.0,0.0,0.0,0.0,0.0,0.0
1729690893.581095,36616,0,0,,6,4088,33.637097170374446,72.99130978303678,1.2599999904632568,0.0,0.0,0.0,0.0,0.0,0.0,0.0,0.0
1729690893.581119,36617,0,0,,6,4088,33.63709982513061,72.99131253638302,1.2599999904632568,0.0,0.0,0.0,0.0,0.0,0.0,0.0,0.0
1729690893.581148,36618,0,0,,6,4088,33.63709982513061,72.99131253638302,1.2599999904632568,0.0,0.0,0.0,0.0,0.0,0.0,0.0,0.0
1729690893.5812616,36619,0,0,,6,4088,33.63709982513061,72.99131253638302,1.2599999904632568,0.0,0.0,0.0,0.0,0.0,0.0,0.0,0.0
1729690893.5812893,36620,0,0,,6,4088,33.63709982513061,72.99131253638302,1.2599999904632568,0.0,0.0,0.0,0.0,0.0,0.0,0.0,0.0
1729690893.5813775,36621,0,0,,6,4088,33.63709982513061,72.99131253638302,1.2599999904632568,0.0,0.0,0.0,0.0,0.0,0.0,0.0,0.0
1729690893.5815105,36622,0,0,,6,4088,33.63709982513061,72.99131253638302,1.2599999904632568,0.0,0.0,0.0,0.0,0.0,0.0,0.0,0.0
1729690893.5815372,36623,0,0,,6,4088,33.63709982513061,72.99131253638302,1.2599999904632568,0.0,0.0,0.0,0.0,0.0,0.0,0.0,0.0
1729690893.581559,36624,0,0,,6,4088,33.63709982513061,72.99131253638302,1.2599999904632568,0.0,0.0,0.0,0.0,0.0,0.0,0.0,0.0
1729690893.5817518,36625,0,0,,6,4088,33.63709982513061,72.99131253638302,1.2599999904632568,0.0,0.0,0.0,0.0,0.0,0.0,0.0,0.0
1729690893.582116,36626,0,0,,6,4088,33.63709982513061,72.99131253638302,1.2599999904632568,0.0,0.0,0.0,0.0,0.0,0.0,0.0,0.0
1729690893.582146,36627,0,0,,6,4088,33.63709982513061,72.99131253638302,1.2599999904632568,0.0,0.0,0.0,0.0,0.0,0.0,0.0,0.0
1729690893.5821722,36628,0,0,,6,4088,33.63709982513061,72.99131253638302,1.2599999904632568,0.0,0.0,0.0,0.0,0.0,0.0,0.0,0.0
1729690893.5821946,36629,0,0,,6,4088,33.63709982513061,72.99131253638302,1.2599999904632568,0.0,0.0,0.0,0.0,0.0,0.0,0.0,0.0
1729690893.5822618,36630,0,0,,6,4088,33.63709982513061,72.99131253638302,1.2599999904632568,0.0,0.0,0.0,0.0,0.0,0.0,0.0,0.0
1729690893.5823157,36631,0,0,,6,4088,33.63709982513061,72.99131253638302,1.2599999904632568,0.0,0.0,0.0,0.0,0.0,0.0,0.0,0.0
1729690893.5824444,36632,0,0,,6,4088,33.63709982513061,72.99131253638302,1.2599999904632568,0.0,0.0,0.0,0.0,0.0,0.0,0.0,0.0
1729690893.5824726,36633,0,0,,6,4088,33.63709982513061,72.99131253638302,1.2599999904632568,0.0,0.0,0.0,0.0,0.0,0.0,0.0,0.0
1729690893.582599,36634,0,0,,6,4088,33.63709982513061,72.99131253638302,1.2599999904632568,0.0,0.0,0.0,0.0,0.0,0.0,0.0,0.0
1729690893.582624,36635,0,0,,6,4088,33.63709982513061,72.99131253638302,1.2599999904632568,0.0,0.0,0.0,0.0,0.0,0.0,0.0,0.0
1729690893.5827463,36636,0,0,,6,4088,33.63709982513061,72.99131253638302,1.2599999904632568,0.0,0.0,0.0,0.0,0.0,0.0,0.0,0.0
1729690893.5827804,36637,0,0,,6,4088,33.63709982513061,72.99131253638302,1.2599999904632568,0.0,0.0,0.0,0.0,0.0,0.0,0.0,0.0
1729690893.582805,36638,0,0,,6,4088,33.63709982513061,72.99131253638302,1.2599999904632568,0.0,0.0,0.0,0.0,0.0,0.0,0.0,0.0
1729690893.5829332,36639,0,0,,6,4088,33.63709982513061,72.99131253638302,1.2599999904632568,0.0,0.0,0.0,0.0,0.0,0.0,0.0,0.0
1729690893.5829604,36640,0,0,,6,4088,33.63709982513061,72.99131253638302,1.2599999904632568,0.0,0.0,0.0,0.0,0.0,0.0,0.0,0.0
1729690893.5829825,36641,0,0,,6,4088,33.63709982513061,72.99131253638302,1.2599999904632568,0.0,0.0,0.0,0.0,0.0,0.0,0.0,0.0
1729690893.5831647,36642,0,0,,6,4088,33.63709982513061,72.99131253638302,1.2599999904632568,0.0,0.0,0.0,0.0,0.0,0.0,0.0,0.0
1729690893.58319,36643,0,0,,6,4088,33.63709982513061,72.99131253638302,1.2599999904632568,0.0,0.0,0.0,0.0,0.0,0.0,0.0,0.0
1729690893.5833127,36644,0,0,,6,4088,33.63709982513061,72.99131253638302,1.2599999904632568,0.0,0.0,0.0,0.0,0.0,0.0,0.0,0.0
1729690893.5834317,36645,0,0,,6,4088,33.63709982513061,72.99131253638302,1.2599999904632568,0.0,0.0,0.0,0.0,0.0,0.0,0.0,0.0
1729690893.5835016,36646,0,0,,6,4088,33.63709982513061,72.99131253638302,1.2599999904632568,0.0,0.0,0.0,0.0,0.0,0.0,0.0,0.0
1729690893.583594,36647,0,0,,6,4088,33.63709982513061,72.99131253638302,1.2599999904632568,0.0,0.0,0.0,0.0,0.0,0.0,0.0,0.0
1729690893.583721,36648,0,0,,6,4088,33.63709982513061,72.99131253638302,1.2599999904632568,0.0,0.0,0.0,0.0,0.0,0.0,0.0,0.0
1729690893.583748,36649,0,0,,6,4088,33.63709982513061,72.99131253638302,1.2599999904632568,0.0,0.0,0.0,0.0,0.0,0.0,0.0,0.0
1729690893.58377,36650,0,0,,6,4088,33.63709982513061,72.99131253638302,1.2599999904632568,0.0,0.0,0.0,0.0,0.0,0.0,0.0,0.0
1729690893.5838957,36651,0,0,,6,4088,33.63709982513061,72.99131253638302,1.2599999904632568,0.0,0.0,0.0,0.0,0.0,0.0,0.0,0.0
1729690893.5839217,36652,0,0,,6,4088,33.63709982513061,72.99131253638302,1.2599999904632568,0.0,0.0,0.0,0.0,0.0,0.0,0.0,0.0
1729690893.5840805,36653,0,0,,6,4088,33.63709982513061,72.99131253638302,1.2599999904632568,0.0,0.0,0.0,0.0,0.0,0.0,0.0,0.0
1729690893.5844524,36654,0,0,,6,4088,33.63709982513061,72.99131253638302,1.2599999904632568,0.0,0.0,0.0,0.0,0.0,0.0,0.0,0.0
1729690893.584487,36655,0,0,,6,4088,33.63709982513061,72.99131253638302,1.2599999904632568,0.0,0.0,0.0,0.0,0.0,0.0,0.0,0.0
1729690893.584508,36656,0,0,,6,4088,33.63709982513061,72.99131253638302,1.2599999904632568,0.0,0.0,0.0,0.0,0.0,0.0,0.0,0.0
1729690893.5845475,36657,0,0,,6,4088,33.63709982513061,72.99131253638302,1.2599999904632568,0.0,0.0,0.0,0.0,0.0,0.0,0.0,0.0
1729690893.584667,36658,0,0,,6,4088,33.63709982513061,72.99131253638302,1.2599999904632568,0.0,0.0,0.0,0.0,0.0,0.0,0.0,0.0
1729690893.5846996,36659,0,0,,6,4088,33.63709982513061,72.99131253638302,1.2599999904632568,0.0,0.0,0.0,0.0,0.0,0.0,0.0,0.0
1729690893.5847886,36660,0,0,,6,4088,33.63709982513061,72.99131253638302,1.2599999904632568,0.0,0.0,0.0,0.0,0.0,0.0,0.0,0.0
1729690893.584922,36661,0,0,,6,4088,33.63709982513061,72.99131253638302,1.2599999904632568,0.0,0.0,0.0,0.0,0.0,0.0,0.0,0.0
1729690893.5850456,36662,0,0,,6,4088,33.63709982513061,72.99131253638302,1.2599999904632568,0.0,0.0,0.0,0.0,0.0,0.0,0.0,0.0
1729690893.5850694,36663,0,0,,6,4088,33.63709982513061,72.99131253638302,1.2599999904632568,0.0,0.0,0.0,0.0,0.0,0.0,0.0,0.0
1729690893.5852332,36664,0,0,,6,4088,33.63709982513061,72.99131253638302,1.2599999904632568,0.0,0.0,0.0,0.0,0.0,0.0,0.0,0.0
1729690893.5852606,36665,0,0,,6,4088,33.63709982513061,72.99131253638302,1.2599999904632568,0.0,0.0,0.0,0.0,0.0,0.0,0.0,0.0
1729690893.5852838,36666,0,0,,6,4088,33.63709982513061,72.99131253638302,1.2599999904632568,0.0,0.0,0.0,0.0,0.0,0.0,0.0,0.0
1729690893.5853138,36667,0,0,,6,4088,33.63709982513061,72.99131253638302,1.2599999904632568,0.0,0.0,0.0,0.0,0.0,0.0,0.0,0.0
1729690893.5854902,36668,0,0,,6,4088,33.63709982513061,72.99131253638302,1.2599999904632568,0.0,0.0,0.0,0.0,0.0,0.0,0.0,0.0
1729690893.5855248,36669,0,0,,6,4088,33.63709982513061,72.99131253638302,1.2599999904632568,0.0,0.0,0.0,0.0,0.0,0.0,0.0,0.0
1729690893.5857277,36670,0,0,,6,4088,33.63709982513061,72.99131253638302,1.2599999904632568,0.0,0.0,0.0,0.0,0.0,0.0,0.0,0.0
1729690893.585754,36671,0,0,,6,4088,33.63709982513061,72.99131253638302,1.2599999904632568,0.0,0.0,0.0,0.0,0.0,0.0,0.0,0.0
1729690893.5879009,36672,0,0,,6,4088,33.63709982513061,72.99131253638302,1.2599999904632568,0.0,0.0,0.0,0.0,0.0,0.0,0.0,0.0
1729690893.5881002,36673,0,0,,6,4088,33.63709982513061,72.99131253638302,1.2599999904632568,0.0,0.0,0.0,0.0,0.0,0.0,0.0,0.0
1729690893.58813,36674,0,0,,6,4088,33.63709982513061,72.99131253638302,1.2599999904632568,0.0,0.0,0.0,0.0,0.0,0.0,0.0,0.0
1729690893.5881736,36675,0,0,,6,4088,33.63709982513061,72.99131253638302,1.2599999904632568,0.0,0.0,0.0,0.0,0.0,0.0,0.0,0.0
1729690893.5882068,36676,0,0,,6,4088,33.63709982513061,72.99131253638302,1.2599999904632568,0.0,0.0,0.0,0.0,0.0,0.0,0.0,0.0
1729690893.588287,36677,0,0,,6,4088,33.63709982513061,72.99131253638302,1.2599999904632568,0.0,0.0,0.0,0.0,0.0,0.0,0.0,0.0
1729690893.588313,36678,0,0,,6,4088,33.63709982513061,72.99131253638302,1.2599999904632568,0.0,0.0,0.0,0.0,0.0,0.0,0.0,0.0
1729690893.588435,36679,0,0,,6,4088,33.63709982513061,72.99131253638302,1.2599999904632568,0.0,0.0,0.0,0.0,0.0,0.0,0.0,0.0
1729690893.588461,36680,0,0,,6,4088,33.63709982513061,72.99131253638302,1.2599999904632568,0.0,0.0,0.0,0.0,0.0,0.0,0.0,0.0
1729690893.588576,36681,0,0,,6,4088,33.63709982513061,72.99131253638302,1.2599999904632568,0.0,0.0,0.0,0.0,0.0,0.0,0.0,0.0
1729690893.5888097,36682,0,0,,6,4088,33.63709982513061,72.99131253638302,1.2599999904632568,0.0,0.0,0.0,0.0,0.0,0.0,0.0,0.0
1729690893.589115,36683,0,0,,6,4088,33.63709982513061,72.99131253638302,1.2599999904632568,0.0,0.0,0.0,0.0,0.0,0.0,0.0,0.0
1729690893.589267,36684,0,0,,6,4088,33.63709982513061,72.99131253638302,1.2599999904632568,0.0,0.0,0.0,0.0,0.0,0.0,0.0,0.0
1729690893.5895603,36685,0,0,,6,4088,33.63709982513061,72.99131253638302,1.2599999904632568,0.0,0.0,0.0,0.0,0.0,0.0,0.0,0.0
1729690893.5895884,36686,0,0,,6,4088,33.63709982513061,72.99131253638302,1.2599999904632568,0.0,0.0,0.0,0.0,0.0,0.0,0.0,0.0
1729690893.589613,36687,0,0,,6,4088,33.63709982513061,72.99131253638302,1.2599999904632568,0.0,0.0,0.0,0.0,0.0,0.0,0.0,0.0
1729690893.5897985,36688,0,0,,6,4088,33.63709982513061,72.99131253638302,1.2599999904632568,0.0,0.0,0.0,0.0,0.0,0.0,0.0,0.0
1729690893.5898232,36689,0,0,,6,4088,33.63709982513061,72.99131253638302,1.2599999904632568,0.0,0.0,0.0,0.0,0.0,0.0,0.0,0.0
1729690893.590031,36690,0,0,,6,4088,33.63709982513061,72.99131253638302,1.2599999904632568,0.0,0.0,0.0,0.0,0.0,0.0,0.0,0.0
1729690893.5900667,36691,0,0,,6,4088,33.63709982513061,72.99131253638302,1.2599999904632568,0.0,0.0,0.0,0.0,0.0,0.0,0.0,0.0
1729690893.590188,36692,0,0,,6,4088,33.63709982513061,72.99131253638302,1.2599999904632568,0.0,0.0,0.0,0.0,0.0,0.0,0.0,0.0
1729690893.5902302,36693,0,0,,6,4088,33.63709982513061,72.99131253638302,1.2599999904632568,0.0,0.0,0.0,0.0,0.0,0.0,0.0,0.0
1729690893.5902607,36694,0,0,,6,4088,33.63709982513061,72.99131253638302,1.2599999904632568,0.0,0.0,0.0,0.0,0.0,0.0,0.0,0.0
1729690893.59038,36695,0,0,,6,4088,33.63709982513061,72.99131253638302,1.2599999904632568,0.0,0.0,0.0,0.0,0.0,0.0,0.0,0.0
1729690893.5905662,36696,0,0,,6,4088,33.63709982513061,72.99131253638302,1.2599999904632568,0.0,0.0,0.0,0.0,0.0,0.0,0.0,0.0
1729690893.5947473,37102,0,0,,6,4088,33.63709982513061,72.99131253638302,1.2599999904632568,0.0,0.0,0.0,0.0,0.0,0.0,0.0,0.0
1729690893.5948348,37103,0,0,,6,4088,33.63709982513061,72.99131253638302,1.2599999904632568,0.0,0.0,0.0,0.0,0.0,0.0,0.0,0.0
1729690893.742705,38075,0,0,,6,4088,33.63709982513061,72.99131253638302,1.2599999904632568,0.0,0.0,0.0,0.0,0.0,0.0,0.0,0.0
1729690893.7589638,38475,0,0,,6,4088,33.63710089874586,72.99131400076791,1.25,0.0,0.0,0.0,0.0,0.0,0.0,0.0,0.0
1729690893.7788599,38479,0,0,,6,4088,33.63710089874586,72.99131400076791,1.25,0.0,0.0,0.0,0.0,0.0,0.0,0.0,0.0
1729690894.0867546,39987,0,0,,6,4088,33.63709911397917,72.99131263562968,1.25,0.0,0.0,0.0,0.0,0.0,0.0,0.0,0.0
1729690894.0872178,40393,0,0,,6,4088,33.63709911397917,72.99131263562968,1.25,0.0,0.0,0.0,0.0,0.0,0.0,0.0,0.0
1729690894.0874405,40394,0,0,,6,4088,33.63709911397917,72.99131263562968,1.25,0.0,0.0,0.0,0.0,0.0,0.0,0.0,0.0
1729690894.0874696,40395,0,0,,6,4088,33.63709832507721,72.99131204797285,1.2519999742507935,0.0,0.0,0.0,0.0,0.0,0.0,0.0,0.0
1729690894.0876162,40396,0,0,,6,4088,33.63709832507721,72.99131204797285,1.2519999742507935,0.0,0.0,0.0,0.0,0.0,0.0,0.0,0.0
1729690894.0876834,40397,0,0,,6,4088,33.63709832507721,72.99131204797285,1.2519999742507935,0.0,0.0,0.0,0.0,0.0,0.0,0.0,0.0
1729690894.087716,40398,0,0,,6,4088,33.63709832507721,72.99131204797285,1.2519999742507935,0.0,0.0,0.0,0.0,0.0,0.0,0.0,0.0
1729690894.087762,40399,0,0,,6,4088,33.63709832507721,72.99131204797285,1.2519999742507935,0.0,0.0,0.0,0.0,0.0,0.0,0.0,0.0
1729690894.0878246,40400,0,0,,6,4088,33.63709832507721,72.99131204797285,1.2519999742507935,0.0,0.0,0.0,0.0,0.0,0.0,0.0,0.0
1729690894.0879822,40401,0,0,,6,4088,33.63709832507721,72.99131204797285,1.2519999742507935,0.0,0.0,0.0,0.0,0.0,0.0,0.0,0.0
1729690894.0881155,40402,0,0,,6,4088,33.63709832507721,72.99131204797285,1.2519999742507935,0.0,0.0,0.0,0.0,0.0,0.0,0.0,0.0
1729690894.0881417,40403,0,0,,6,4088,33.63709832507721,72.99131204797285,1.2519999742507935,0.0,0.0,0.0,0.0,0.0,0.0,0.0,0.0
1729690894.0882568,40404,0,0,,6,4088,33.63709832507721,72.99131204797285,1.2519999742507935,0.0,0.0,0.0,0.0,0.0,0.0,0.0,0.0
1729690894.0883942,40405,0,0,,6,4088,33.63709832507721,72.99131204797285,1.2519999742507935,0.0,0.0,0.0,0.0,0.0,0.0,0.0,0.0
1729690894.088518,40406,0,0,,6,4088,33.63709832507721,72.99131204797285,1.2519999742507935,0.0,0.0,0.0,0.0,0.0,0.0,0.0,0.0
1729690894.0897086,40407,0,0,,6,4088,33.63709832507721,72.99131204797285,1.2519999742507935,0.0,0.0,0.0,0.0,0.0,0.0,0.0,0.0
1729690894.0900407,40408,0,0,,6,4088,33.63709832507721,72.99131204797285,1.2519999742507935,0.0,0.0,0.0,0.0,0.0,0.0,0.0,0.0
1729690894.0900755,40409,0,0,,6,4088,33.63709832507721,72.99131204797285,1.2519999742507935,0.0,0.0,0.0,0.0,0.0,0.0,0.0,0.0
1729690894.0905097,40410,0,0,,6,4088,33.63709832507721,72.99131204797285,1.2519999742507935,0.0,0.0,0.0,0.0,0.0,0.0,0.0,0.0
1729690894.0905476,40412,0,0,,6,4088,33.63709832507721,72.99131204797285,1.2519999742507935,0.0,0.0,0.0,0.0,0.0,0.0,0.0,0.0
1729690894.0905838,40413,0,0,,6,4088,33.63709832507721,72.99131204797285,1.2519999742507935,0.0,0.0,0.0,0.0,0.0,0.0,0.0,0.0
1729690894.0906103,40414,0,0,,6,4088,33.63709832507721,72.99131204797285,1.2519999742507935,0.0,0.0,0.0,0.0,0.0,0.0,0.0,0.0
1729690894.090638,40415,0,0,,6,4088,33.63709832507721,72.99131204797285,1.2519999742507935,0.0,0.0,0.0,0.0,0.0,0.0,0.0,0.0
1729690894.0909986,40417,0,0,,6,4088,33.63709832507721,72.99131204797285,1.2519999742507935,0.0,0.0,0.0,0.0,0.0,0.0,0.0,0.0
1729690894.091115,40418,0,0,,6,4088,33.63709832507721,72.99131204797285,1.2519999742507935,0.0,0.0,0.0,0.0,0.0,0.0,0.0,0.0
1729690894.0919862,40419,0,0,,6,4088,33.63709832507721,72.99131204797285,1.2519999742507935,0.0,0.0,0.0,0.0,0.0,0.0,0.0,0.0
1729690894.092369,40420,0,0,,6,4088,33.63709832507721,72.99131204797285,1.2519999742507935,0.0,0.0,0.0,0.0,0.0,0.0,0.0,0.0
1729690894.0925455,40421,0,0,,6,4088,33.63709832507721,72.99131204797285,1.2519999742507935,0.0,0.0,0.0,0.0,0.0,0.0,0.0,0.0
1729690894.0926573,40422,0,0,,6,4088,33.63709832507721,72.99131204797285,1.2519999742507935,0.0,0.0,0.0,0.0,0.0,0.0,0.0,0.0
1729690894.0926955,40423,0,0,,6,4088,33.63709832507721,72.99131204797285,1.2519999742507935,0.0,0.0,0.0,0.0,0.0,0.0,0.0,0.0
1729690894.0927882,40424,0,0,,6,4088,33.63709832507721,72.99131204797285,1.2519999742507935,0.0,0.0,0.0,0.0,0.0,0.0,0.0,0.0
1729690894.0928135,40425,0,0,,6,4088,33.63709832507721,72.99131204797285,1.2519999742507935,0.0,0.0,0.0,0.0,0.0,0.0,0.0,0.0
1729690894.0928519,40426,0,0,,6,4088,33.63709832507721,72.99131204797285,1.2519999742507935,0.0,0.0,0.0,0.0,0.0,0.0,0.0,0.0
1729690894.092887,40427,0,0,,6,4088,33.63709832507721,72.99131204797285,1.2519999742507935,0.0,0.0,0.0,0.0,0.0,0.0,0.0,0.0
1729690894.092912,40428,0,0,,6,4088,33.63709832507721,72.99131204797285,1.2519999742507935,0.0,0.0,0.0,0.0,0.0,0.0,0.0,0.0
1729690894.0934896,40429,0,0,,6,4088,33.63709832507721,72.99131204797285,1.2519999742507935,0.0,0.0,0.0,0.0,0.0,0.0,0.0,0.0
1729690894.0943785,40430,0,0,,6,4088,33.63709832507721,72.99131204797285,1.2519999742507935,0.0,0.0,0.0,0.0,0.0,0.0,0.0,0.0
1729690894.0944247,40431,0,0,,6,4088,33.63709832507721,72.99131204797285,1.2519999742507935,0.0,0.0,0.0,0.0,0.0,0.0,0.0,0.0
1729690894.094452,40432,0,0,,6,4088,33.63709832507721,72.99131204797285,1.2519999742507935,0.0,0.0,0.0,0.0,0.0,0.0,0.0,0.0
1729690894.0946271,40433,0,0,,6,4088,33.63709832507721,72.99131204797285,1.2519999742507935,0.0,0.0,0.0,0.0,0.0,0.0,0.0,0.0
1729690894.094735,40434,0,0,,6,4088,33.63709832507721,72.99131204797285,1.2519999742507935,0.0,0.0,0.0,0.0,0.0,0.0,0.0,0.0
1729690894.0948982,40435,0,0,,6,4088,33.63709832507721,72.99131204797285,1.2519999742507935,0.0,0.0,0.0,0.0,0.0,0.0,0.0,0.0
1729690894.0949304,40436,0,0,,6,4088,33.63709832507721,72.99131204797285,1.2519999742507935,0.0,0.0,0.0,0.0,0.0,0.0,0.0,0.0
1729690894.095064,40437,0,0,,6,4088,33.63709832507721,72.99131204797285,1.2519999742507935,0.0,0.0,0.0,0.0,0.0,0.0,0.0,0.0
1729690894.0951037,40438,0,0,,6,4088,33.63709832507721,72.99131204797285,1.2519999742507935,0.0,0.0,0.0,0.0,0.0,0.0,0.0,0.0
1729690894.095133,40439,0,0,,6,4088,33.63709832507721,72.99131204797285,1.2519999742507935,0.0,0.0,0.0,0.0,0.0,0.0,0.0,0.0
1729690894.0951607,40440,0,0,,6,4088,33.63709832507721,72.99131204797285,1.2519999742507935,0.0,0.0,0.0,0.0,0.0,0.0,0.0,0.0
1729690894.0952868,40441,0,0,,6,4088,33.63709832507721,72.99131204797285,1.2519999742507935,0.0,0.0,0.0,0.0,0.0,0.0,0.0,0.0
1729690894.095323,40442,0,0,,6,4088,33.63709832507721,72.99131204797285,1.2519999742507935,0.0,0.0,0.0,0.0,0.0,0.0,0.0,0.0
1729690894.095353,40443,0,0,,6,4088,33.63709832507721,72.99131204797285,1.2519999742507935,0.0,0.0,0.0,0.0,0.0,0.0,0.0,0.0
1729690894.0953746,40444,0,0,,6,4088,33.63709832507721,72.99131204797285,1.2519999742507935,0.0,0.0,0.0,0.0,0.0,0.0,0.0,0.0
1729690894.0957751,40445,0,0,,6,4088,33.63709832507721,72.99131204797285,1.2519999742507935,0.0,0.0,0.0,0.0,0.0,0.0,0.0,0.0
1729690894.0958023,40446,0,0,,6,4088,33.63709832507721,72.99131204797285,1.2519999742507935,0.0,0.0,0.0,0.0,0.0,0.0,0.0,0.0
1729690894.0960531,40447,0,0,,6,4088,33.63709832507721,72.99131204797285,1.2519999742507935,0.0,0.0,0.0,0.0,0.0,0.0,0.0,0.0
1729690894.0960815,40448,0,0,,6,4088,33.63709832507721,72.99131204797285,1.2519999742507935,0.0,0.0,0.0,0.0,0.0,0.0,0.0,0.0
1729690894.0961192,40449,0,0,,6,4088,33.63709832507721,72.99131204797285,1.2519999742507935,0.0,0.0,0.0,0.0,0.0,0.0,0.0,0.0
1729690894.0962827,40450,0,0,,6,4088,33.63709832507721,72.99131204797285,1.2519999742507935,0.0,0.0,0.0,0.0,0.0,0.0,0.0,0.0
1729690894.0964117,40451,0,0,,6,4088,33.63709832507721,72.99131204797285,1.2519999742507935,0.0,0.0,0.0,0.0,0.0,0.0,0.0,0.0
1729690894.0964377,40452,0,0,,6,4088,33.63709832507721,72.99131204797285,1.2519999742507935,0.0,0.0,0.0,0.0,0.0,0.0,0.0,0.0
1729690894.0964606,40453,0,0,,6,4088,33.63709832507721,72.99131204797285,1.2519999742507935,0.0,0.0,0.0,0.0,0.0,0.0,0.0,0.0
1729690894.0965998,40454,0,0,,6,4088,33.63709832507721,72.99131204797285,1.2519999742507935,0.0,0.0,0.0,0.0,0.0,0.0,0.0,0.0
1729690894.0966244,40455,0,0,,6,4088,33.63709832507721,72.99131204797285,1.2519999742507935,0.0,0.0,0.0,0.0,0.0,0.0,0.0,0.0
1729690894.0967476,40456,0,0,,6,4088,33.63709832507721,72.99131204797285,1.2519999742507935,0.0,0.0,0.0,0.0,0.0,0.0,0.0,0.0
1729690894.0967758,40457,0,0,,6,4088,33.63709832507721,72.99131204797285,1.2519999742507935,0.0,0.0,0.0,0.0,0.0,0.0,0.0,0.0
1729690894.0968907,40458,0,0,,6,4088,33.63709832507721,72.99131204797285,1.2519999742507935,0.0,0.0,0.0,0.0,0.0,0.0,0.0,0.0
1729690894.0969172,40459,0,0,,6,4088,33.63709832507721,72.99131204797285,1.2519999742507935,0.0,0.0,0.0,0.0,0.0,0.0,0.0,0.0
1729690894.096959,40460,0,0,,6,4088,33.63709832507721,72.99131204797285,1.2519999742507935,0.0,0.0,0.0,0.0,0.0,0.0,0.0,0.0
1729690894.0970554,40461,0,0,,6,4088,33.63709832507721,72.99131204797285,1.2519999742507935,0.0,0.0,0.0,0.0,0.0,0.0,0.0,0.0
1729690894.0970821,40462,0,0,,6,4088,33.63709832507721,72.99131204797285,1.2519999742507935,0.0,0.0,0.0,0.0,0.0,0.0,0.0,0.0
1729690894.0971048,40463,0,0,,6,4088,33.63709832507721,72.99131204797285,1.2519999742507935,0.0,0.0,0.0,0.0,0.0,0.0,0.0,0.0
1729690894.0972993,40464,0,0,,6,4088,33.63709832507721,72.99131204797285,1.2519999742507935,0.0,0.0,0.0,0.0,0.0,0.0,0.0,0.0
1729690894.0973709,40465,0,0,,6,4088,33.63709832507721,72.99131204797285,1.2519999742507935,0.0,0.0,0.0,0.0,0.0,0.0,0.0,0.0
1729690894.098033,40466,0,0,,6,4088,33.63709832507721,72.99131204797285,1.2519999742507935,0.0,0.0,0.0,0.0,0.0,0.0,0.0,0.0
1729690894.0981686,40467,0,0,,6,4088,33.63709832507721,72.99131204797285,1.2519999742507935,0.0,0.0,0.0,0.0,0.0,0.0,0.0,0.0
1729690894.098192,40468,0,0,,6,4088,33.63709832507721,72.99131204797285,1.2519999742507935,0.0,0.0,0.0,0.0,0.0,0.0,0.0,0.0
1729690894.0983171,40469,0,0,,6,4088,33.63709832507721,72.99131204797285,1.2519999742507935,0.0,0.0,0.0,0.0,0.0,0.0,0.0,0.0
1729690894.098345,40470,0,0,,6,4088,33.63709832507721,72.99131204797285,1.2519999742507935,0.0,0.0,0.0,0.0,0.0,0.0,0.0,0.0
1729690894.098368,40471,0,0,,6,4088,33.63709832507721,72.99131204797285,1.2519999742507935,0.0,0.0,0.0,0.0,0.0,0.0,0.0,0.0
1729690894.0983899,40472,0,0,,6,4088,33.63709832507721,72.99131204797285,1.2519999742507935,0.0,0.0,0.0,0.0,0.0,0.0,0.0,0.0
1729690894.0985293,40473,0,0,,6,4088,33.63709832507721,72.99131204797285,1.2519999742507935,0.0,0.0,0.0,0.0,0.0,0.0,0.0,0.0
1729690894.0985558,40474,0,0,,6,4088,33.63709832507721,72.99131204797285,1.2519999742507935,0.0,0.0,0.0,0.0,0.0,0.0,0.0,0.0
1729690894.098576,40475,0,0,,6,4088,33.63709832507721,72.99131204797285,1.2519999742507935,0.0,0.0,0.0,0.0,0.0,0.0,0.0,0.0
1729690894.0987306,40476,0,0,,6,4088,33.63709832507721,72.99131204797285,1.2519999742507935,0.0,0.0,0.0,0.0,0.0,0.0,0.0,0.0
1729690894.098937,40477,0,0,,6,4088,33.63709832507721,72.99131204797285,1.2519999742507935,0.0,0.0,0.0,0.0,0.0,0.0,0.0,0.0
1729690894.0990667,40478,0,0,,6,4088,33.63709832507721,72.99131204797285,1.2519999742507935,0.0,0.0,0.0,0.0,0.0,0.0,0.0,0.0
1729690894.0990968,40479,0,0,,6,4088,33.63709832507721,72.99131204797285,1.2519999742507935,0.0,0.0,0.0,0.0,0.0,0.0,0.0,0.0
1729690894.0991209,40480,0,0,,6,4088,33.63709832507721,72.99131204797285,1.2519999742507935,0.0,0.0,0.0,0.0,0.0,0.0,0.0,0.0
1729690894.099142,40481,0,0,,6,4088,33.63709832507721,72.99131204797285,1.2519999742507935,0.0,0.0,0.0,0.0,0.0,0.0,0.0,0.0
1729690894.0992908,40482,0,0,,6,4088,33.63709832507721,72.99131204797285,1.2519999742507935,0.0,0.0,0.0,0.0,0.0,0.0,0.0,0.0
1729690894.0993161,40483,0,0,,6,4088,33.63709832507721,72.99131204797285,1.2519999742507935,0.0,0.0,0.0,0.0,0.0,0.0,0.0,0.0
1729690894.0994418,40484,0,0,,6,4088,33.63709832507721,72.99131204797285,1.2519999742507935,0.0,0.0,0.0,0.0,0.0,0.0,0.0,0.0
1729690894.0995672,40485,0,0,,6,4088,33.63709832507721,72.99131204797285,1.2519999742507935,0.0,0.0,0.0,0.0,0.0,0.0,0.0,0.0
1729690894.0995932,40486,0,0,,6,4088,33.63709832507721,72.99131204797285,1.2519999742507935,0.0,0.0,0.0,0.0,0.0,0.0,0.0,0.0
1729690894.0997207,40487,0,0,,6,4088,33.63709832507721,72.99131204797285,1.2519999742507935,0.0,0.0,0.0,0.0,0.0,0.0,0.0,0.0
1729690894.0998454,40488,0,0,,6,4088,33.63709832507721,72.99131204797285,1.2519999742507935,0.0,0.0,0.0,0.0,0.0,0.0,0.0,0.0
1729690894.0998678,40489,0,0,,6,4088,33.63709832507721,72.99131204797285,1.2519999742507935,0.0,0.0,0.0,0.0,0.0,0.0,0.0,0.0
1729690894.0998964,40490,0,0,,6,4088,33.63709832507721,72.99131204797285,1.2519999742507935,0.0,0.0,0.0,0.0,0.0,0.0,0.0,0.0
1729690894.100033,40491,0,0,,6,4088,33.63709832507721,72.99131204797285,1.2519999742507935,0.0,0.0,0.0,0.0,0.0,0.0,0.0,0.0
1729690894.10006,40492,0,0,,6,4088,33.63709832507721,72.99131204797285,1.2519999742507935,0.0,0.0,0.0,0.0,0.0,0.0,0.0,0.0
1729690894.100082,40493,0,0,,6,4088,33.63709832507721,72.99131204797285,1.2519999742507935,0.0,0.0,0.0,0.0,0.0,0.0,0.0,0.0
1729690894.1002162,40494,0,0,,6,4088,33.63709832507721,72.99131204797285,1.2519999742507935,0.0,0.0,0.0,0.0,0.0,0.0,0.0,0.0
1729690894.100347,40495,0,0,,6,4088,33.63709832507721,72.99131204797285,1.2519999742507935,0.0,0.0,0.0,0.0,0.0,0.0,0.0,0.0
1729690894.100472,40496,0,0,,6,4088,33.63709832507721,72.99131204797285,1.2519999742507935,0.0,0.0,0.0,0.0,0.0,0.0,0.0,0.0
1729690894.1004984,40497,0,0,,6,4088,33.63709832507721,72.99131204797285,1.2519999742507935,0.0,0.0,0.0,0.0,0.0,0.0,0.0,0.0
1729690894.1006038,40958,0,0,,6,4088,33.63709832507721,72.99131204797285,1.2519999742507935,0.0,0.0,0.0,0.0,0.0,0.0,0.0,0.0
1729690894.1006382,40968,0,0,,6,4088,33.63709832507721,72.99131204797285,1.2519999742507935,0.0,0.0,0.0,0.0,0.0,0.0,0.0,0.0
1729690894.1006625,40969,0,0,,6,4088,33.63709832507721,72.99131204797285,1.2519999742507935,0.0,0.0,0.0,0.0,0.0,0.0,0.0,0.0
1729690894.1007807,40990,0,0,,6,4088,33.63709832507721,72.99131204797285,1.2519999742507935,0.0,0.0,0.0,0.0,0.0,0.0,0.0,0.0
1729690894.2644236,41787,0,0,,6,4088,33.63709778009988,72.99131148195843,1.2589999437332153,0.0,0.0,0.0,0.0,0.0,0.0,0.0,0.0
1729690894.2712052,41824,0,0,,6,4088,33.63709778009988,72.99131158195844,1.2589999437332153,0.0,0.0,0.0,0.0,0.0,0.0,0.0,0.0
1729690894.2720287,42287,0,0,,6,4088,33.63709785676838,72.99131155129116,1.2699999809265137,0.0,0.0,0.0,0.0,0.0,0.0,0.0,0.0
1729690894.4348552,42600,0,0,,6,4088,33.63709785676838,72.99131155129116,1.2699999809265137,0.0,0.0,0.0,0.0,0.0,0.0,0.0,0.0
1729690894.4431677,43556,0,0,,6,4088,33.63709825664746,72.99131196257554,1.2869999408721924,0.0,0.0,0.0,0.0,0.0,0.0,0.0,0.0
1729690894.443221,43557,0,0,,6,4088,33.63709825664746,72.99131196257554,1.2869999408721924,0.0,0.0,0.0,0.0,0.0,0.0,0.0,0.0
1729690894.448883,43580,0,0,,6,4088,33.63709896685154,72.99131259060802,1.312000036239624,0.0,0.0,0.0,0.0,0.0,0.0,0.0,0.0
1729690894.46042,43658,0,0,,6,4088,33.63709896685154,72.99131259060802,1.312000036239624,0.0,0.0,0.0,0.0,0.0,0.0,0.0,0.0
1729690894.6169443,43975,0,0,,6,4088,33.63709896685154,72.99131259060802,1.312000036239624,0.0,0.0,0.0,0.0,0.0,0.0,0.0,0.0
1729690894.6212044,43998,0,0,,6,4088,33.63709983199423,72.9913132571666,1.3489999771118164,0.0,0.0,0.0,0.0,0.0,0.0,0.0,0.0
1729690894.6213834,44685,0,0,,6,4088,33.63709983199423,72.9913132571666,1.3489999771118164,0.0,0.0,0.0,0.0,0.0,0.0,0.0,0.0
1729690894.6214447,44686,0,0,,6,4088,33.63710046622588,72.99131368347393,1.3980000019073486,0.0,0.0,0.0,0.0,0.0,0.0,0.0,0.0
1729690894.8118434,46012,0,0,,6,4088,33.63710085171818,72.99131376591758,1.4509999752044678,0.0,0.0,0.0,0.0,0.0,0.0,0.0,0.0
1729690894.8156893,46015,0,0,,6,4088,33.637100686990564,72.99131360669494,1.5089999437332153,0.0,0.0,0.0,0.0,0.0,0.0,0.0,0.0
1729690894.9611084,47146,0,0,,6,4088,33.63710092066524,72.9913133475167,1.5670000314712524,0.0,0.0,0.0,0.0,0.0,0.0,0.0,0.0
1729690894.9745986,47155,0,0,,6,4088,33.63710092066524,72.9913133475167,1.5670000314712524,0.0,0.0,0.0,0.0,0.0,0.0,0.0,0.0
1729690894.9746394,47166,0,0,,6,4088,33.63710092066524,72.9913133475167,1.5670000314712524,0.0,0.0,0.0,0.0,0.0,0.0,0.0,0.0
1729690894.9746816,47169,0,0,,6,4088,33.63710092066524,72.9913133475167,1.5670000314712524,0.0,0.0,0.0,0.0,0.0,0.0,0.0,0.0
1729690894.9747126,47185,0,0,,6,4088,33.63710092066524,72.9913133475167,1.5670000314712524,0.0,0.0,0.0,0.0,0.0,0.0,0.0,0.0
1729690894.9747372,47186,0,0,,6,4088,33.63710092066524,72.9913133475167,1.5670000314712524,0.0,0.0,0.0,0.0,0.0,0.0,0.0,0.0
1729690894.9747658,47187,0,0,,6,4088,33.63710092066524,72.9913133475167,1.5670000314712524,0.0,0.0,0.0,0.0,0.0,0.0,0.0,0.0
1729690894.9747918,47188,0,0,,6,4088,33.63710092066524,72.9913133475167,1.5670000314712524,0.0,0.0,0.0,0.0,0.0,0.0,0.0,0.0
1729690894.974818,47189,0,0,,6,4088,33.63710092066524,72.9913133475167,1.5670000314712524,0.0,0.0,0.0,0.0,0.0,0.0,0.0,0.0
1729690894.9748616,47190,0,0,,6,4088,33.63710092066524,72.9913133475167,1.5670000314712524,0.0,0.0,0.0,0.0,0.0,0.0,0.0,0.0
1729690894.9749908,47191,0,0,,6,4088,33.63710092066524,72.9913133475167,1.5670000314712524,0.0,0.0,0.0,0.0,0.0,0.0,0.0,0.0
1729690894.9750173,47192,0,0,,6,4088,33.63710092066524,72.9913133475167,1.5670000314712524,0.0,0.0,0.0,0.0,0.0,0.0,0.0,0.0
1729690894.9755268,47193,0,0,,6,4088,33.63710092066524,72.9913133475167,1.5670000314712524,0.0,0.0,0.0,0.0,0.0,0.0,0.0,0.0
1729690894.9759128,47194,0,0,,6,4088,33.63710092066524,72.9913133475167,1.5670000314712524,0.0,0.0,0.0,0.0,0.0,0.0,0.0,0.0
1729690894.9763968,47196,0,0,,6,4088,33.63710092066524,72.9913133475167,1.5670000314712524,0.0,0.0,0.0,0.0,0.0,0.0,0.0,0.0
1729690894.9765635,47198,0,0,,6,4088,33.63710092066524,72.9913133475167,1.5670000314712524,0.0,0.0,0.0,0.0,0.0,0.0,0.0,0.0
1729690894.9765942,47200,0,0,,6,4088,33.63710092066524,72.9913133475167,1.5670000314712524,0.0,0.0,0.0,0.0,0.0,0.0,0.0,0.0
1729690894.976617,47203,0,0,,6,4088,33.63710092066524,72.9913133475167,1.5670000314712524,0.0,0.0,0.0,0.0,0.0,0.0,0.0,0.0
1729690894.9767857,47206,0,0,,6,4088,33.63710092066524,72.9913133475167,1.5670000314712524,0.0,0.0,0.0,0.0,0.0,0.0,0.0,0.0
1729690894.976932,47209,0,0,,6,4088,33.63710092066524,72.9913133475167,1.5670000314712524,0.0,0.0,0.0,0.0,0.0,0.0,0.0,0.0
1729690894.9769754,47212,0,0,,6,4088,33.63710092066524,72.9913133475167,1.5670000314712524,0.0,0.0,0.0,0.0,0.0,0.0,0.0,0.0
1729690894.977013,47215,0,0,,6,4088,33.63710092066524,72.9913133475167,1.5670000314712524,0.0,0.0,0.0,0.0,0.0,0.0,0.0,0.0
1729690894.9770494,47218,0,0,,6,4088,33.63710092066524,72.9913133475167,1.5670000314712524,0.0,0.0,0.0,0.0,0.0,0.0,0.0,0.0
1729690894.9770763,47221,0,0,,6,4088,33.63710092066524,72.9913133475167,1.5670000314712524,0.0,0.0,0.0,0.0,0.0,0.0,0.0,0.0
1729690894.9771006,47224,0,0,,6,4088,33.63710092066524,72.9913133475167,1.5670000314712524,0.0,0.0,0.0,0.0,0.0,0.0,0.0,0.0
1729690894.9772515,47227,0,0,,6,4088,33.63710092066524,72.9913133475167,1.5670000314712524,0.0,0.0,0.0,0.0,0.0,0.0,0.0,0.0
1729690894.9772778,47230,0,0,,6,4088,33.63710092066524,72.9913133475167,1.5670000314712524,0.0,0.0,0.0,0.0,0.0,0.0,0.0,0.0
1729690894.9773023,47233,0,0,,6,4088,33.63710092066524,72.9913133475167,1.5670000314712524,0.0,0.0,0.0,0.0,0.0,0.0,0.0,0.0
1729690894.9774868,47236,0,0,,6,4088,33.63710092066524,72.9913133475167,1.5670000314712524,0.0,0.0,0.0,0.0,0.0,0.0,0.0,0.0
1729690894.9963336,47239,0,0,,6,4088,33.63710092066524,72.9913133475167,1.5670000314712524,0.0,0.0,0.0,0.0,0.0,0.0,0.0,0.0
1729690894.9963713,47241,0,0,,6,4088,33.63710092066524,72.9913133475167,1.5670000314712524,0.0,0.0,0.0,0.0,0.0,0.0,0.0,0.0
1729690894.9964187,47243,0,0,,6,4088,33.63710092066524,72.9913133475167,1.5670000314712524,0.0,0.0,0.0,0.0,0.0,0.0,0.0,0.0
1729690894.9964647,47245,0,0,,6,4088,33.63710092066524,72.9913133475167,1.5670000314712524,0.0,0.0,0.0,0.0,0.0,0.0,0.0,0.0
1729690894.9964979,47247,0,0,,6,4088,33.63710092066524,72.9913133475167,1.5670000314712524,0.0,0.0,0.0,0.0,0.0,0.0,0.0,0.0
1729690894.9965346,47249,0,0,,6,4088,33.63710092066524,72.9913133475167,1.5670000314712524,0.0,0.0,0.0,0.0,0.0,0.0,0.0,0.0
1729690894.9965796,47251,0,0,,6,4088,33.63710092066524,72.9913133475167,1.5670000314712524,0.0,0.0,0.0,0.0,0.0,0.0,0.0,0.0
1729690894.9967122,47254,0,0,,6,4088,33.63710092066524,72.9913133475167,1.5670000314712524,0.0,0.0,0.0,0.0,0.0,0.0,0.0,0.0
1729690895.1375587,47256,0,0,,6,4088,33.63710092066524,72.9913133475167,1.5670000314712524,0.0,0.0,0.0,0.0,0.0,0.0,0.0,0.0
1729690895.1377742,47258,0,0,,6,4088,33.63710092066524,72.9913133475167,1.5670000314712524,0.0,0.0,0.0,0.0,0.0,0.0,0.0,0.0
1729690895.1378026,47260,0,0,,6,4088,33.63710092066524,72.9913133475167,1.5670000314712524,0.0,0.0,0.0,0.0,0.0,0.0,0.0,0.0
1729690895.137844,47262,0,0,,6,4088,33.63710092066524,72.9913133475167,1.5670000314712524,0.0,0.0,0.0,0.0,0.0,0.0,0.0,0.0
1729690895.1378667,47264,0,0,,6,4088,33.63710092066524,72.9913133475167,1.5670000314712524,0.0,0.0,0.0,0.0,0.0,0.0,0.0,0.0
1729690895.1380527,47266,0,0,,6,4088,33.63710092066524,72.9913133475167,1.5670000314712524,0.0,0.0,0.0,0.0,0.0,0.0,0.0,0.0
1729690895.1381845,47268,0,0,,6,4088,33.63710092066524,72.9913133475167,1.5670000314712524,0.0,0.0,0.0,0.0,0.0,0.0,0.0,0.0
1729690895.1382096,47270,0,0,,6,4088,33.63710092066524,72.9913133475167,1.5670000314712524,0.0,0.0,0.0,0.0,0.0,0.0,0.0,0.0
1729690895.1382408,47272,0,0,,6,4088,33.63710092066524,72.9913133475167,1.5670000314712524,0.0,0.0,0.0,0.0,0.0,0.0,0.0,0.0
1729690895.1382806,47274,0,0,,6,4088,33.63710092066524,72.9913133475167,1.5670000314712524,0.0,0.0,0.0,0.0,0.0,0.0,0.0,0.0
1729690895.1383095,47276,0,0,,6,4088,33.63710092066524,72.9913133475167,1.5670000314712524,0.0,0.0,0.0,0.0,0.0,0.0,0.0,0.0
1729690895.1383371,47278,0,0,,6,4088,33.63710092066524,72.9913133475167,1.5670000314712524,0.0,0.0,0.0,0.0,0.0,0.0,0.0,0.0
1729690895.1385095,47280,0,0,,6,4088,33.63710092066524,72.9913133475167,1.5670000314712524,0.0,0.0,0.0,0.0,0.0,0.0,0.0,0.0
1729690895.1386237,47282,0,0,,6,4088,33.63710092066524,72.9913133475167,1.5670000314712524,0.0,0.0,0.0,0.0,0.0,0.0,0.0,0.0
1729690895.1386464,47284,0,0,,6,4088,33.63710092066524,72.9913133475167,1.5670000314712524,0.0,0.0,0.0,0.0,0.0,0.0,0.0,0.0
1729690895.1387818,47285,0,0,,6,4088,33.63710092066524,72.9913133475167,1.5670000314712524,0.0,0.0,0.0,0.0,0.0,0.0,0.0,0.0
1729690895.1388183,47286,0,0,,6,4088,33.63710092066524,72.9913133475167,1.5670000314712524,0.0,0.0,0.0,0.0,0.0,0.0,0.0,0.0
1729690895.1388597,47287,0,0,,6,4088,33.63710092066524,72.9913133475167,1.5670000314712524,0.0,0.0,0.0,0.0,0.0,0.0,0.0,0.0
1729690895.138887,47288,0,0,,6,4088,33.63710092066524,72.9913133475167,1.5670000314712524,0.0,0.0,0.0,0.0,0.0,0.0,0.0,0.0
1729690895.1389153,47289,0,0,,6,4088,33.63710092066524,72.9913133475167,1.5670000314712524,0.0,0.0,0.0,0.0,0.0,0.0,0.0,0.0
1729690895.1389832,47290,0,0,,6,4088,33.63710092066524,72.9913133475167,1.5670000314712524,0.0,0.0,0.0,0.0,0.0,0.0,0.0,0.0
1729690895.1390176,47291,0,0,,6,4088,33.63710092066524,72.9913133475167,1.5670000314712524,0.0,0.0,0.0,0.0,0.0,0.0,0.0,0.0
1729690895.1391368,47292,0,0,,6,4088,33.63710092066524,72.9913133475167,1.5670000314712524,0.0,0.0,0.0,0.0,0.0,0.0,0.0,0.0
1729690895.1392517,47293,0,0,,6,4088,33.63710092066524,72.9913133475167,1.5670000314712524,0.0,0.0,0.0,0.0,0.0,0.0,0.0,0.0
1729690895.1392756,47294,0,0,,6,4088,33.63710092066524,72.9913133475167,1.5670000314712524,0.0,0.0,0.0,0.0,0.0,0.0,0.0,0.0
1729690895.1392972,47295,0,0,,6,4088,33.63710092066524,72.9913133475167,1.5670000314712524,0.0,0.0,0.0,0.0,0.0,0.0,0.0,0.0
1729690895.1393228,47296,0,0,,6,4088,33.63710092066524,72.9913133475167,1.5670000314712524,0.0,0.0,0.0,0.0,0.0,0.0,0.0,0.0
1729690895.1393735,47297,0,0,,6,4088,33.63710092066524,72.9913133475167,1.5670000314712524,0.0,0.0,0.0,0.0,0.0,0.0,0.0,0.0
1729690895.1393962,47298,0,0,,6,4088,33.63710092066524,72.9913133475167,1.5670000314712524,0.0,0.0,0.0,0.0,0.0,0.0,0.0,0.0
1729690895.1408663,47299,0,0,,6,4088,33.63710092066524,72.9913133475167,1.5670000314712524,0.0,0.0,0.0,0.0,0.0,0.0,0.0,0.0
1729690895.1408877,47300,0,0,,6,4088,33.63710092066524,72.9913133475167,1.5670000314712524,0.0,0.0,0.0,0.0,0.0,0.0,0.0,0.0
1729690895.1410177,47301,0,0,,6,4088,33.63710092066524,72.9913133475167,1.5670000314712524,0.0,0.0,0.0,0.0,0.0,0.0,0.0,0.0
1729690895.1411428,47302,0,0,,6,4088,33.63710092066524,72.9913133475167,1.5670000314712524,0.0,0.0,0.0,0.0,0.0,0.0,0.0,0.0
1729690895.141165,47303,0,0,,6,4088,33.63710092066524,72.9913133475167,1.5670000314712524,0.0,0.0,0.0,0.0,0.0,0.0,0.0,0.0
1729690895.1411884,47304,0,0,,6,4088,33.63710092066524,72.9913133475167,1.5670000314712524,0.0,0.0,0.0,0.0,0.0,0.0,0.0,0.0
1729690895.141208,47305,0,0,,6,4088,33.63710092066524,72.9913133475167,1.5670000314712524,0.0,0.0,0.0,0.0,0.0,0.0,0.0,0.0
1729690895.1412287,47306,0,0,,6,4088,33.63710092066524,72.9913133475167,1.5670000314712524,0.0,0.0,0.0,0.0,0.0,0.0,0.0,0.0
1729690895.1412797,47307,0,0,,6,4088,33.63710092066524,72.9913133475167,1.5670000314712524,0.0,0.0,0.0,0.0,0.0,0.0,0.0,0.0
1729690895.1413004,47308,0,0,,6,4088,33.63710092066524,72.9913133475167,1.5670000314712524,0.0,0.0,0.0,0.0,0.0,0.0,0.0,0.0
1729690895.1414123,47309,0,0,,6,4088,33.63710092066524,72.9913133475167,1.5670000314712524,0.0,0.0,0.0,0.0,0.0,0.0,0.0,0.0
1729690895.141433,47310,0,0,,6,4088,33.63710092066524,72.9913133475167,1.5670000314712524,0.0,0.0,0.0,0.0,0.0,0.0,0.0,0.0
1729690895.1415327,47311,0,0,,6,4088,33.63710092066524,72.9913133475167,1.5670000314712524,0.0,0.0,0.0,0.0,0.0,0.0,0.0,0.0
1729690895.1415663,47312,0,0,,6,4088,33.63710092066524,72.9913133475167,1.5670000314712524,0.0,0.0,0.0,0.0,0.0,0.0,0.0,0.0
1729690895.1415884,47313,0,0,,6,4088,33.63710092066524,72.9913133475167,1.5670000314712524,0.0,0.0,0.0,0.0,0.0,0.0,0.0,0.0
1729690895.1416085,47314,0,0,,6,4088,33.63710092066524,72.9913133475167,1.5670000314712524,0.0,0.0,0.0,0.0,0.0,0.0,0.0,0.0
1729690895.1416712,47315,0,0,,6,4088,33.63710092066524,72.9913133475167,1.5670000314712524,0.0,0.0,0.0,0.0,0.0,0.0,0.0,0.0
1729690895.1417034,47316,0,0,,6,4088,33.63710092066524,72.9913133475167,1.5670000314712524,0.0,0.0,0.0,0.0,0.0,0.0,0.0,0.0
1729690895.1417239,47317,0,0,,6,4088,33.63710092066524,72.9913133475167,1.5670000314712524,0.0,0.0,0.0,0.0,0.0,0.0,0.0,0.0
1729690895.1418512,47318,0,0,,6,4088,33.63710092066524,72.9913133475167,1.5670000314712524,0.0,0.0,0.0,0.0,0.0,0.0,0.0,0.0
1729690895.1419694,47319,0,0,,6,4088,33.63710092066524,72.9913133475167,1.5670000314712524,0.0,0.0,0.0,0.0,0.0,0.0,0.0,0.0
1729690895.141992,47320,0,0,,6,4088,33.63710092066524,72.9913133475167,1.5670000314712524,0.0,0.0,0.0,0.0,0.0,0.0,0.0,0.0
1729690895.142012,47321,0,0,,6,4088,33.63710092066524,72.9913133475167,1.5670000314712524,0.0,0.0,0.0,0.0,0.0,0.0,0.0,0.0
1729690895.142045,47322,0,0,,6,4088,33.63710092066524,72.9913133475167,1.5670000314712524,0.0,0.0,0.0,0.0,0.0,0.0,0.0,0.0
1729690895.142072,47323,0,0,,6,4088,33.63710092066524,72.9913133475167,1.5670000314712524,0.0,0.0,0.0,0.0,0.0,0.0,0.0,0.0
1729690895.142097,47324,0,0,,6,4088,33.63710092066524,72.9913133475167,1.5670000314712524,0.0,0.0,0.0,0.0,0.0,0.0,0.0,0.0
1729690895.1421473,47325,0,0,,6,4088,33.63710092066524,72.9913133475167,1.5670000314712524,0.0,0.0,0.0,0.0,0.0,0.0,0.0,0.0
1729690895.1421685,47326,0,0,,6,4088,33.63710092066524,72.9913133475167,1.5670000314712524,0.0,0.0,0.0,0.0,0.0,0.0,0.0,0.0
1729690895.1443899,47327,0,0,,6,4088,33.63710092066524,72.9913133475167,1.5670000314712524,0.0,0.0,0.0,0.0,0.0,0.0,0.0,0.0
1729690895.1446762,47328,0,0,,6,4088,33.63710092066524,72.9913133475167,1.5670000314712524,0.0,0.0,0.0,0.0,0.0,0.0,0.0,0.0
1729690895.144702,47329,0,0,,6,4088,33.63710092066524,72.9913133475167,1.5670000314712524,0.0,0.0,0.0,0.0,0.0,0.0,0.0,0.0
1729690895.1447213,47330,0,0,,6,4088,33.63710092066524,72.9913133475167,1.5670000314712524,0.0,0.0,0.0,0.0,0.0,0.0,0.0,0.0
1729690895.1447563,47331,0,0,,6,4088,33.63710092066524,72.9913133475167,1.5670000314712524,0.0,0.0,0.0,0.0,0.0,0.0,0.0,0.0
1729690895.1447806,47332,0,0,,6,4088,33.63710092066524,72.9913133475167,1.5670000314712524,0.0,0.0,0.0,0.0,0.0,0.0,0.0,0.0
1729690895.1448247,47333,0,0,,6,4088,33.63710092066524,72.9913133475167,1.5670000314712524,0.0,0.0,0.0,0.0,0.0,0.0,0.0,0.0
1729690895.1448984,47334,0,0,,6,4088,33.63710092066524,72.9913133475167,1.5670000314712524,0.0,0.0,0.0,0.0,0.0,0.0,0.0,0.0
1729690895.144922,47335,0,0,,6,4088,33.63710092066524,72.9913133475167,1.5670000314712524,0.0,0.0,0.0,0.0,0.0,0.0,0.0,0.0
1729690895.1450324,47336,0,0,,6,4088,33.63710092066524,72.9913133475167,1.5670000314712524,0.0,0.0,0.0,0.0,0.0,0.0,0.0,0.0
1729690895.1451528,47337,0,0,,6,4088,33.63710092066524,72.9913133475167,1.5670000314712524,0.0,0.0,0.0,0.0,0.0,0.0,0.0,0.0
1729690895.1451757,47338,0,0,,6,4088,33.63710092066524,72.9913133475167,1.5670000314712524,0.0,0.0,0.0,0.0,0.0,0.0,0.0,0.0
1729690895.14521,47339,0,0,,6,4088,33.63710092066524,72.9913133475167,1.5670000314712524,0.0,0.0,0.0,0.0,0.0,0.0,0.0,0.0
1729690895.1452322,47340,0,0,,6,4088,33.63710092066524,72.9913133475167,1.5670000314712524,0.0,0.0,0.0,0.0,0.0,0.0,0.0,0.0
1729690895.1452522,47341,0,0,,6,4088,33.63710092066524,72.9913133475167,1.5670000314712524,0.0,0.0,0.0,0.0,0.0,0.0,0.0,0.0
1729690895.1453109,47342,0,0,,6,4088,33.63710092066524,72.9913133475167,1.5670000314712524,0.0,0.0,0.0,0.0,0.0,0.0,0.0,0.0
1729690895.1453319,47343,0,0,,6,4088,33.63710092066524,72.9913133475167,1.5670000314712524,0.0,0.0,0.0,0.0,0.0,0.0,0.0,0.0
1729690895.1454384,47344,0,0,,6,4088,33.63710092066524,72.9913133475167,1.5670000314712524,0.0,0.0,0.0,0.0,0.0,0.0,0.0,0.0
1729690895.1454625,47345,0,0,,6,4088,33.63710092066524,72.9913133475167,1.5670000314712524,0.0,0.0,0.0,0.0,0.0,0.0,0.0,0.0
1729690895.1455588,47346,0,0,,6,4088,33.63710092066524,72.9913133475167,1.5670000314712524,0.0,0.0,0.0,0.0,0.0,0.0,0.0,0.0
1729690895.1455808,47347,0,0,,6,4088,33.63710092066524,72.9913133475167,1.5670000314712524,0.0,0.0,0.0,0.0,0.0,0.0,0.0,0.0
1729690895.145632,47348,0,0,,6,4088,33.63710092066524,72.9913133475167,1.5670000314712524,0.0,0.0,0.0,0.0,0.0,0.0,0.0,0.0
1729690895.1456583,47349,0,0,,6,4088,33.63710092066524,72.9913133475167,1.5670000314712524,0.0,0.0,0.0,0.0,0.0,0.0,0.0,0.0
1729690895.1456792,47350,0,0,,6,4088,33.63710092066524,72.9913133475167,1.5670000314712524,0.0,0.0,0.0,0.0,0.0,0.0,0.0,0.0
1729690895.1458888,47351,0,0,,6,4088,33.63710092066524,72.9913133475167,1.5670000314712524,0.0,0.0,0.0,0.0,0.0,0.0,0.0,0.0
1729690895.145914,47352,0,0,,6,4088,33.63710092066524,72.9913133475167,1.5670000314712524,0.0,0.0,0.0,0.0,0.0,0.0,0.0,0.0
1729690895.1459334,47353,0,0,,6,4088,33.63710092066524,72.9913133475167,1.5670000314712524,0.0,0.0,0.0,0.0,0.0,0.0,0.0,0.0
1729690895.1460333,47354,0,0,,6,4088,33.63710092066524,72.9913133475167,1.5670000314712524,0.0,0.0,0.0,0.0,0.0,0.0,0.0,0.0
1729690895.1460674,47355,0,0,,6,4088,33.63710092066524,72.9913133475167,1.5670000314712524,0.0,0.0,0.0,0.0,0.0,0.0,0.0,0.0
1729690895.146088,47356,0,0,,6,4088,33.63710092066524,72.9913133475167,1.5670000314712524,0.0,0.0,0.0,0.0,0.0,0.0,0.0,0.0
1729690895.1461072,47357,0,0,,6,4088,33.63710092066524,72.9913133475167,1.5670000314712524,0.0,0.0,0.0,0.0,0.0,0.0,0.0,0.0
1729690895.14624,47358,0,0,,6,4088,33.63710092066524,72.9913133475167,1.5670000314712524,0.0,0.0,0.0,0.0,0.0,0.0,0.0,0.0
1729690895.1462667,47359,0,0,,6,4088,33.63710092066524,72.9913133475167,1.5670000314712524,0.0,0.0,0.0,0.0,0.0,0.0,0.0,0.0
1729690895.1462967,47360,0,0,,6,4088,33.63710092066524,72.9913133475167,1.5670000314712524,0.0,0.0,0.0,0.0,0.0,0.0,0.0,0.0
1729690895.1464136,47361,0,0,,6,4088,33.63710092066524,72.9913133475167,1.5670000314712524,0.0,0.0,0.0,0.0,0.0,0.0,0.0,0.0
1729690895.146437,47362,0,0,,6,4088,33.63710092066524,72.9913133475167,1.5670000314712524,0.0,0.0,0.0,0.0,0.0,0.0,0.0,0.0
1729690895.1464553,47363,0,0,,6,4088,33.63710092066524,72.9913133475167,1.5670000314712524,0.0,0.0,0.0,0.0,0.0,0.0,0.0,0.0
1729690895.1465914,47364,0,0,,6,4088,33.63710092066524,72.9913133475167,1.5670000314712524,0.0,0.0,0.0,0.0,0.0,0.0,0.0,0.0
1729690895.1466236,47365,0,0,,6,4088,33.63710092066524,72.9913133475167,1.5670000314712524,0.0,0.0,0.0,0.0,0.0,0.0,0.0,0.0
1729690895.1466475,47366,0,0,,6,4088,33.63710092066524,72.9913133475167,1.5670000314712524,0.0,0.0,0.0,0.0,0.0,0.0,0.0,0.0
1729690895.1467628,47367,0,0,,6,4088,33.63710092066524,72.9913133475167,1.5670000314712524,0.0,0.0,0.0,0.0,0.0,0.0,0.0,0.0
1729690895.1467857,47368,0,0,,6,4088,33.63710092066524,72.9913133475167,1.5670000314712524,0.0,0.0,0.0,0.0,0.0,0.0,0.0,0.0
1729690895.1468039,47369,0,0,,6,4088,33.63710092066524,72.9913133475167,1.5670000314712524,0.0,0.0,0.0,0.0,0.0,0.0,0.0,0.0
1729690895.1469128,47370,0,0,,6,4088,33.63710092066524,72.9913133475167,1.5670000314712524,0.0,0.0,0.0,0.0,0.0,0.0,0.0,0.0
1729690895.1469436,47372,0,0,,6,4088,33.63710092066524,72.9913133475167,1.5670000314712524,0.0,0.0,0.0,0.0,0.0,0.0,0.0,0.0
1729690895.147015,47373,0,0,,6,4088,33.63710092066524,72.9913133475167,1.5670000314712524,0.0,0.0,0.0,0.0,0.0,0.0,0.0,0.0
1729690895.1515236,47374,0,0,,6,4088,33.63710092066524,72.9913133475167,1.5670000314712524,0.0,0.0,0.0,0.0,0.0,0.0,0.0,0.0
1729690895.1524637,47375,0,0,,6,4088,33.63710092066524,72.9913133475167,1.5670000314712524,0.0,0.0,0.0,0.0,0.0,0.0,0.0,0.0
1729690895.1525054,47376,0,0,,6,4088,33.63710092066524,72.9913133475167,1.5670000314712524,0.0,0.0,0.0,0.0,0.0,0.0,0.0,0.0
1729690895.1529343,47402,0,0,,6,4088,33.637101198424126,72.99131322420479,1.625,0.0,0.0,0.0,0.0,0.0,0.0,0.0,0.0
1729690895.170996,48050,0,0,,6,4088,33.637101198424126,72.99131322420479,1.625,0.0,0.0,0.0,0.0,0.0,0.0,0.0,0.0
1729690895.1712058,48180,0,0,,6,4088,33.6371012523722,72.99131327868253,1.6759999990463257,0.0,0.0,0.0,0.0,0.0,0.0,0.0,0.0
1729690895.1712515,48372,0,0,,6,4088,33.6371015523722,72.99131347868268,1.6759999990463257,0.0,0.0,0.0,0.0,0.0,0.0,0.0,0.0
1729690895.4906895,48637,0,0,,6,4088,33.6371015523722,72.99131347868268,1.6759999990463257,0.0,0.0,0.0,0.0,0.0,0.0,0.0,0.0
1729690895.4909756,48679,0,0,,6,4088,33.6371015523722,72.99131347868268,1.6759999990463257,0.0,0.0,0.0,0.0,0.0,0.0,0.0,0.0
1729690895.4976394,48918,0,0,,6,4088,33.6371015523722,72.99131347868268,1.6759999990463257,0.0,0.0,0.0,0.0,0.0,0.0,0.0,0.0
1729690895.4976845,48924,0,0,,6,4088,33.637102156817285,72.99131368356741,1.7269999980926514,0.0,0.0,0.0,0.0,0.0,0.0,0.0,0.0
1729690895.4979315,48986,0,0,,6,4088,33.637102156817285,72.99131368356741,1.7269999980926514,0.0,0.0,0.0,0.0,0.0,0.0,0.0,0.0
1729690895.49796,49418,0,0,,6,4088,33.637102156817285,72.99131368356741,1.7269999980926514,0.0,0.0,0.0,0.0,0.0,0.0,0.0,0.0
1729690895.4980967,49703,0,0,,6,4088,33.637102156817285,72.99131368356741,1.7269999980926514,0.0,0.0,0.0,0.0,0.0,0.0,0.0,0.0
1729690895.4981282,50939,0,0,,6,4088,33.6371035846114,72.9913143884266,1.8259999752044678,0.0,0.0,0.0,0.0,0.0,0.0,0.0,0.0
1729690895.6598713,52031,0,0,,6,4088,33.63710402490551,72.99131451485566,1.8819999694824219,0.0,0.0,0.0,0.0,0.0,0.0,0.0,0.0
1729690895.8357606,53600,0,0,,6,4088,33.63710462862315,72.99131459655007,2.00600004196167,0.0,0.0,0.0,0.0,0.0,0.0,0.0,0.0
1729690895.866876,54018,0,0,,6,4088,33.63710472862315,72.99131459655013,2.075000047683716,0.0,0.0,0.0,0.0,0.0,0.0,0.0,0.0
1729690895.9063118,54371,0,0,,6,4088,33.63710472862315,72.99131459655013,2.075000047683716,0.0,0.0,0.0,0.0,0.0,0.0,0.0,0.0
1729690895.9392645,54548,0,0,,6,4088,33.637105278514426,72.99131490478376,2.131999969482422,0.0,0.0,0.0,0.0,0.0,0.0,0.0,0.0
1729690895.9616935,54754,0,0,,6,4088,33.637105278514426,72.99131490478376,2.131999969482422,0.0,0.0,0.0,0.0,0.0,0.0,0.0,0.0
1729690896.00479,55104,0,0,,6,4088,33.637105278514426,72.99131490478376,2.131999969482422,0.0,0.0,0.0,0.0,0.0,0.0,0.0,0.0
1729690896.1040626,55892,0,0,,6,4088,33.637105378514434,72.9913149047838,2.190999984741211,0.0,0.0,0.0,0.0,0.0,0.0,0.0,0.0
1729690896.1055381,55893,0,0,,6,4088,33.63710559874587,72.99131500077029,2.190999984741211,0.0,0.0,0.0,0.0,0.0,0.0,0.0,0.0
1729690896.1841674,56421,0,0,,6,4088,33.63710559874587,72.99131500077029,2.250999927520752,0.0,0.0,0.0,0.0,0.0,0.0,0.0,0.0
1729690896.2072573,56604,0,0,,6,4088,33.63710559874587,72.99131500077029,2.250999927520752,0.0,0.0,0.0,0.0,0.0,0.0,0.0,0.0
1729690896.2088056,56605,0,0,,6,4088,33.63710559874587,72.99131500077029,2.250999927520752,0.0,0.0,0.0,0.0,0.0,0.0,0.0,0.0
1729690896.2676432,57028,0,0,,6,4088,33.63710535968391,72.99131458790984,2.309999942779541,0.0,0.0,0.0,0.0,0.0,0.0,0.0,0.0
1729690896.2690966,57085,0,0,,6,4088,33.63710535968391,72.99131458790984,2.309999942779541,0.0,0.0,0.0,0.0,0.0,0.0,0.0,0.0
1729690896.305,57381,0,0,,6,4088,33.63710535968391,72.99131458790984,2.309999942779541,0.0,0.0,0.0,0.0,0.0,0.0,0.0,0.0
1729690896.3216531,57482,0,0,,6,4088,33.63710487889977,72.99131405077256,2.365999937057495,0.0,0.0,0.0,0.0,0.0,0.0,0.0,0.0
1729690896.3571274,57771,0,0,,6,4088,33.63710487889977,72.99131405077256,2.365999937057495,0.0,0.0,0.0,0.0,0.0,0.0,0.0,0.0
1729690896.4053187,58169,0,0,,6,4088,33.63710487889977,72.99131405077256,2.365999937057495,0.0,0.0,0.0,0.0,0.0,0.0,0.0,0.0
1729690896.4224846,58267,0,0,,6,4088,33.63710440767887,72.99131360478977,2.427000045776367,0.0,0.0,0.0,0.0,0.0,0.0,0.0,0.0
1729690896.456472,58549,0,0,,6,4088,33.63710440767887,72.99131360478977,2.427000045776367,0.0,0.0,0.0,0.0,0.0,0.0,0.0,0.0
1729690896.4630623,58596,0,0,,6,4088,33.63710440767887,72.99131360478977,2.427000045776367,0.0,0.0,0.0,0.0,0.0,0.0,0.0,0.0
1729690896.4646027,58597,0,0,,6,4088,33.63710440767887,72.99131360478977,2.427000045776367,0.0,0.0,0.0,0.0,0.0,0.0,0.0,0.0
1729690896.5064383,58936,0,0,,6,4088,33.63710440767887,72.99131360478977,2.427000045776367,0.0,0.0,0.0,0.0,0.0,0.0,0.0,0.0
1729690896.604964,59742,0,0,,6,4088,33.637104055755366,72.99131326569137,2.4820001125335693,0.0,0.0,0.0,0.0,0.0,0.0,0.0,0.0
1729690896.657937,60154,0,0,,6,4088,33.63710382727471,72.99131314238937,2.5339999198913574,0.0,0.0,0.0,0.0,0.0,0.0,0.0,0.0
1729690896.6602035,60161,0,0,,6,4088,33.63710382727471,72.99131314238937,2.5339999198913574,0.0,0.0,0.0,0.0,0.0,0.0,0.0,0.0
1729690896.7057576,60531,0,0,,6,4088,33.63710382727471,72.99131314238937,2.5339999198913574,0.0,0.0,0.0,0.0,0.0,0.0,0.0,0.0
1729690896.804228,61307,0,0,,6,4088,33.63710369452717,72.99131330704654,2.5759999752044678,0.0,0.0,0.0,0.0,0.0,0.0,0.0,0.0
1729690896.805915,61311,0,0,,6,4088,33.637103660038534,72.99131346509219,2.5759999752044678,0.0,0.0,0.0,0.0,0.0,0.0,0.0,0.0
1729690896.8085206,61312,0,0,,6,4088,33.637103660038534,72.99131346509219,2.5759999752044678,0.0,0.0,0.0,0.0,0.0,0.0,0.0,0.0
1729690896.8592703,61714,0,0,,6,4088,33.637103660038534,72.99131346509219,2.61299991607666,0.0,0.0,0.0,0.0,0.0,0.0,0.0,0.0
1729690896.9145103,62128,0,0,,6,4088,33.6371038816814,72.99131367435926,2.6429998874664307,0.0,0.0,0.0,0.0,0.0,0.0,0.0,0.0
1729690896.9159727,62129,0,0,,6,4088,33.6371038816814,72.99131367435926,2.6429998874664307,0.0,0.0,0.0,0.0,0.0,0.0,0.0,0.0
1729690896.9196062,62132,0,0,,6,4088,33.6371038816814,72.99131367435926,2.6429998874664307,0.0,0.0,0.0,0.0,0.0,0.0,0.0,0.0
1729690896.9196534,62133,0,0,,6,4088,33.6371038816814,72.99131367435926,2.6429998874664307,0.0,0.0,0.0,0.0,0.0,0.0,0.0,0.0
1729690896.9198194,62134,0,0,,6,4088,33.6371038816814,72.99131367435926,2.6429998874664307,0.0,0.0,0.0,0.0,0.0,0.0,0.0,0.0
1729690896.919847,62135,0,0,,6,4088,33.6371038816814,72.99131367435926,2.6429998874664307,0.0,0.0,0.0,0.0,0.0,0.0,0.0,0.0
1729690896.919965,62136,0,0,,6,4088,33.6371038816814,72.99131367435926,2.6429998874664307,0.0,0.0,0.0,0.0,0.0,0.0,0.0,0.0
1729690896.9199936,62137,0,0,,6,4088,33.6371038816814,72.99131367435926,2.6429998874664307,0.0,0.0,0.0,0.0,0.0,0.0,0.0,0.0
1729690896.9201357,62138,0,0,,6,4088,33.6371038816814,72.99131367435926,2.6429998874664307,0.0,0.0,0.0,0.0,0.0,0.0,0.0,0.0
1729690896.9202728,62139,0,0,,6,4088,33.6371038816814,72.99131367435926,2.6429998874664307,0.0,0.0,0.0,0.0,0.0,0.0,0.0,0.0
1729690896.920413,62140,0,0,,6,4088,33.6371038816814,72.99131367435926,2.6429998874664307,0.0,0.0,0.0,0.0,0.0,0.0,0.0,0.0
1729690896.9204462,62141,0,0,,6,4088,33.6371038816814,72.99131367435926,2.6429998874664307,0.0,0.0,0.0,0.0,0.0,0.0,0.0,0.0
