Time,header.seq,header.stamp.secs,header.stamp.nsecs,header.frame_id,twist.linear.x,twist.linear.y,twist.linear.z,twist.angular.x,twist.angular.y,twist.angular.z
1729690891.119396,1608,1729690890,267123008,base_link,0.2798822224140167,2.272486686706543,-0.06476712971925735,0.5267181520177034,-0.14916932588860435,0.3596664227331238
1729690891.1196616,1609,1729690890,370123008,base_link,0.19625107944011688,2.241511583328247,0.010450650006532669,-0.057266223327417064,-0.3058825880816601,0.1947492786532091
1729690891.1200635,1610,1729690890,468123008,base_link,0.1882726103067398,2.2120234966278076,0.034455180168151855,0.18830809534007426,0.01822961959667145,0.4274483347451037
1729690891.120244,1611,1729690890,579123008,base_link,0.10147807002067566,2.1384239196777344,0.058411285281181335,0.3493161821087466,0.07179956169123748,0.33437449036551237
1729690891.1204672,1612,1729690890,675123008,base_link,0.04512316733598709,2.0729944705963135,-0.021480534225702286,0.0382346223508053,-0.08520106772936112,0.44815409682121765
1729690891.1206684,1613,1729690890,768123008,base_link,-0.01569102518260479,1.985406756401062,-0.0246852058917284,0.1648179362096126,-0.011055939982530173,0.2724307692304537
1729690891.1212254,1614,1729690890,887123008,base_link,-0.09872114658355713,1.8365318775177002,-0.012758823111653328,-0.1262823262839637,0.01733734241384219,0.24941418523887515
1729690891.1215653,1615,1729690890,978123008,base_link,-0.17221218347549438,1.7376371622085571,-0.06716316938400269,-0.1062344936962786,-0.14059337197737481,0.34094387167918594
1729690891.1219404,1616,1729690891,78123008,base_link,-0.20418381690979004,1.6122287511825562,-0.08308974653482437,0.043175766617758626,0.03300183710520908,0.37024823424886977
1729690891.1726422,1617,1729690891,169123008,base_link,-0.2907988429069519,1.4718906879425049,-0.02960214577615261,-0.13288473887231483,-0.0920369834659635,0.14904670110346738
1729690891.2716641,1618,1729690891,268123008,base_link,-0.32225796580314636,1.374420166015625,-0.11436402797698975,0.10446958695711249,0.1094680177676914,0.4612407984599557
1729690891.382255,1619,1729690891,380123008,base_link,-0.4002794623374939,1.2128204107284546,-0.08943046629428864,0.1504303963696488,0.26732401956630053,0.2229954184736928
1729690891.4699125,1620,1729690891,468123008,base_link,-0.44277721643447876,1.1088676452636719,-0.09978736191987991,-0.20399014564639148,-0.029571078610769512,0.2329192516210924
1729690891.577259,1621,1729690891,575123008,base_link,-0.4417615532875061,1.0011706352233887,-0.15465858578681946,-0.18896676158140024,-0.03234759737395497,0.11927565480574664
1729690891.6730049,1622,1729690891,671121216,base_link,-0.4792052209377289,0.8876822590827942,-0.10950860381126404,-0.4735815760125288,-0.031045892459831106,0.1667802597747411
1729690891.7731593,1623,1729690891,771119424,base_link,-0.5166310667991638,0.8397656083106995,-0.10992684960365295,-0.3515641614562786,-0.07541965365286377,0.01071623987786615
1729690891.8735201,1624,1729690891,869119424,base_link,-0.5352373719215393,0.7541007995605469,-0.1408008486032486,-0.10950651065313306,-0.18704883325058363,0.2743386904590577
1729690891.9692411,1625,1729690891,966115584,base_link,-0.5827927589416504,0.7394443154335022,-0.1378769874572754,0.23188134583450573,-0.055712476515122476,0.4741380646421408
1729690892.0722282,1626,1729690892,69113536,base_link,-0.6547126173973083,0.6584991812705994,-0.11021760106086731,0.2221295562118939,0.26204018344142604,0.4941865328781122
1729690892.1696818,1627,1729690892,166113280,base_link,-0.7172591090202332,0.55145263671875,-0.02703050523996353,0.09621426780918199,-0.038190529169857504,0.5742408826836218
1729690892.2695603,1628,1729690892,266113024,base_link,-0.7525486350059509,0.4988752603530884,-0.15412384271621704,0.1711384022084062,0.44851447378887244,0.7861257038937514
1729690892.3695083,1629,1729690892,368112768,base_link,-0.7826926708221436,0.3669126033782959,-0.10923006385564804,0.012833528992451548,0.3209385033425785,0.8004309671759678
1729690892.4699125,1630,1729690892,466112768,base_link,-0.7935391664505005,0.26221176981925964,-0.06786813586950302,-0.24805983800626283,-0.10499165639556932,0.6527979351829332
1729690892.570199,1631,1729690892,568113024,base_link,-0.7882580757141113,0.15886393189430237,-0.12735232710838318,0.0584463444534777,0.30661292947521535,0.8933157790990042
1729690892.675983,1632,1729690892,673113792,base_link,-0.7599247097969055,0.022466406226158142,-0.030557114630937576,-0.06421362325897423,0.22746080983395783,0.7572123933934649
1729690892.7703478,1633,1729690892,768114560,base_link,-0.7104505896568298,-0.06697797775268555,0.004982899874448776,-0.11938873555184529,-0.09318991210515581,0.6416949941202681
1729690892.8708687,1634,1729690892,868113792,base_link,-0.6922726631164551,-0.1436738222837448,-0.0763549730181694,0.004001854463599755,0.12051327616295918,0.8143439649023311
1729690892.9881759,1635,1729690892,983113280,base_link,-0.595837414264679,-0.22892136871814728,-0.07237853854894638,-0.06280213535679068,0.05386485187656591,0.902748342760201
1729690893.075313,1636,1729690893,73113280,base_link,-0.5345816016197205,-0.2642572820186615,-0.07544609159231186,-0.2107999660150464,0.299049759659264,0.848462148012106
1729690893.167252,1637,1729690893,162113280,base_link,-0.4653832018375397,-0.34264257550239563,-0.11400555074214935,0.19324991486298262,-0.02184775271197488,0.404403876719851
1729690893.2685132,1638,1729690893,266113280,base_link,-0.38110408186912537,-0.42782360315322876,0.0067110201343894005,0.09927308329968906,-0.39672765075374855,0.6453359963534985
1729690893.3682885,1639,1729690893,366113536,base_link,-0.37074053287506104,-0.5177608728408813,-0.07141956686973572,0.2276424857744099,-0.2945187270764284,0.5434457372272071
1729690893.4679375,1640,1729690893,466110720,base_link,-0.36234843730926514,-0.6158611178398132,-0.03780362010002136,0.2291924502011871,-0.5877166546785688,0.3609978038713224
1729690893.5680056,1641,1729690893,566110464,base_link,-0.36479872465133667,-0.7377854585647583,-0.031389400362968445,-0.1325231785959235,0.1412322402528851,0.5941559445785223
1729690893.665236,1642,1729690893,663110208,base_link,-0.3900204300880432,-0.8269816040992737,0.009292788803577423,-0.3901634589972571,0.005379267947995814,0.4715948552640369
1729690893.7702882,1643,1729690893,768110464,base_link,-0.34599268436431885,-0.914882481098175,0.10605023801326752,-0.5134958407996655,0.33663699344712056,0.35077545456384346
1729690893.8673162,1644,1729690893,866109696,base_link,-0.3077179491519928,-0.918883204460144,0.05938112735748291,-0.6448535584820106,0.5330455498070641,0.2978653163279007
1729690893.9683712,1645,1729690893,966108672,base_link,-0.20834535360336304,-0.905972957611084,0.0014183111488819122,-0.48617036127205915,0.3922964696376476,0.2512497961013068
1729690894.070107,1646,1729690894,68108160,base_link,-0.08084720373153687,-0.8258766531944275,-0.05363453924655914,-0.6591548752554326,0.48588789442640073,0.5042999005764598
1729690894.167943,1647,1729690894,166109440,base_link,0.07074181735515594,-0.7520303130149841,-0.04868469014763832,-0.3025963204349882,0.3591417957334004,0.5891586910164054
1729690894.2744505,1648,1729690894,270109696,base_link,0.24113798141479492,-0.6277473568916321,0.04812924563884735,0.3844407303169449,-0.614536356037244,0.12469186623230366
1729690894.3684647,1649,1729690894,367109440,base_link,0.34296858310699463,-0.5347171425819397,0.02425144426524639,0.46005000073130864,-0.5264706350549274,0.2779498873459076
1729690894.4693677,1650,1729690894,467107648,base_link,0.4286131262779236,-0.48676222562789917,-0.01878475770354271,0.1794666976095573,-0.12835817464372462,0.4614526889394791
1729690894.5683024,1651,1729690894,566108672,base_link,0.5113964080810547,-0.40495526790618896,0.035974688827991486,-0.3399878599977563,0.11241979533007916,0.19214934441560916
1729690894.6683524,1652,1729690894,667106112,base_link,0.5395727157592773,-0.33208271861076355,0.0740325003862381,-0.2822159737983125,-0.15039740436992557,0.2143907161051093
1729690894.7683501,1653,1729690894,767105600,base_link,0.6069777607917786,-0.26071926951408386,0.14266347885131836,-0.2694074687276669,-0.0717444438880506,0.22849109504170936
1729690894.870078,1654,1729690894,867105344,base_link,0.642267644405365,-0.14344267547130585,0.2418438196182251,0.09480184069536694,-0.23678994181459181,0.26640902020994345
1729690894.972458,1655,1729690894,970103552,base_link,0.6462447047233582,-0.06426501274108887,0.24976925551891327,0.0040125445812728075,-0.0650271689777368,0.4923391857547773
1729690895.0675838,1656,1729690895,65103552,base_link,0.6547306776046753,0.028303246945142746,0.35002997517585754,0.21388686622478956,-0.17073157975889666,0.3062399720470817
1729690895.1856797,1657,1729690895,183101504,base_link,0.6531513333320618,0.1101515144109726,0.4389769732952118,0.2149175989605063,-0.06652545458556319,0.34128657136103796
1729690895.2685616,1658,1729690895,266102016,base_link,0.6321402788162231,0.15691807866096497,0.45401692390441895,0.10716570570499816,0.007410975128482534,0.2741851975534732
1729690895.3662736,1659,1729690895,363101248,base_link,0.6331918835639954,0.18970398604869843,0.5368233919143677,-0.06795689148778152,0.17628948544611597,0.038174622396460564
1729690895.471816,1660,1729690895,469102528,base_link,0.6107872128486633,0.27391621470451355,0.5818483829498291,0.19727912888144541,-0.007346466197975649,-0.3031267124266913
1729690895.5688524,1661,1729690895,567100736,base_link,0.5816871523857117,0.2752344012260437,0.6493141651153564,0.024385105198566286,-0.37406242201659506,-0.9857947181556781
1729690895.668679,1662,1729690895,666098944,base_link,0.5491560697555542,0.39206981658935547,0.6242173910140991,-0.06554002171109503,-0.1801636416770298,-1.0873092483634241
1729690895.7690291,1663,1729690895,767097408,base_link,0.5136966705322266,0.44001075625419617,0.6479714512825012,-0.022174753199438495,0.04196898932450441,-0.9516323784355887
1729690895.8692274,1664,1729690895,867098432,base_link,0.4914073348045349,0.4861184358596802,0.7320738434791565,0.09905430514220358,-0.1349583104774199,-1.1579664740765596
1729690895.9692712,1665,1729690895,968093056,base_link,0.466473251581192,0.5691933035850525,0.7657672166824341,0.21041267325794877,-0.14762497079263576,-1.128132773958957
1729690896.0663865,1666,1729690896,65088704,base_link,0.446529358625412,0.6217799186706543,0.756655752658844,0.12431524581915679,0.032583018261821,-0.9109815155207791
1729690896.1691594,1667,1729690896,167086144,base_link,0.4454081952571869,0.6785732507705688,0.7877769470214844,0.14212210661045718,-0.0034189807381149254,-0.9473217251738268
1729690896.2695055,1668,1729690896,268084608,base_link,0.4476459324359894,0.7220356464385986,0.8665156364440918,0.16776212079697575,-0.3584870241502685,-1.081200366595502
1729690896.3673973,1669,1729690896,365080512,base_link,0.40500137209892273,0.7425786852836609,0.810531735420227,0.19429558027225913,0.09494172184436037,-0.9262022969910314
1729690896.4669766,1670,1729690896,466080000,base_link,0.3776678740978241,0.7490773797035217,0.882610559463501,0.27272246707503955,-0.031924094403546856,-0.9045863170197909
1729690896.567499,1671,1729690896,563079232,base_link,0.34172144532203674,0.7262935638427734,0.8697681427001953,0.22934065074905216,0.09904418031988549,-0.7857191877667361
1729690896.6678925,1672,1729690896,666078720,base_link,0.31494778394699097,0.7025061845779419,0.8792080879211426,0.20561516648200012,-0.09607549175455016,-0.7156109488958161
1729690896.7674649,1673,1729690896,766078464,base_link,0.2892490029335022,0.6680293083190918,0.840345561504364,0.23921219580725106,0.007034428741913248,-0.7154585806374391
1729690896.869948,1674,1729690896,868076160,base_link,0.25129225850105286,0.6404411792755127,0.8066533803939819,0.2818953334366649,0.1641687747848097,-0.5505282205321117
1729690896.9839246,1675,1729690896,973070016,base_link,0.21330349147319794,0.5872750878334045,0.8178648352622986,0.07103233598731784,0.08191152952946948,-0.8124849367070857
1729690897.0678885,1676,1729690897,66066432,base_link,0.2048332691192627,0.547832727432251,0.8058627247810364,0.06952302454712693,-0.0035959854847392725,-0.7988918140066972
1729690897.1693077,1677,1729690897,168066432,base_link,0.19189783930778503,0.5183069705963135,0.7712342143058777,0.043101359804482695,0.20152986324377054,-0.6093832133271156
1729690897.2683535,1678,1729690897,266064896,base_link,0.15991683304309845,0.4969866871833801,0.7898306846618652,-0.028968132606347424,-0.15050796664148103,-0.569598069719219
1729690897.3764765,1679,1729690897,375064896,base_link,0.14292025566101074,0.4428057074546814,0.7132216095924377,-0.09865927917892613,-0.12439543557369764,-0.5719219360471319
1729690897.4675388,1680,1729690897,465067712,base_link,0.11205554008483887,0.3928578495979309,0.759458601474762,-0.021502321727387794,-0.2056615147800993,-0.197700546834811
1729690897.5703955,1681,1729690897,569065664,base_link,0.08684273064136505,0.39671793580055237,0.598339319229126,0.19945442740632638,0.04065204760173633,0.011055692442272703
1729690897.6673248,1682,1729690897,666065920,base_link,0.0409894660115242,0.3532924950122833,0.6223801374435425,0.12768423428299983,-0.0784163350210546,0.053891738975038156
1729690897.7685168,1683,1729690897,767066688,base_link,0.03948429971933365,0.2962925136089325,0.5162898898124695,0.2567072486087514,0.1649087108492445,-0.3543147586148759
1729690897.867509,1684,1729690897,866068992,base_link,0.010951818898320198,0.21196527779102325,0.5063724517822266,0.21213613080090754,0.12997545367036287,-0.12294541849331887
1729690897.9706225,1685,1729690897,969067712,base_link,-0.03719749301671982,0.16491654515266418,0.4846481382846832,-0.13881817253375142,-0.07180447986602338,-0.14458765293355202
1729690898.0716264,1686,1729690898,70067968,base_link,-0.028285248205065727,0.1069740280508995,0.41244494915008545,0.17317771607917398,0.26254254174326397,0.06060560501327767
1729690898.1676393,1687,1729690898,166066432,base_link,-0.0349448136985302,0.02707231044769287,0.29725462198257446,-0.10305187324706216,0.1267181987938267,-0.18272830288344777
1729690898.2729485,1688,1729690898,271071040,base_link,-0.057240042835474014,-0.010097680613398552,0.22802071273326874,-0.19617853776721145,-0.06741068723588277,-0.14570458756259663
1729690898.3691814,1689,1729690898,367070528,base_link,-0.030103906989097595,-0.02132972702383995,0.16506147384643555,-0.13415277242586046,0.1817921258309522,-0.16382401556056056
1729690898.4676871,1690,1729690898,466071040,base_link,-0.05368395149707794,-0.08664222806692123,0.15761816501617432,-0.11102071358408279,-0.0758535442996279,0.04087127385881113
1729690898.5672996,1691,1729690898,565067968,base_link,-0.018245212733745575,-0.07334761321544647,0.07183521240949631,-0.1318647750946266,-0.05193738764608875,0.024259328621528325
1729690898.6681695,1692,1729690898,667065664,base_link,-0.031774818897247314,-0.10513845086097717,0.004544191062450409,0.1313161887855834,0.09829734655542716,-0.11877759601805263
1729690898.7675743,1693,1729690898,763065664,base_link,-0.023576002568006516,-0.11583355069160461,-0.0010794547852128744,-0.01849969852653156,-0.21353339554691084,0.21832966972586593
1729690898.868751,1694,1729690898,867066432,base_link,-0.011057868599891663,-0.157873272895813,-0.051899805665016174,-0.03525518010183064,-0.1735851756501578,0.13725049457044103
1729690898.9647136,1695,1729690898,963066176,base_link,-0.03653865307569504,-0.20698072016239166,-0.04528120160102844,0.01376157004033111,-0.05172947664045157,0.28544100759493374
1729690899.0684445,1696,1729690899,65061056,base_link,-0.04783198609948158,-0.20295122265815735,-0.08274012804031372,-0.29638595187526706,-0.185267261380351,0.24457465058786848
1729690899.168442,1697,1729690899,167060032,base_link,-0.06345173716545105,-0.2023250013589859,-0.13420069217681885,-0.05960449128171334,0.1764729646393228,0.31982420278739865
1729690899.2674165,1698,1729690899,266062080,base_link,-0.10620002448558807,-0.24911387264728546,-0.08758358657360077,0.061072006359574084,-0.05459059456238975,0.6189402006988154
1729690899.3685718,1699,1729690899,367059520,base_link,-0.11072350293397903,-0.2668241262435913,-0.06664867699146271,-0.24373105774894752,-0.1352508276796951,0.5247648823740448
1729690899.468359,1700,1729690899,467052864,base_link,-0.11112391203641891,-0.27533406019210815,-0.060531120747327805,-0.34704951743939677,-0.07002506577709604,0.2066182695353745
1729690899.5646093,1701,1729690899,563048768,base_link,-0.12472670525312424,-0.2714602053165436,-0.08967074751853943,-0.0932283736911028,-0.07658471698101932,0.3856187106411327
1729690899.6697867,1702,1729690899,668048512,base_link,-0.1360452026128769,-0.2803598940372467,-0.0652661919593811,-0.01526443319794027,0.03340312764579911,0.46210999682664294
1729690899.7708948,1703,1729690899,769049536,base_link,-0.16221736371517181,-0.2683238685131073,-0.08746305853128433,0.2267065506297722,0.09316608166118562,0.5218580522755816
1729690899.8661077,1704,1729690899,864051072,base_link,-0.18655551970005035,-0.2729641795158386,-0.026753107085824013,-0.04418103331863644,0.029182647142294092,0.19021791106175617
1729690899.968783,1705,1729690899,967050048,base_link,-0.22614236176013947,-0.2773973047733307,0.005640072748064995,-0.013150517833046826,0.013068287862348493,0.18578174542618656
1729690900.0701346,1706,1729690900,68050048,base_link,-0.23127831518650055,-0.28041520714759827,0.05448346585035324,-0.07989919207194639,0.0507979885555949,0.11198713904087841
1729690900.165149,1707,1729690900,164047488,base_link,-0.24373367428779602,-0.2618246078491211,0.004041019827127457,0.04642521217132109,0.22029292609471254,0.09532477559749261
1729690900.2712698,1708,1729690900,269043648,base_link,-0.266387015581131,-0.2599547207355499,0.08225421607494354,0.10875675456363271,0.16123670738859255,0.2426070419604581
1729690900.3671117,1709,1729690900,365039808,base_link,-0.24772930145263672,-0.2454536110162735,0.0724630132317543,-0.07254912642395729,-0.0255362943006199,0.26427793822170637
1729690900.4692898,1710,1729690900,467037248,base_link,-0.2387693226337433,-0.2412145584821701,0.09079897403717041,-0.14695173986626872,-0.09501542019223123,0.05317335378573299
1729690900.5683942,1711,1729690900,566029568,base_link,-0.2572270929813385,-0.21982769668102264,0.07506565749645233,0.08782132531250024,0.09875761180391682,0.18764193055559236
1729690900.6671042,1712,1729690900,666029568,base_link,-0.21736204624176025,-0.1768636703491211,0.016942285001277924,0.16327315212832405,0.20159774211107678,0.20446863907423732
1729690900.7691808,1713,1729690900,767042880,base_link,-0.19139602780342102,-0.1697579324245453,0.08449507504701614,-0.11428684426378867,0.016999869982381302,-0.05622722639900051
1729690900.8742979,1714,1729690900,872037248,base_link,-0.15253639221191406,-0.1370408684015274,0.08543174713850021,0.1728997348374038,0.09527926851234937,0.3238990375037254
1729690900.9701476,1715,1729690900,968037248,base_link,-0.13349716365337372,-0.11351761221885681,0.07007135450839996,-0.0684657668083197,0.003930019512050912,-0.09863429785002835
1729690901.0673823,1716,1729690901,65037248,base_link,-0.13231870532035828,-0.09132672846317291,0.10314294695854187,0.24487702731189775,0.08984177157437256,0.2988383503198077
1729690901.1712854,1717,1729690901,169039808,base_link,-0.10184358060359955,-0.04594867676496506,0.07074502855539322,0.08721836839258533,0.08099224143015246,0.01404334464696435
1729690901.2752874,1718,1729690901,273039808,base_link,-0.07831308990716934,-0.010255851782858372,0.10277704894542694,0.29103077045809955,0.21498595515988378,0.22583224701314547
1729690901.374229,1719,1729690901,372043136,base_link,-0.09056402742862701,0.009958875365555286,0.09019157290458679,0.1895658417706802,0.08709380721601415,-0.0003175240712678601
1729690901.4764333,1720,1729690901,473041344,base_link,-0.05952881649136543,0.046700235456228256,0.02649419568479061,0.12060243894133162,0.24470653160507846,-0.15877526565296396
1729690901.575165,1721,1729690901,572041088,base_link,-0.05043108016252518,0.03133247792720795,0.06683609634637833,0.055119655729316756,-0.008999183562476362,0.1340494793860427
1729690901.6768203,1722,1729690901,675043904,base_link,-0.047654829919338226,0.036862216889858246,0.049475837498903275,-0.1410423294394852,-0.1649434111385083,-0.2037191791030737
1729690901.775063,1723,1729690901,773044928,base_link,-0.0017267331713810563,0.045176077634096146,0.11030355840921402,0.04398105215560435,0.0841096704519646,-0.09322136086370003
1729690901.8746123,1724,1729690901,873045952,base_link,-0.0017851758748292923,0.05038868263363838,0.10207532346248627,0.15862183050358497,0.05686393360551369,0.014102527457266768
1729690901.970091,1725,1729690901,967045184,base_link,0.02546318992972374,0.028947366401553154,0.13994672894477844,-0.027230038053554735,-0.3024770420920728,-0.049142332807538755
1729690902.0754385,1726,1729690902,73041856,base_link,0.05971663072705269,0.027143970131874084,0.1356966644525528,0.062393238758872774,0.10695966814211874,-0.06218865794703701
1729690902.1701682,1727,1729690902,169041600,base_link,0.07313913851976395,0.02596101351082325,0.037695370614528656,0.13659172159286495,0.05482402307035329,0.01321771752624536
1729690902.269697,1728,1729690902,267040832,base_link,0.08122198283672333,0.010153074748814106,0.12502340972423553,-0.25947051970887386,-0.3535648600097026,-0.16233524157745255
1729690902.3674264,1729,1729690902,363042112,base_link,0.07691865414381027,0.0037152820732444525,0.06325007975101471,0.05712514422667102,0.15584020833952886,-0.10113679125048598
1729690902.470358,1730,1729690902,467039552,base_link,0.09178780019283295,0.015273024328052998,0.017354216426610947,0.1536805923083181,0.04816257547406152,-0.09017681540180608
1729690902.569079,1731,1729690902,566039296,base_link,0.08297654986381531,0.01867418922483921,0.0632842481136322,-0.10042108738698086,-0.1818595168850447,-0.33887845358320856
1729690902.6700902,1732,1729690902,668039040,base_link,0.07076195627450943,9.922339813783765e-05,0.07567860186100006,-0.07685116091314327,-0.05967419521465423,-0.28539749556385163
1729690902.770224,1733,1729690902,769038272,base_link,0.046387188136577606,-0.016957543790340424,-0.022640131413936615,0.036945683763668545,0.040646310675351086,-0.12611462880942978
1729690902.8697119,1734,1729690902,868037760,base_link,0.04254366084933281,-0.030812513083219528,0.023115862160921097,0.1270955018429961,-0.051666402027208944,0.06544526189346532
1729690902.9689336,1735,1729690902,967036992,base_link,0.040720921009778976,-0.022444821894168854,0.006162624806165695,-0.01075976846303172,-0.02368641719616485,0.016873741981238068
1729690903.0693765,1736,1729690903,68033408,base_link,0.03938053175806999,-0.053594838827848434,-0.027808167040348053,-0.10381116925522473,-0.20678328579718566,0.1986953775009948
1729690903.168385,1737,1729690903,167034176,base_link,0.06367545574903488,-0.072681725025177,0.007887279614806175,-0.1381762554061197,-0.10247048118774293,0.2417445215310739
1729690903.267589,1738,1729690903,265035968,base_link,0.05988752096891403,-0.06941670924425125,-0.05814824625849724,0.04685742544431095,0.08680238745372432,0.07884279520941655
1729690903.371918,1739,1729690903,369033920,base_link,0.03790959715843201,-0.10020552575588226,-0.03486725687980652,0.018693612511601898,0.034047782468623236,0.15454541087315374
1729690903.4659178,1740,1729690903,463035456,base_link,0.04232615977525711,-0.08677538484334946,-0.008911926299333572,-0.1709516980401955,-0.12042027680096186,-0.13145439419081056
1729690903.5701914,1741,1729690903,567032640,base_link,0.011264920234680176,-0.0822812095284462,-0.03878483921289444,-0.013406901057615246,0.07562436615427671,0.1572589185558167
1729690903.6686814,1742,1729690903,666031360,base_link,0.0030567962676286697,-0.10517699271440506,0.010138828307390213,0.003957021830031158,-0.04461668794496364,0.3100962483967164
1729690903.7696385,1743,1729690903,767028032,base_link,0.03435036912560463,-0.09590420871973038,-0.010343312285840511,-0.13692228478487456,-0.07121903370804208,0.20791021300457016
1729690903.87062,1744,1729690903,867025216,base_link,0.0247002225369215,-0.10582824796438217,-0.04984806850552559,0.02177807850272594,0.09594030516198594,-0.15345348510071785
1729690903.9678013,1745,1729690903,966024960,base_link,0.009582827799022198,-0.1089356392621994,-0.018858585506677628,0.15665962523687374,0.06195527662998652,0.290615398156403
1729690904.067728,1746,1729690904,65023168,base_link,0.021033350378274918,-0.08033937215805054,-0.01862620748579502,-0.116443717057019,-0.19804103435081716,0.21223383554317757
1729690904.1680655,1747,1729690904,166022912,base_link,0.041435543447732925,-0.09328967332839966,-0.07205169647932053,-0.08743711955794581,0.0011267762303146488,-0.25605779409836577
1729690904.2676582,1748,1729690904,266024192,base_link,0.04519154131412506,-0.10245060920715332,-0.027422897517681122,-0.16606924731227413,-0.13360279981620482,0.066796196327655
1729690904.371858,1749,1729690904,370021376,base_link,0.011324227787554264,-0.1009967178106308,0.01283201389014721,-0.05472621839211579,-0.10606985855102398,-0.10597788787795497
1729690904.468848,1750,1729690904,466022912,base_link,-0.009405940771102905,-0.07338898628950119,-0.055431727319955826,-0.041491081258870924,0.024275901631630476,-0.009583267899753693
1729690904.5667,1751,1729690904,565021888,base_link,-0.013687338680028915,-0.059768132865428925,-0.02601337619125843,-0.14818743669239426,-0.16766626283840946,0.16587456857317467
1729690904.6688316,1752,1729690904,667020096,base_link,-0.029710277915000916,-0.05596457049250603,-0.08847232162952423,0.0017659570408987135,0.13105910407806864,-0.0730129537777349
1729690904.769628,1753,1729690904,768020352,base_link,-0.0576363205909729,-0.04130876064300537,-0.09251757711172104,-0.014087891336611329,0.09148463852263511,0.003949091616193526
1729690904.8724024,1754,1729690904,870017792,base_link,-0.07051970809698105,-0.04170944169163704,-0.09606413543224335,-0.10765058521007209,0.036736439314622504,0.058824148401483124
1729690904.964603,1755,1729690904,963017280,base_link,-0.0973244234919548,-0.0572749488055706,-0.14645977318286896,0.11152582932179542,0.29924023686738854,0.1950722771708477
1729690905.0698502,1756,1729690905,68015744,base_link,-0.11152492463588715,-0.029642680659890175,-0.22805772721767426,0.1420417580888631,0.20739471554291786,0.17797867762817657
1729690905.1685941,1757,1729690905,166016256,base_link,-0.12099035084247589,-0.03445916622877121,-0.195148304104805,0.07960553815484893,0.11749370560111358,0.08957208962828772
1729690905.2668157,1758,1729690905,265017792,base_link,-0.11270992457866669,-0.012195892632007599,-0.1908937394618988,-0.06561445052127937,0.05868901926229786,-0.020692115950914605
1729690905.3714013,1759,1729690905,369017536,base_link,-0.12075400352478027,-0.01057504303753376,-0.1467660665512085,-0.09356078322879251,0.013873375905163049,-0.13122725075606134
1729690905.469539,1760,1729690905,468017280,base_link,-0.13352417945861816,-0.005765300244092941,-0.14649096131324768,-0.018984380826465988,-0.1334334794544467,-0.12244866403506657
1729690905.5657227,1761,1729690905,564014464,base_link,-0.11585294455289841,-0.0014135355595499277,-0.11709903925657272,0.13630197472976227,0.13411719500547467,0.038991980489699804
1729690905.666081,1762,1729690905,664014208,base_link,-0.10932847112417221,0.01368165947496891,-0.1254034787416458,0.0286101770705264,0.17916283364187874,-0.022069319115727827
1729690905.7694051,1763,1729690905,768015232,base_link,-0.059095874428749084,0.026826662942767143,-0.07990747690200806,-0.04341068364948853,-0.02684914802027134,-0.04290634634728002
1729690905.8694515,1764,1729690905,867013952,base_link,-0.05152800306677818,0.04364890232682228,-0.07206712663173676,-0.056910171558833475,-0.004479352310426562,-0.1518456699794318
1729690905.9683187,1765,1729690905,966014464,base_link,-0.030175065621733665,0.0458698570728302,-0.08541800826787949,0.06273232426098357,0.14439538442868557,-0.13048970754944952
1729690906.0702019,1766,1729690906,68010624,base_link,-0.0021543214097619057,0.049322709441185,-0.026626303791999817,0.05484263850795055,0.13765310861396401,-0.14367630044377575
1729690906.1708004,1767,1729690906,169011136,base_link,0.008750303648412228,0.04994284734129906,0.006351172924041748,-0.023795226613298404,0.013885805833542226,-0.20541687528820146
1729690906.271041,1768,1729690906,269018048,base_link,0.02526877075433731,0.06243368983268738,-0.04609474539756775,0.0762438604528103,0.15932358974183838,0.12397103421587835
1729690906.3680468,1769,1729690906,365019328,base_link,0.021483182907104492,0.07314964383840561,0.009234309196472168,-0.03158950349651797,-0.13172669407049503,0.2358771708498537
1729690906.4685965,1770,1729690906,467016256,base_link,0.042208943516016006,0.08714665472507477,-0.021804483607411385,0.07763210497267369,0.13612576777896385,0.17003975909616675
1729690906.5652812,1771,1729690906,563016512,base_link,0.02141452021896839,0.08622994273900986,-0.04385120049118996,0.08097603606861274,0.15213483967553312,0.13972680901605217
1729690906.6680524,1772,1729690906,666010624,base_link,0.06788387894630432,0.09464973956346512,0.03280935809016228,-0.057592454206084394,-0.07410865024028022,-0.05903365741251001
1729690906.7675712,1773,1729690906,765006784,base_link,0.06128378212451935,0.08483412861824036,0.07488010823726654,-0.10366528762316791,-0.19935426222585456,-0.02549569341169921
1729690906.877293,1774,1729690906,875004224,base_link,0.08104502409696579,0.08908669650554657,0.09413392841815948,0.07109756225969821,0.19425657991237813,0.05505089424781977
1729690906.970167,1775,1729690906,967995520,base_link,0.08924602717161179,0.08052358031272888,0.05578666180372238,0.00546550834522648,-0.22611414483590642,0.15659577649853404
1729690907.0673146,1776,1729690907,64995520,base_link,0.08767742663621902,0.07942991703748703,0.07744890451431274,0.006392020509049379,-0.18201378224862116,0.020689712487936447
1729690907.168185,1777,1729690907,165987584,base_link,0.06414531916379929,0.07869090139865875,0.038623690605163574,0.022343922924980324,0.12907609356602914,0.09165891042680183
1729690907.272543,1778,1729690907,269981952,base_link,0.09848808497190475,0.06313744187355042,0.10962856560945511,-0.15005324165393616,-0.2099047297188399,-0.10561082431942934
1729690907.370172,1779,1729690907,368976576,base_link,0.08671202510595322,0.0418844148516655,0.12403416633605957,-0.1256370430791104,-0.03942557877904977,-0.11197788317036969
1729690907.4752512,1780,1729690907,472973760,base_link,0.061910051852464676,0.05446459352970123,0.022240225225687027,-0.10787603713139211,-0.10950945140603718,-0.012686306217503185
1729690907.5732229,1781,1729690907,571975552,base_link,0.0656091496348381,0.044870950281620026,0.016741368919610977,-0.03259466429147871,-0.1150336531051178,0.024089855190781655
1729690907.676237,1782,1729690907,673972736,base_link,0.060410935431718826,0.03688795864582062,0.03798559308052063,-0.059378092958841604,-0.03564135852386718,-0.10643812955318999
1729690907.7773962,1783,1729690907,774974272,base_link,0.01940707117319107,0.04019251838326454,0.018574748188257217,-0.03782010811205444,-0.0722737332589158,0.09391498822998277
1729690907.876369,1784,1729690907,874972224,base_link,0.036196108907461166,0.05761543661355972,0.039993152022361755,-0.06494320223464718,-0.15325889809917737,-0.014928927622676117
1729690907.9733143,1785,1729690907,970972480,base_link,0.023394910618662834,0.03247065469622612,0.10209254920482635,0.2039955207238647,0.15023153922915536,0.09123677412794008
1729690908.0711884,1786,1729690908,68966080,base_link,0.002112235873937607,0.018617307767271996,0.0811096802353859,0.01418165391642783,-0.01019561292719953,-0.1437708735715234
1729690908.1643274,1787,1729690908,161962752,base_link,0.007585043087601662,0.008223438635468483,0.10547278821468353,-0.040714198017096886,-0.013503822969519623,-0.15673075798784103
1729690908.2745688,1788,1729690908,272960960,base_link,0.011885286308825016,-0.004034031182527542,0.1555996537208557,0.14659047357029836,0.25379178821828174,0.12782821546728418
1729690908.3763423,1789,1729690908,374961984,base_link,-0.012690565548837185,-0.013464579358696938,0.13590969145298004,-0.0798714784357439,0.06747767874951151,-0.165011846491832
1729690908.4673333,1790,1729690908,464963264,base_link,0.010512402281165123,-0.006919129751622677,0.15201681852340698,-0.11564361033424735,-0.2946253398447389,0.12302502930521071
1729690908.5683138,1791,1729690908,565963008,base_link,0.009046400897204876,-0.027420708909630775,0.1379457265138626,-0.07677004583823036,-0.174218306380894,-0.05558005338495144
1729690908.667518,1792,1729690908,664959680,base_link,0.001094625797122717,-0.03153199702501297,0.12540890276432037,0.026816083177784004,0.059237091790668356,0.05652600211889946
1729690908.7657812,1793,1729690908,763960448,base_link,-0.0009904219768941402,-0.042294941842556,0.14751292765140533,0.11100951962550631,0.08776715316853921,0.1506335927520493
1729690908.8675532,1794,1729690908,865956352,base_link,-0.036927446722984314,-0.04475308209657669,0.06357328593730927,0.09251500804978795,0.10219495018147379,0.15887867924779517
1729690908.968571,1795,1729690908,966954560,base_link,-0.02040705643594265,-0.03999652341008186,0.07229528576135635,-0.06797617777914446,0.12540006335588558,0.08319464056898293
1729690909.0685027,1796,1729690909,66950720,base_link,-0.008450133726000786,-0.04778558760881424,0.0927310436964035,-0.020386489979358283,0.04853999647010255,0.09848279714678457
1729690909.1652942,1797,1729690909,162946112,base_link,-0.026297731325030327,-0.049033790826797485,0.07158976048231125,0.023217267410025166,-0.005089532982413438,0.021854300390167055
1729690909.2693522,1798,1729690909,266946112,base_link,-0.009184418246150017,-0.06417350471019745,0.08016421645879745,0.05743312211667002,0.044990643079971124,-0.14157803838979383
1729690909.3713555,1799,1729690909,368945856,base_link,-0.01361521240323782,-0.06631402671337128,0.08749394863843918,-0.026023951665026405,0.06850200164308777,-0.10216571278586321
1729690909.4694428,1800,1729690909,467944064,base_link,0.005415522027760744,-0.0671938881278038,0.07741138339042664,-0.06651620208541308,-0.048692413626446426,-0.03351298670602057
1729690909.5684185,1801,1729690909,565945344,base_link,0.006047113332897425,-0.05515631288290024,0.11444992572069168,-0.18605487108491475,-0.2942352457920327,-0.06120299009657314
1729690909.6717136,1802,1729690909,667943296,base_link,-0.0013433978892862797,-0.06537524610757828,0.12775832414627075,-0.15910785691388213,-0.24931749572079814,-0.009033445788328034
1729690909.7693212,1803,1729690909,766943296,base_link,0.006020392756909132,-0.044642746448516846,0.13118654489517212,-0.1486031302398697,-0.18563897701093474,-0.1545926568416688
1729690909.8677568,1804,1729690909,864941248,base_link,-0.0011603804305195808,-0.02632049098610878,0.08309133350849152,-0.08187121149262033,-0.09182169754456011,-0.14066749050731306
1729690909.9714515,1805,1729690909,968938432,base_link,-0.01823265105485916,-0.01679222658276558,0.004877511411905289,0.1307549615770482,0.054635131849992295,0.0961086188660359
1729690910.0678964,1806,1729690910,65934336,base_link,-0.012220579199492931,-0.0011139214038848877,0.07593180984258652,0.0190959340880447,-0.08199345451311227,0.10172707598843814
1729690910.1702147,1807,1729690910,166932288,base_link,-0.014134842902421951,0.023353060707449913,0.04963928461074829,0.011034775320638922,-0.11900330781937196,0.2509071525582451
1729690910.265436,1808,1729690910,262932288,base_link,0.010879464447498322,0.012510095722973347,0.016970982775092125,0.1697356426980081,0.2745635947557949,0.08956283422220233
1729690910.3733377,1809,1729690910,366930240,base_link,-0.013323264196515083,0.040462885051965714,-0.048765651881694794,0.15788667780326163,0.22222089181218474,0.19175823770853156
1729690910.470998,1810,1729690910,468930752,base_link,0.01516193337738514,0.05361476540565491,-0.07375064492225647,0.07413555484038467,0.05109636244195096,0.2426546306364402
1729690910.5698152,1811,1729690910,567930752,base_link,0.021908249706029892,0.07088009268045425,-0.018349025398492813,0.03137929624476337,-0.10903565766094821,0.10262707952396471
1729690910.6687186,1812,1729690910,666929472,base_link,0.03278246894478798,0.0771154835820198,-0.08898751437664032,0.03776507575402542,0.062066052930135014,-0.1905149761087614
1729690910.768578,1813,1729690910,764925376,base_link,0.03685731813311577,0.07809267193078995,-0.07037445902824402,-0.009856695401158284,0.04628261265142915,-0.1150822093385813
1729690910.8689988,1814,1729690910,866923840,base_link,0.04317423701286316,0.0689670518040657,0.004362858831882477,-0.06941361296372536,-0.32934483505069556,0.03496371594390868
1729690910.9679563,1815,1729690910,964924608,base_link,0.02711855247616768,0.08029500395059586,-0.021639689803123474,-0.063444705653372,-0.14544823514388136,-0.0288512922732561
1729690911.069937,1816,1729690911,66922816,base_link,0.0209844708442688,0.08437368273735046,-0.09747666865587234,0.06916938430695382,0.14297154469912035,0.14205264844203097
1729690911.1676588,1817,1729690911,165923840,base_link,0.02944650873541832,0.06842099130153656,-0.10823529958724976,0.16279143292861925,0.19066543676376835,0.23662316396482966
1729690911.2686498,1818,1729690911,266924352,base_link,0.04829302057623863,0.05757925286889076,-0.04919849708676338,-0.1410229639256633,-0.08162322293507036,-0.19048211233125845
1729690911.3676174,1819,1729690911,365926144,base_link,0.04179378226399422,0.03265116736292839,0.005707800388336182,-0.1820636997435469,-0.20142678135084116,-0.14367450380578117
1729690911.4646466,1820,1729690911,462926400,base_link,0.03642534837126732,0.017693612724542618,0.013159923255443573,-0.062073978633163954,-0.05193959009250399,0.0242025956231936
1729690911.5680063,1821,1729690911,565926400,base_link,0.019492942839860916,0.017266621813178062,-0.011644109152257442,-0.047986065635750946,-0.017391248519807022,0.18151149182146595
1729690911.664684,1822,1729690911,663926656,base_link,0.0015875877579674125,0.008966183289885521,-0.07196313142776489,-0.0732465740785832,0.1114940122499141,-0.061649581702590196
1729690911.7687426,1823,1729690911,766925632,base_link,0.024768579751253128,-0.005318270996212959,0.04481104388833046,-0.09461749913348741,-0.17152759645622645,-0.13170054494005365
1729690911.8720176,1824,1729690911,869918720,base_link,-0.01483583077788353,-0.005100544076412916,-0.020374435931444168,-0.0302684483485048,-0.11556447990858044,0.03294265508973126
1729690911.9706442,1825,1729690911,968917952,base_link,-0.018033774569630623,0.0014337466564029455,-0.04790709540247917,-0.0018447032672229786,-0.06123530017862813,0.12104559169501485
1729690912.0676427,1826,1729690912,65915904,base_link,-0.02136126719415188,-0.006634929683059454,-0.03532347083091736,0.10962336234072173,0.13752658230020104,0.23510012882202092
1729690912.1668746,1827,1729690912,164913600,base_link,-0.0002092624781653285,0.003920098766684532,-0.048685189336538315,-0.0023473581172649173,0.04623074798695598,-0.1511502749867974
1729690912.2689774,1828,1729690912,266911296,base_link,0.020342979580163956,0.00590713694691658,-0.025205347687005997,-0.15813197785355249,0.018981805879564943,-0.12228638515627296
1729690912.3652596,1829,1729690912,362906688,base_link,0.02787812240421772,0.032128527760505676,0.015996649861335754,-0.10546284273873856,-0.32398511348731657,-0.15228620576301333
1729690912.4650939,1830,1729690912,462905408,base_link,0.018479682505130768,0.039370227605104446,0.02804761566221714,0.004432588965054748,-0.13584090543657026,0.005257281924435453
1729690912.5672646,1831,1729690912,564902336,base_link,0.005059048067778349,0.05002107843756676,-0.04567725956439972,0.09481979094171568,0.06422341197952283,0.09726975039630154
1729690912.6662757,1832,1729690912,663913344,base_link,0.02143693156540394,0.06264899671077728,-0.046735912561416626,0.057408591448187295,0.15053763881839702,0.05560459563918237
1729690912.7671695,1833,1729690912,764925888,base_link,0.04727553203701973,0.08008357882499695,-0.05700226500630379,-0.12632756417383145,-0.008358748108246366,-0.1807187930591346
1729690912.8693352,1834,1729690912,866918208,base_link,0.03525932878255844,0.0644611045718193,0.03193553537130356,-0.008161955168568687,-0.027289452955870073,0.0805199153057267
1729690912.9685621,1835,1729690912,965909760,base_link,0.06311304867267609,0.08108650892972946,-0.03783554583787918,0.006688640915970076,0.056847594496224715,-0.059454211616754085
1729690913.069968,1836,1729690913,68903360,base_link,0.06390256434679031,0.06501157581806183,0.05481202155351639,-0.037554093573613986,-0.11234416435828279,-0.16215379968780563
1729690913.176985,1837,1729690913,174896704,base_link,0.08103465288877487,0.06350339949131012,0.05383928865194321,-0.12140984984412842,-0.2784444925782833,-0.008577771982135923
1729690913.2733755,1838,1729690913,270894656,base_link,0.06809275597333908,0.07614530622959137,0.0354219451546669,-0.04993772081480407,-0.09136684215107446,-0.09964887101560266
1729690913.3743448,1839,1729690913,371894400,base_link,0.06903199851512909,0.1055963858962059,-0.034342966973781586,0.11177029312183205,0.22861860438769038,0.09975626625717708
1729690913.4713805,1840,1729690913,468894144,base_link,0.06309907138347626,0.09786730259656906,-0.05482954904437065,0.034631107083186445,0.12177625913886378,-0.07357273841900226
1729690913.572375,1841,1729690913,570892352,base_link,0.06018052622675896,0.07459233701229095,0.00032900014775805175,-0.03769436134034097,-0.21165022553549406,-0.015837494179222738
1729690913.6745267,1842,1729690913,671893376,base_link,0.038288965821266174,0.0882715955376625,-0.007842106744647026,-0.015844725050870825,0.0005418685814975142,-0.2633101535409379
1729690913.776306,1843,1729690913,773892608,base_link,0.03996511548757553,0.10019543021917343,0.0077810101211071014,-0.021627089326728792,0.048997029187577965,-0.18263464171420138
1729690913.8756206,1844,1729690913,872891840,base_link,0.02890419401228428,0.07639231532812119,-0.04823918640613556,-0.020695122855576585,-0.10962596556078318,0.16961426205558242
1729690913.9712389,1845,1729690913,968895424,base_link,0.04387378320097923,0.06257017701864243,0.022569522261619568,-0.08871318568106445,-0.058932386948468085,-0.28999263574845896
1729690914.0754364,1846,1729690914,73889280,base_link,0.05313408374786377,0.08370278030633926,-0.005252815783023834,0.12570001098752182,0.34811544789972476,0.054018915028876305
1729690914.1674922,1847,1729690914,165890304,base_link,0.07164985686540604,0.06421627849340439,-0.02032230794429779,-0.00847904531797073,-0.12078888018796613,0.1654075852274506
1729690914.2781253,1848,1729690914,275888256,base_link,0.0849674642086029,0.04810280352830887,-0.06564921140670776,-0.0676174407865348,-0.17603153286603887,-0.02203436901128119
1729690914.3744113,1849,1729690914,371886464,base_link,0.08421140164136887,0.03186763823032379,0.03249458223581314,0.07161301432658924,0.2210868219290842,0.23303342825378573
1729690914.4733496,1850,1729690914,471886976,base_link,0.07187564671039581,0.03176061064004898,-0.0898842066526413,-0.12765933457348144,-0.2360432849017725,0.08426851722834963
1729690914.5720978,1851,1729690914,569885696,base_link,0.10351156443357468,0.030954917892813683,-0.018894001841545105,-0.04991220977016959,-0.0179040048346127,0.22269957774249893
1729690914.6683102,1852,1729690914,665888256,base_link,0.05756469815969467,0.028418797999620438,-0.08925449103116989,0.030106987881185845,0.060187245200152104,0.08012989641856395
1729690914.7674675,1853,1729690914,764889024,base_link,0.08097176253795624,0.028494996950030327,-0.0888642966747284,-0.13091052228015315,-0.17955680565376678,-0.02417843316915031
1729690914.868462,1854,1729690914,865889280,base_link,0.03583427146077156,0.031726185232400894,-0.10793501138687134,-0.15537570983153684,-0.17977587270130377,0.0746638178871197
1729690914.972413,1855,1729690914,969886464,base_link,0.032504767179489136,0.0555071160197258,-0.1439519226551056,0.08862259014494309,0.13709979497297842,0.17967487975125954
1729690915.0710187,1856,1729690915,68885184,base_link,-0.0006169537082314491,0.034171175211668015,-0.07334834337234497,-0.018757479609650542,-0.02011648878976109,-0.19965771211071864
1729690915.1657984,1857,1729690915,162885440,base_link,-0.011091620661318302,0.048965681344270706,-0.11371786892414093,0.11352485275368181,0.05546930665006756,-0.10474030688217198
1729690915.2672489,1858,1729690915,264882624,base_link,-0.02983720228075981,0.021533433347940445,-0.029768427833914757,0.06882399793243275,-0.01026201914736078,-0.20316104405564922
1729690915.3703873,1859,1729690915,368883392,base_link,-0.04569646716117859,0.04493716359138489,-0.09117157012224197,-0.05526155557626185,0.001732507564279744,-0.12706711090233386
1729690915.4689329,1860,1729690915,465879040,base_link,-0.03459111228585243,0.04077337309718132,-0.06651588529348373,-0.01249189282213509,0.06623521270332716,-0.11427986525405988
1729690915.569494,1861,1729690915,566876992,base_link,-0.05903373658657074,0.036322221159935,-0.02534465491771698,0.11937389869637113,0.17697159062440596,0.1891940874656734
1729690915.6682665,1862,1729690915,665876480,base_link,-0.05372875556349754,0.03542231768369675,0.06225867196917534,-0.03922060573804257,-0.2655258180482141,-0.15591073632779517
1729690915.7709415,1863,1729690915,767873664,base_link,-0.06001909077167511,0.06422021985054016,-0.03924870491027832,0.049508559199731406,0.13257925193395162,-0.07237471238000856
1729690915.8682017,1864,1729690915,865871872,base_link,-0.06362012028694153,0.03725098818540573,-0.026698842644691467,-0.034544378939181865,0.010958056062685963,-0.044860485967202775
1729690915.9725816,1865,1729690915,967870080,base_link,-0.07560929656028748,0.047790899872779846,-0.08225265890359879,0.1605167675423617,0.07968332472670156,0.3587363365069893
1729690916.0693974,1866,1729690916,66865984,base_link,-0.09475597739219666,0.026954423636198044,-0.04959246888756752,-0.0626564360200972,0.008532023761998414,0.0030062055257908445
1729690916.1692362,1867,1729690916,165867520,base_link,-0.07988286763429642,0.042287420481443405,-0.07479993253946304,0.05830540889231781,0.12800967117200046,0.021006027721599846
1729690916.2696521,1868,1729690916,266867776,base_link,-0.08187014609575272,0.02715280093252659,0.003377721179276705,-0.028745353973412147,0.0802346177890677,0.028248704898157617
1729690916.3682885,1869,1729690916,365869312,base_link,-0.09166904538869858,0.00791623629629612,0.007581062614917755,0.0951508461297229,-0.028937716888045126,0.1204743785784244
1729690916.469324,1870,1729690916,466874176,base_link,-0.09631356596946716,-0.023351501673460007,-0.013924703001976013,0.09395189533139205,0.04690348809814087,0.06180622496749601
1729690916.5684927,1871,1729690916,566872896,base_link,-0.05480516701936722,-0.014309432357549667,-0.016166316345334053,0.05684844355321931,0.1284598948444473,0.0834537583075467
1729690916.66731,1872,1729690916,664873920,base_link,-0.05449850484728813,-0.04184749722480774,0.08054604381322861,-0.22936953022548184,-0.34882452452301327,-0.06493168223042783
1729690916.7692468,1873,1729690916,766874176,base_link,-0.053605541586875916,-0.02117890864610672,0.04916107654571533,-0.07535506175503194,-0.3550004761965837,-0.13387983966974185
1729690916.86875,1874,1729690916,865874688,base_link,-0.058981090784072876,-0.021523820236325264,0.0025030116084963083,-0.10482409309496078,-0.05836338164977654,-0.1885371128473188
1729690916.9636734,1875,1729690916,961871872,base_link,-0.05086158588528633,-0.036853209137916565,0.05882564187049866,0.24689329504993318,0.1755866314985886,0.37744380850672726
1729690917.0686958,1876,1729690917,65870848,base_link,-0.05457302927970886,-0.02823065035045147,0.03280440717935562,0.03406821999192226,-0.12024199624025697,0.2006001218076886
1729690917.164765,1877,1729690917,162870848,base_link,-0.05338600277900696,-0.011498370207846165,0.010333654470741749,0.013285145631768821,0.06331311704349452,0.23253222339236998
1729690917.2716627,1878,1729690917,268869056,base_link,-0.03275854140520096,-0.033966321498155594,-0.03224391117691994,0.04006943150646949,-0.1308885701429212,0.1149362047660391
1729690917.3676345,1879,1729690917,365867520,base_link,0.002905315486714244,-0.016629759222269058,-0.026799753308296204,-0.1266273634130278,-0.2250307075251898,-0.08959854159109282
1729690917.4715981,1880,1729690917,469865216,base_link,0.02667137421667576,-0.0404488779604435,-0.056878749281167984,0.05867544867374113,-0.00323463089190661,0.19967939587266584
1729690917.5677598,1881,1729690917,565864448,base_link,0.011178085580468178,-0.03767262399196625,-0.07694041728973389,0.17043473283206678,0.10000259033896733,0.22017863967657558
1729690917.6697154,1882,1729690917,667864448,base_link,0.02631102316081524,-0.0296946931630373,-0.061638716608285904,-0.08248725322115398,-0.020183282259043277,-0.09296485641428502
1729690917.7689016,1883,1729690917,766865216,base_link,0.04585105553269386,-0.03400849178433418,-0.033731330186128616,-0.0793095409229094,-0.18830657895919067,-0.25895624503318015
1729690917.8676975,1884,1729690917,865868800,base_link,0.048980873078107834,-0.016232170164585114,-0.08274909853935242,-0.03466310311613504,-0.03750218573752215,0.06340957423828963
1729690917.9688232,1885,1729690917,966869056,base_link,0.03835582360625267,-0.0210373904556036,-0.11349327862262726,0.19794620767494914,0.21025275875898167,0.22640018247328467
1729690918.0708153,1886,1729690918,67861632,base_link,0.009055070579051971,-0.021408967673778534,-0.0787973552942276,-0.08267804100007965,-0.006355311899323004,-0.08869615512500194
1729690918.168671,1887,1729690918,166859328,base_link,0.02361837774515152,-0.0025879833847284317,-0.11631663143634796,-0.009391964981387332,0.04988022428932839,-0.059233795201699246
1729690918.27073,1888,1729690918,268859072,base_link,-0.008145908825099468,-0.006908011622726917,-0.09033399075269699,-0.0913645233182248,0.040047279742431226,-0.015503044817813783
1729690918.3669064,1889,1729690918,364860352,base_link,0.002948043867945671,0.005607430823147297,-0.08050739020109177,0.14678814839039434,0.10642665387346659,0.2521484358246038
1729690918.466835,1890,1729690918,464861120,base_link,-0.027123715728521347,-0.0009843232110142708,-0.08859366178512573,0.07702945570033612,0.14590220140473617,0.1500674525694521
1729690918.5679123,1891,1729690918,565860352,base_link,-0.013822723180055618,0.006999416276812553,-0.015445444732904434,-0.06919649002378113,-0.07674924485003794,-0.13796283524879388
1729690918.6707082,1892,1729690918,668859840,base_link,-0.0337970070540905,0.017186563462018967,-0.04910704493522644,0.027369381768456488,0.1056524868449638,-0.014965428905411086
1729690918.7667785,1893,1729690918,764862912,base_link,-0.05033319443464279,0.025005310773849487,-0.0483689047396183,0.13738810256916373,0.29296108326961817,0.14898799308952987
1729690918.8717976,1894,1729690918,869867264,base_link,-0.07288111001253128,0.03459241986274719,-0.040157780051231384,0.09981583039390442,0.3072342874169701,0.040648144086219404
1729690918.968838,1895,1729690918,966866240,base_link,-0.07603450864553452,0.042046334594488144,0.015734689310193062,0.07495328307183621,0.06941180618099348,0.1471010297301922
1729690919.0708299,1896,1729690919,67863936,base_link,-0.07331662625074387,0.03235514834523201,0.1006903201341629,0.03599700531140789,-0.12674625955323,0.06152669048266882
1729690919.1721766,1897,1729690919,169858816,base_link,-0.1094941645860672,0.056893955916166306,0.04654446989297867,-0.05124703038385708,-0.061377364977933606,0.17678987668219073
1729690919.272984,1898,1729690919,270856256,base_link,-0.09241766482591629,0.059886593371629715,-0.01233767345547676,0.012060479134316782,0.3166271653281934,-0.18262482662951904
1729690919.375232,1899,1729690919,372855488,base_link,-0.1177615225315094,0.022162361070513725,0.013522233814001083,0.043999140995379354,0.06173462272637403,0.02677429029938813
1729690919.4719257,1900,1729690919,469856256,base_link,-0.09603194892406464,0.007782384287565947,0.10051888227462769,-0.07452720623975012,-0.04639023077621583,-0.2483885240454327
1729690919.5749657,1901,1729690919,572852928,base_link,-0.09804823994636536,0.0020930636674165726,0.03403821215033531,0.01693876022625203,-0.09020626136168125,0.16163036983629886
1729690919.6747048,1902,1729690919,671852160,base_link,-0.06343962252140045,-0.013740221038460732,-0.07326456904411316,0.008661279515761547,0.31137017182712096,0.0650737096409835
1729690919.7761726,1903,1729690919,773848576,base_link,-0.032320983707904816,-0.037588391453027725,-0.042538776993751526,0.04617327160891029,0.010174489623194637,0.2068414136653658
1729690919.8755202,1904,1729690919,872849856,base_link,-0.016455963253974915,-0.022088099271059036,-0.007556747645139694,-0.01343604565504993,0.3038664052667525,0.03897335194677204
1729690919.9778936,1905,1729690919,975848064,base_link,0.0022150976583361626,-0.05588463321328163,-0.006656897719949484,0.026522453570460656,0.1553960901026351,0.07029979997205733
1729690920.0741415,1906,1729690920,71850624,base_link,0.009668044745922089,-0.03486040607094765,-0.06967467069625854,-0.10003330411975837,-0.12045815289986231,0.007279388642149116
1729690920.1771107,1907,1729690920,174850624,base_link,0.0468483604490757,-0.017587384209036827,-0.05610019713640213,-0.10673075584985707,-0.1713824535853506,-0.22565043840861
1729690920.2731197,1908,1729690920,270847808,base_link,0.05532841756939888,0.013415856286883354,-0.05144810676574707,0.05544202731504334,0.3273094921454415,0.11248861587114702
1729690920.3776152,1909,1729690920,374847296,base_link,0.0552787147462368,0.011631492525339127,-0.04586034640669823,-0.011409436303126486,-0.23836548049998363,0.09661716082464207
1729690920.476025,1910,1729690920,473843968,base_link,0.10060424357652664,0.04051665961742401,-0.008073993027210236,-0.0569581063777311,-0.036286647985194286,0.005884764400177354
1729690920.574949,1911,1729690920,572842176,base_link,0.09219174087047577,0.05951310694217682,0.014666091650724411,0.10514052374649765,0.09520803886143492,0.37276327101778844
1729690920.66804,1912,1729690920,665841152,base_link,0.09005757421255112,0.07916475832462311,0.05518410727381706,0.03471865459622047,-0.22116109999849304,0.2963148083394777
1729690920.770452,1913,1729690920,767840384,base_link,0.09705168753862381,0.10786684602499008,0.038640715181827545,-0.05068592620312769,-0.1404959577260836,-0.015436346134752173
1729690920.8679256,1914,1729690920,866840128,base_link,0.09914053231477737,0.14056988060474396,-0.01716803014278412,0.10563530782953108,-0.007229695416878333,0.25763044500424653
1729690920.9652185,1915,1729690920,962838592,base_link,0.0935588851571083,0.11808302998542786,-0.026724647730588913,0.13386666358865834,-0.08995387433582129,0.07756287191818942
1729690921.0729263,1916,1729690921,69836544,base_link,0.08453016728162766,0.11137210577726364,-0.045770566910505295,0.007403608731511839,0.06023444991620125,-0.13530838663847336
1729690921.1691675,1917,1729690921,165836032,base_link,0.07780864834785461,0.08498136699199677,-0.017879046499729156,0.07733298282728981,-0.11357045058465451,-0.11993431678651337
1729690921.2675552,1918,1729690921,265836032,base_link,0.056346505880355835,0.08924808353185654,-0.0333218052983284,-0.11486303913832567,0.11511520815024363,-0.06092414488091328
1729690921.370003,1919,1729690921,366837056,base_link,0.04461893066763878,0.09469977766275406,-0.005786501336842775,-0.07109137993205977,0.18859819206472772,-0.10906576523254251
1729690921.469285,1920,1729690921,465835264,base_link,0.032721493393182755,0.09219855070114136,0.053284741938114166,-0.11916882534649374,-0.051765518788614344,-0.19915597659184728
1729690921.568959,1921,1729690921,562833472,base_link,-0.0005090152844786644,0.09485961496829987,0.06459049135446548,0.0774913367778895,0.31601592839492737,0.180247497895095
1729690921.6701162,1922,1729690921,667831424,base_link,-0.005969213321805,0.11091290414333344,0.08695882558822632,0.06291476322441145,0.0749259295132618,0.017925691517399957
1729690921.7682498,1923,1729690921,765830400,base_link,-0.010899709537625313,0.14910657703876495,0.04168248176574707,0.21929114701510496,0.1625587260439843,0.2886702582085716
1729690921.8672366,1924,1729690921,865829632,base_link,-0.00965869426727295,0.13276882469654083,0.11259554326534271,-0.010475616007078751,-0.027263217367399895,-0.04480022843294523
1729690921.971282,1925,1729690921,968830400,base_link,-0.01581551879644394,0.12149680405855179,0.1067795380949974,0.0066847666947370404,0.026752753148345798,0.02468770178919677
1729690922.0693095,1926,1729690922,65827072,base_link,-0.014327142387628555,0.11621001362800598,0.10448567569255829,-0.04416614881160493,0.11723019485841972,0.0021365949346074005
1729690922.1695268,1927,1729690922,164824000,base_link,-0.015928039327263832,0.0659874752163887,0.18665648996829987,0.02543910730354206,-0.0013657016274695438,0.07397417942164465
1729690922.2715516,1928,1729690922,266825024,base_link,-0.021449977532029152,0.07091548293828964,0.10113853216171265,0.020592991752701288,0.10990839446152459,0.15039067594152364
1729690922.370244,1929,1729690922,365823744,base_link,-0.0005035426001995802,0.06294669955968857,0.14555883407592773,-0.06657062831406892,-0.044869472347098864,-0.04474292924262178
1729690922.4692578,1930,1729690922,466823488,base_link,-0.034907810389995575,0.05744967982172966,0.09978952258825302,0.07892454213518281,0.10567032793374219,0.22380621902574918
1729690922.5702684,1931,1729690922,568825280,base_link,-0.008462853729724884,0.04970087110996246,0.17939898371696472,-0.08402683939834077,-0.08125598299023327,-0.19523332036649713
1729690922.6724198,1932,1729690922,669823744,base_link,-0.02701457031071186,0.062434639781713486,0.090253546833992,0.059359045876369296,0.13121963925622784,0.17595753331143016
1729690922.7672505,1933,1729690922,765825024,base_link,-0.003044305369257927,0.04611833393573761,0.14788460731506348,0.011564972615527518,0.08132938768771972,-0.20751225124678546
1729690922.8717413,1934,1729690922,869825280,base_link,-0.004752948880195618,0.03684046119451523,0.0906064361333847,0.14121312913421513,0.15816678678630927,0.12031600796755965
1729690922.967537,1935,1729690922,965824256,base_link,0.00807088240981102,0.012956060469150543,0.09620346128940582,0.007607162664410204,0.08039310288211574,-0.04820765123718165
1729690923.0699575,1936,1729690923,66822464,base_link,0.02353614568710327,-0.006060745567083359,0.18783921003341675,-0.20801815079168764,-0.2114035147081021,-0.18409410332586013
1729690923.1684937,1937,1729690923,165821696,base_link,0.03393905982375145,-0.026178976520895958,0.21028946340084076,-0.09590212786968987,-0.10349277012957354,-0.15371238663258768
1729690923.2674973,1938,1729690923,265818112,base_link,0.03554756939411163,-0.025411879643797874,0.20659054815769196,-0.11544770420438086,-0.0677180067933141,-0.15753976651694881
1729690923.3709443,1939,1729690923,368815552,base_link,0.03682554140686989,-0.05819657817482948,0.2230091243982315,-0.10316199188249804,-0.14710498617114526,-0.19435698653851538
1729690923.4685416,1940,1729690923,465810944,base_link,0.045151758939027786,-0.053730934858322144,0.21652336418628693,-0.051954580197738506,-0.14253959963295437,-0.26858342277266345
1729690923.569984,1941,1729690923,566808896,base_link,0.05034293234348297,-0.05959329754114151,0.22514139115810394,-0.11703635380083394,-0.14748477979818844,-0.20565675306432005
1729690923.6686592,1942,1729690923,666808640,base_link,0.031471531838178635,-0.062026575207710266,0.1875005066394806,-0.13781192052918653,0.08156780129516074,-0.027619287735885036
1729690923.767355,1943,1729690923,765805312,base_link,0.04313643276691437,-0.08741974085569382,0.2005540430545807,-0.0381761946628704,-0.01873748315378766,0.06569628120488347
1729690923.8721113,1944,1729690923,868802496,base_link,0.03704340383410454,-0.06419873237609863,0.13695481419563293,0.07548679568375961,-0.024736771813706697,0.20187984425933317
