Time,header.seq,header.stamp.secs,header.stamp.nsecs,header.frame_id,status.status,status.service,latitude,longitude,altitude,position_covariance_0,position_covariance_1,position_covariance_2,position_covariance_3,position_covariance_4,position_covariance_5,position_covariance_6,position_covariance_7,position_covariance_8,position_covariance_type
1729690891.1176424,583,1729690889,354123008,base_link,0,1,33.637064,72.9913113,489.7758929085934,1.8496000000000004,0.0,0.0,0.0,1.8496000000000004,0.0,0.0,0.0,2.965284,2
1729690891.1177118,584,1729690889,453123008,base_link,0,1,33.6370645,72.9913117,489.745897561873,1.8496000000000004,0.0,0.0,0.0,1.8496000000000004,0.0,0.0,0.0,2.965284,2
1729690891.1178458,585,1729690889,553123008,base_link,0,1,33.6370652,72.9913121,489.7159034410065,1.841449,0.0,0.0,0.0,1.841449,0.0,0.0,0.0,2.968729,2
1729690891.117977,586,1729690889,656123008,base_link,0,1,33.6370661,72.9913126,489.6959109431647,1.841449,0.0,0.0,0.0,1.841449,0.0,0.0,0.0,2.968729,2
1729690891.1182356,587,1729690889,753123008,base_link,0,1,33.6370672,72.9913132,489.67592006835565,1.836025,0.0,0.0,0.0,1.836025,0.0,0.0,0.0,2.9721759999999997,2
1729690891.1184182,588,1729690889,853123008,base_link,0,1,33.6370685,72.9913139,489.6659308165884,1.836025,0.0,0.0,0.0,1.836025,0.0,0.0,0.0,2.9721759999999997,2
1729690891.118787,589,1729690889,956123008,base_link,0,1,33.6370702,72.9913146,489.665944016566,1.830609,0.0,0.0,0.0,1.830609,0.0,0.0,0.0,2.9549610000000004,2
1729690891.119444,590,1729690890,58123008,base_link,0,1,33.6370719,72.9913154,489.6759576137505,1.830609,0.0,0.0,0.0,1.830609,0.0,0.0,0.0,2.9549610000000004,2
1729690891.1197588,591,1729690890,155123008,base_link,0,1,33.6370737,72.9913162,489.685971823908,1.819801,0.0,0.0,0.0,1.819801,0.0,0.0,0.0,2.937796,2
1729690891.1201608,592,1729690890,253123008,base_link,0,1,33.6370756,72.9913169,489.69598624987316,1.819801,0.0,0.0,0.0,1.819801,0.0,0.0,0.0,2.937796,2
1729690891.1205142,593,1729690890,353123008,base_link,0,1,33.6370776,72.9913177,489.69600168599385,1.8117160000000003,0.0,0.0,0.0,1.8117160000000003,0.0,0.0,0.0,2.937796,2
1729690891.1209996,594,1729690890,454123008,base_link,0,1,33.6370795,72.9913185,489.70601650922526,1.8117160000000003,0.0,0.0,0.0,1.8117160000000003,0.0,0.0,0.0,2.937796,2
1729690891.1253235,595,1729690890,556123008,base_link,0,1,33.6370814,72.9913192,489.72603093532905,1.8090249999999999,0.0,0.0,0.0,1.8090249999999999,0.0,0.0,0.0,2.9446559999999997,2
1729690891.1263664,596,1729690890,656123008,base_link,0,1,33.6370833,72.99132,489.73604575865306,1.8090249999999999,0.0,0.0,0.0,1.8090249999999999,0.0,0.0,0.0,2.9446559999999997,2
1729690891.1264708,597,1729690890,753123008,base_link,0,1,33.637085,72.9913206,489.7460585617784,1.8063360000000002,0.0,0.0,0.0,1.8063360000000002,0.0,0.0,0.0,2.951524,2
1729690891.1265655,598,1729690890,857123008,base_link,0,1,33.6370868,72.9913211,489.75607158071,1.8063360000000002,0.0,0.0,0.0,1.8063360000000002,0.0,0.0,0.0,2.951524,2
1729690891.12686,599,1729690890,960123008,base_link,0,1,33.6370886,72.9913215,489.7660842025007,1.8036489999999998,0.0,0.0,0.0,1.8036489999999998,0.0,0.0,0.0,2.9583999999999997,2
1729690891.126925,600,1729690891,58123008,base_link,0,1,33.6370901,72.9913218,489.77609458829374,1.8036489999999998,0.0,0.0,0.0,1.8036489999999998,0.0,0.0,0.0,2.9583999999999997,2
1729690891.158672,601,1729690891,155123008,base_link,0,1,33.6370916,72.9913219,489.7961041797518,1.7956000000000003,0.0,0.0,0.0,1.7956000000000003,0.0,0.0,0.0,2.961841,2
1729690891.254851,602,1729690891,253123008,base_link,0,1,33.637093,72.9913221,489.81611355545755,1.7956000000000003,0.0,0.0,0.0,1.7956000000000003,0.0,0.0,0.0,2.961841,2
1729690891.3605042,603,1729690891,358123008,base_link,0,1,33.6370944,72.991322,489.83612173964076,1.7848960000000003,0.0,0.0,0.0,1.7848960000000003,0.0,0.0,0.0,2.965284,2
1729690891.4611015,604,1729690891,453123008,base_link,0,1,33.6370957,72.9913218,489.8461289137028,1.7848960000000003,0.0,0.0,0.0,1.7848960000000003,0.0,0.0,0.0,2.965284,2
1729690891.5564756,605,1729690891,554123008,base_link,0,1,33.6370969,72.9913215,489.85613507763856,1.776889,0.0,0.0,0.0,1.776889,0.0,0.0,0.0,2.9756250000000004,2
1729690891.657228,606,1729690891,655121216,base_link,0,1,33.637098,72.9913211,489.85614023144404,1.776889,0.0,0.0,0.0,1.776889,0.0,0.0,0.0,2.9756250000000004,2
1729690891.7581363,607,1729690891,755119424,base_link,0,1,33.6370992,72.9913207,489.8461459982157,1.771561,0.0,0.0,0.0,1.771561,0.0,0.0,0.0,2.9859839999999997,2
1729690891.8572443,608,1729690891,855119424,base_link,0,1,33.6371002,72.9913202,489.84615014189416,1.771561,0.0,0.0,0.0,1.771561,0.0,0.0,0.0,2.9859839999999997,2
1729690891.955283,609,1729690891,953115584,base_link,0,1,33.6371012,72.9913195,489.8361534912113,1.7635840000000003,0.0,0.0,0.0,1.7635840000000003,0.0,0.0,0.0,2.999824,2
1729690892.0552096,610,1729690892,53113536,base_link,0,1,33.6371021,72.9913188,489.8261562275719,1.7635840000000003,0.0,0.0,0.0,1.7635840000000003,0.0,0.0,0.0,2.999824,2
1729690892.1552231,611,1729690892,153113280,base_link,0,1,33.6371029,72.9913179,489.83615755660713,1.755625,0.0,0.0,0.0,1.755625,0.0,0.0,0.0,3.0032890000000005,2
1729690892.2546024,612,1729690892,253113024,base_link,0,1,33.6371037,72.991317,489.8361588856437,1.755625,0.0,0.0,0.0,1.755625,0.0,0.0,0.0,3.0032890000000005,2
1729690892.3547685,613,1729690892,353112768,base_link,0,1,33.6371044,72.991316,489.8361592045364,1.7503289999999998,0.0,0.0,0.0,1.7503289999999998,0.0,0.0,0.0,3.010225,2
1729690892.456193,614,1729690892,453112768,base_link,0,1,33.6371049,72.9913149,489.8161579003229,1.7503289999999998,0.0,0.0,0.0,1.7503289999999998,0.0,0.0,0.0,3.010225,2
1729690892.555452,615,1729690892,553113024,base_link,0,1,33.6371053,72.9913138,489.79615598314825,1.7450409999999998,0.0,0.0,0.0,1.7450409999999998,0.0,0.0,0.0,3.0241210000000005,2
1729690892.6587212,616,1729690892,655113792,base_link,0,1,33.6371056,72.9913128,489.7861538501964,1.7450409999999998,0.0,0.0,0.0,1.7450409999999998,0.0,0.0,0.0,3.0241210000000005,2
1729690892.7563577,617,1729690892,753114560,base_link,0,1,33.6371058,72.9913117,489.75615070710086,1.7424000000000002,0.0,0.0,0.0,1.7424000000000002,0.0,0.0,0.0,3.0380490000000004,2
1729690892.856382,618,1729690892,854113792,base_link,0,1,33.6371059,72.9913107,489.73614734822917,1.7424000000000002,0.0,0.0,0.0,1.7424000000000002,0.0,0.0,0.0,3.0380490000000004,2
1729690892.956742,619,1729690892,954113280,base_link,0,1,33.637106,72.9913098,489.72614438654193,1.7424000000000002,0.0,0.0,0.0,1.7424000000000002,0.0,0.0,0.0,3.0520090000000004,2
1729690893.0624273,620,1729690893,55113280,base_link,0,1,33.6371059,72.9913089,489.71614019893644,1.7424000000000002,0.0,0.0,0.0,1.7424000000000002,0.0,0.0,0.0,3.0520090000000004,2
1729690893.158459,621,1729690893,153113280,base_link,0,1,33.6371058,72.9913081,489.71613640851604,1.7476840000000002,0.0,0.0,0.0,1.7476840000000002,0.0,0.0,0.0,3.0660009999999995,2
1729690893.256019,622,1729690893,253113280,base_link,0,1,33.6371056,72.9913073,489.706132005139,1.7476840000000002,0.0,0.0,0.0,1.7476840000000002,0.0,0.0,0.0,3.0660009999999995,2
1729690893.3557696,623,1729690893,353113536,base_link,0,1,33.6371053,72.9913066,489.6961273859892,1.752976,0.0,0.0,0.0,1.752976,0.0,0.0,0.0,3.0870489999999995,2
1729690893.455554,624,1729690893,453110720,base_link,0,1,33.6371049,72.991306,489.69612255106705,1.752976,0.0,0.0,0.0,1.752976,0.0,0.0,0.0,3.0870489999999995,2
1729690893.555262,625,1729690893,553110464,base_link,0,1,33.6371044,72.9913052,489.69611630883,1.760929,0.0,0.0,0.0,1.760929,0.0,0.0,0.0,3.1081689999999997,2
1729690893.6555555,626,1729690893,653110208,base_link,0,1,33.6371037,72.9913045,489.6861092378691,1.760929,0.0,0.0,0.0,1.760929,0.0,0.0,0.0,3.1081689999999997,2
1729690893.7563512,627,1729690893,753110464,base_link,0,1,33.6371029,72.9913037,489.68610115678297,1.7689000000000001,0.0,0.0,0.0,1.7689000000000001,0.0,0.0,0.0,3.122289,2
1729690893.8558033,628,1729690893,853109696,base_link,0,1,33.6371021,72.991303,489.6860934728891,1.7689000000000001,0.0,0.0,0.0,1.7689000000000001,0.0,0.0,0.0,3.122289,2
1729690893.9555578,629,1729690893,953108672,base_link,0,1,33.6371013,72.9913024,489.67608618618624,1.776889,0.0,0.0,0.0,1.776889,0.0,0.0,0.0,3.1364409999999996,2
1729690894.055821,630,1729690894,53108160,base_link,0,1,33.6371005,72.9913019,489.6660792966729,1.776889,0.0,0.0,0.0,1.776889,0.0,0.0,0.0,3.1364409999999996,2
1729690894.155765,631,1729690894,153109440,base_link,0,1,33.6370998,72.9913016,489.6660738144769,1.7848960000000003,0.0,0.0,0.0,1.7848960000000003,0.0,0.0,0.0,3.154176,2
1729690894.25547,632,1729690894,253109696,base_link,0,1,33.6370991,72.9913014,489.65606872946523,1.7848960000000003,0.0,0.0,0.0,1.7848960000000003,0.0,0.0,0.0,3.154176,2
1729690894.3572402,633,1729690894,354109440,base_link,0,1,33.6370986,72.9913014,489.64606566471446,1.792921,0.0,0.0,0.0,1.792921,0.0,0.0,0.0,3.179089,2
1729690894.456571,634,1729690894,454107648,base_link,0,1,33.637098,72.9913016,489.6360627813716,1.792921,0.0,0.0,0.0,1.792921,0.0,0.0,0.0,3.179089,2
1729690894.5557249,635,1729690894,554108672,base_link,0,1,33.6370975,72.9913019,489.62606090815746,1.8009640000000002,0.0,0.0,0.0,1.8009640000000002,0.0,0.0,0.0,3.1933689999999997,2
1729690894.656521,636,1729690894,654106112,base_link,0,1,33.637097,72.9913023,489.6160594321218,1.8009640000000002,0.0,0.0,0.0,1.8009640000000002,0.0,0.0,0.0,3.1933689999999997,2
1729690894.7564843,637,1729690894,754105600,base_link,0,1,33.6370965,72.9913028,489.6060583532642,1.8090249999999999,0.0,0.0,0.0,1.8090249999999999,0.0,0.0,0.0,3.2041,2
1729690894.8569846,638,1729690894,855105344,base_link,0,1,33.6370961,72.9913034,489.6160582845329,1.8090249999999999,0.0,0.0,0.0,1.8090249999999999,0.0,0.0,0.0,3.2041,2
1729690894.957216,639,1729690894,955103552,base_link,0,1,33.6370958,72.9913039,489.61605843157315,1.8171040000000003,0.0,0.0,0.0,1.8171040000000003,0.0,0.0,0.0,3.218436,2
1729690895.0572996,640,1729690895,53103552,base_link,0,1,33.6370957,72.9913045,489.6260602016878,1.8171040000000003,0.0,0.0,0.0,1.8171040000000003,0.0,0.0,0.0,3.218436,2
1729690895.1608782,641,1729690895,158101504,base_link,0,1,33.6370956,72.9913051,489.6260619718029,1.8252009999999999,0.0,0.0,0.0,1.8252009999999999,0.0,0.0,0.0,3.2292089999999996,2
1729690895.2582662,642,1729690895,253102016,base_link,0,1,33.6370955,72.9913057,489.6360637419184,1.8252009999999999,0.0,0.0,0.0,1.8252009999999999,0.0,0.0,0.0,3.2292089999999996,2
1729690895.3582454,643,1729690895,353101248,base_link,0,1,33.6370955,72.9913063,489.65606612498357,1.8387360000000001,0.0,0.0,0.0,1.8387360000000001,0.0,0.0,0.0,3.243601,2
1729690895.4566455,644,1729690895,454102528,base_link,0,1,33.6370955,72.991307,489.67606890522734,1.8387360000000001,0.0,0.0,0.0,1.8387360000000001,0.0,0.0,0.0,3.243601,2
1729690895.5582707,645,1729690895,554100736,base_link,0,1,33.6370956,72.9913077,489.70607229842216,1.8496000000000004,0.0,0.0,0.0,1.8496000000000004,0.0,0.0,0.0,3.258025,2
1729690895.6568775,646,1729690895,654098944,base_link,0,1,33.6370957,72.9913083,489.7460752944408,1.8496000000000004,0.0,0.0,0.0,1.8496000000000004,0.0,0.0,0.0,3.258025,2
1729690895.7596061,647,1729690895,754097408,base_link,0,1,33.637096,72.9913089,489.78607951636235,1.857769,0.0,0.0,0.0,1.857769,0.0,0.0,0.0,3.272481,2
1729690895.8594236,648,1729690895,855098432,base_link,0,1,33.6370963,72.9913095,489.8260837382871,1.857769,0.0,0.0,0.0,1.857769,0.0,0.0,0.0,3.272481,2
1729690895.9582143,649,1729690895,955093056,base_link,0,1,33.6370967,72.9913101,489.8760885731671,1.8659560000000004,0.0,0.0,0.0,1.8659560000000004,0.0,0.0,0.0,3.283344,2
1729690896.0551407,650,1729690896,53088704,base_link,0,1,33.6370972,72.9913106,489.9360936238247,1.8659560000000004,0.0,0.0,0.0,1.8659560000000004,0.0,0.0,0.0,3.283344,2
1729690896.1574101,651,1729690896,155086144,base_link,0,1,33.6370977,72.9913113,489.9860994688468,1.8714240000000002,0.0,0.0,0.0,1.8714240000000002,0.0,0.0,0.0,3.294225,2
1729690896.2591782,652,1729690896,255084608,base_link,0,1,33.6370983,72.9913119,490.0461055296493,1.8714240000000002,0.0,0.0,0.0,1.8714240000000002,0.0,0.0,0.0,3.294225,2
1729690896.3543227,653,1729690896,353080512,base_link,0,1,33.6370989,72.9913124,490.10611119327854,1.879641,0.0,0.0,0.0,1.879641,0.0,0.0,0.0,3.316041,2
1729690896.4544775,654,1729690896,453080000,base_link,0,1,33.6370995,72.991313,490.17611725409495,1.879641,0.0,0.0,0.0,1.879641,0.0,0.0,0.0,3.316041,2
1729690896.555748,655,1729690896,553079232,base_link,0,1,33.6371001,72.9913134,490.2361225205561,1.885129,0.0,0.0,0.0,1.885129,0.0,0.0,0.0,3.326976,2
1729690896.6556556,656,1729690896,653078720,base_link,0,1,33.6371007,72.9913139,490.30612818420445,1.885129,0.0,0.0,0.0,1.885129,0.0,0.0,0.0,3.326976,2
1729690896.755502,657,1729690896,754078464,base_link,0,1,33.6371013,72.9913144,490.37613384785925,1.885129,0.0,0.0,0.0,1.885129,0.0,0.0,0.0,3.341584,2
1729690896.8570898,658,1729690896,855076160,base_link,0,1,33.6371018,72.9913149,490.4461388985617,1.885129,0.0,0.0,0.0,1.885129,0.0,0.0,0.0,3.341584,2
1729690896.973966,659,1729690896,954070016,base_link,0,1,33.6371022,72.9913153,490.5061429391273,1.8878760000000003,0.0,0.0,0.0,1.8878760000000003,0.0,0.0,0.0,3.3525609999999997,2
1729690897.054436,660,1729690897,53066432,base_link,0,1,33.6371027,72.9913156,490.5861471954728,1.8878760000000003,0.0,0.0,0.0,1.8878760000000003,0.0,0.0,0.0,3.3525609999999997,2
1729690897.1584811,661,1729690897,155066432,base_link,0,1,33.6371032,72.9913159,490.66615145182226,1.8878760000000003,0.0,0.0,0.0,1.8878760000000003,0.0,0.0,0.0,3.367225,2
1729690897.255412,662,1729690897,254064896,base_link,0,1,33.6371036,72.9913162,490.73615509521454,1.8878760000000003,0.0,0.0,0.0,1.8878760000000003,0.0,0.0,0.0,3.367225,2
1729690897.3566904,663,1729690897,355064896,base_link,0,1,33.637104,72.9913164,490.7961583414257,1.890625,0.0,0.0,0.0,1.890625,0.0,0.0,0.0,3.3782440000000005,2
1729690897.4547827,664,1729690897,453067712,base_link,0,1,33.6371044,72.9913166,490.85616158763924,1.890625,0.0,0.0,0.0,1.890625,0.0,0.0,0.0,3.3782440000000005,2
1729690897.5566146,665,1729690897,554065664,base_link,0,1,33.6371047,72.9913167,490.9161638237087,1.8878760000000003,0.0,0.0,0.0,1.8878760000000003,0.0,0.0,0.0,3.3856,2
1729690897.6555488,666,1729690897,654065920,base_link,0,1,33.6371051,72.9913168,490.9661666727418,1.8878760000000003,0.0,0.0,0.0,1.8878760000000003,0.0,0.0,0.0,3.3856,2
1729690897.7555826,667,1729690897,754066688,base_link,0,1,33.6371054,72.9913169,491.0061689088138,1.8823840000000003,0.0,0.0,0.0,1.8823840000000003,0.0,0.0,0.0,3.4003360000000002,2
1729690897.8544803,668,1729690897,853068992,base_link,0,1,33.6371056,72.9913169,491.0461701347393,1.8823840000000003,0.0,0.0,0.0,1.8823840000000003,0.0,0.0,0.0,3.4003360000000002,2
1729690897.95715,669,1729690897,955067712,base_link,0,1,33.6371057,72.991317,491.07617114488676,1.8769000000000002,0.0,0.0,0.0,1.8769000000000002,0.0,0.0,0.0,3.4151040000000004,2
1729690898.0587494,670,1729690898,53067968,base_link,0,1,33.6371058,72.991317,491.10617175785,1.8769000000000002,0.0,0.0,0.0,1.8769000000000002,0.0,0.0,0.0,3.4151040000000004,2
1729690898.155702,671,1729690898,154066432,base_link,0,1,33.6371058,72.9913169,491.1361713606654,1.874161,0.0,0.0,0.0,1.874161,0.0,0.0,0.0,3.4151040000000004,2
1729690898.2558465,672,1729690898,253071040,base_link,0,1,33.6371058,72.9913169,491.1561713606654,1.874161,0.0,0.0,0.0,1.874161,0.0,0.0,0.0,3.4151040000000004,2
1729690898.3569417,673,1729690898,354070528,base_link,0,1,33.6371058,72.9913169,491.1561713606654,1.8659560000000004,0.0,0.0,0.0,1.8659560000000004,0.0,0.0,0.0,3.411409,2
1729690898.4552486,674,1729690898,453071040,base_link,0,1,33.6371058,72.9913169,491.1561713606654,1.8659560000000004,0.0,0.0,0.0,1.8659560000000004,0.0,0.0,0.0,3.411409,2
1729690898.5559528,675,1729690898,553067968,base_link,0,1,33.6371058,72.9913169,491.1561713606654,1.8604960000000004,0.0,0.0,0.0,1.8604960000000004,0.0,0.0,0.0,3.411409,2
1729690898.656918,676,1729690898,654065664,base_link,0,1,33.6371058,72.9913169,491.1561713606654,1.8604960000000004,0.0,0.0,0.0,1.8604960000000004,0.0,0.0,0.0,3.411409,2
1729690898.7604656,677,1729690898,753065664,base_link,0,1,33.6371056,72.9913169,491.14617013473935,1.8523209999999999,0.0,0.0,0.0,1.8523209999999999,0.0,0.0,0.0,3.4151040000000004,2
1729690898.8573754,678,1729690898,855066432,base_link,0,1,33.6371055,72.9913169,491.1461695217765,1.8523209999999999,0.0,0.0,0.0,1.8523209999999999,0.0,0.0,0.0,3.4151040000000004,2
1729690898.955159,679,1729690898,953066176,base_link,0,1,33.6371054,72.9913169,491.1361689088138,1.8441640000000004,0.0,0.0,0.0,1.8441640000000004,0.0,0.0,0.0,3.4225000000000003,2
1729690899.0553381,680,1729690899,53061056,base_link,0,1,33.6371052,72.9913168,491.12616728570424,1.8441640000000004,0.0,0.0,0.0,1.8441640000000004,0.0,0.0,0.0,3.4225000000000003,2
1729690899.155672,681,1729690899,154060032,base_link,0,1,33.637105,72.9913167,491.1161656625952,1.836025,0.0,0.0,0.0,1.836025,0.0,0.0,0.0,3.426201,2
1729690899.25457,682,1729690899,253062080,base_link,0,1,33.6371049,72.9913166,491.1061646524489,1.836025,0.0,0.0,0.0,1.836025,0.0,0.0,0.0,3.426201,2
1729690899.356824,683,1729690899,355059520,base_link,0,1,33.6371046,72.9913165,491.0961624163789,1.830609,0.0,0.0,0.0,1.830609,0.0,0.0,0.0,3.433609,2
1729690899.4555926,684,1729690899,454052864,base_link,0,1,33.6371044,72.9913164,491.08616079327146,1.830609,0.0,0.0,0.0,1.830609,0.0,0.0,0.0,3.433609,2
1729690899.5546722,685,1729690899,553048768,base_link,0,1,33.6371041,72.9913162,491.0761581600197,1.8225000000000002,0.0,0.0,0.0,1.8225000000000002,0.0,0.0,0.0,3.433609,2
1729690899.6572535,686,1729690899,655048512,base_link,0,1,33.6371038,72.9913161,491.0761559239528,1.8225000000000002,0.0,0.0,0.0,1.8225000000000002,0.0,0.0,0.0,3.433609,2
1729690899.7569473,687,1729690899,754049536,base_link,0,1,33.6371036,72.9913159,491.0661539036643,1.819801,0.0,0.0,0.0,1.819801,0.0,0.0,0.0,3.4373160000000005,2
1729690899.8552856,688,1729690899,854051072,base_link,0,1,33.6371033,72.9913157,491.0661512704162,1.819801,0.0,0.0,0.0,1.819801,0.0,0.0,0.0,3.4373160000000005,2
1729690899.9576983,689,1729690899,955050048,base_link,0,1,33.6371031,72.9913155,491.0661492501296,1.8171040000000003,0.0,0.0,0.0,1.8171040000000003,0.0,0.0,0.0,3.4447360000000002,2
1729690900.0578263,690,1729690900,55050048,base_link,0,1,33.6371028,72.9913153,491.066146616884,1.8171040000000003,0.0,0.0,0.0,1.8171040000000003,0.0,0.0,0.0,3.4447360000000002,2
1729690900.1570845,691,1729690900,154047488,base_link,0,1,33.6371026,72.991315,491.06614419941656,1.819801,0.0,0.0,0.0,1.819801,0.0,0.0,0.0,3.448449,2
1729690900.260521,692,1729690900,258043648,base_link,0,1,33.6371024,72.9913147,491.0761417819501,1.819801,0.0,0.0,0.0,1.819801,0.0,0.0,0.0,3.448449,2
1729690900.3548865,693,1729690900,353039808,base_link,0,1,33.6371022,72.9913145,491.0761397616672,1.819801,0.0,0.0,0.0,1.819801,0.0,0.0,0.0,3.448449,2
1729690900.4566336,694,1729690900,454037248,base_link,0,1,33.637102,72.9913142,491.0861373442028,1.819801,0.0,0.0,0.0,1.819801,0.0,0.0,0.0,3.448449,2
1729690900.555909,695,1729690900,554029568,base_link,0,1,33.6371019,72.991314,491.08613593687994,1.8225000000000002,0.0,0.0,0.0,1.8225000000000002,0.0,0.0,0.0,3.4521640000000002,2
1729690900.655656,696,1729690900,653029568,base_link,0,1,33.6371017,72.9913137,491.0961335194174,1.8225000000000002,0.0,0.0,0.0,1.8225000000000002,0.0,0.0,0.0,3.4521640000000002,2
1729690900.7563279,697,1729690900,755042880,base_link,0,1,33.6371016,72.9913136,491.09613250927737,1.8225000000000002,0.0,0.0,0.0,1.8225000000000002,0.0,0.0,0.0,3.4558809999999998,2
1729690900.8554943,698,1729690900,854037248,base_link,0,1,33.6371014,72.9913134,491.096130488998,1.8225000000000002,0.0,0.0,0.0,1.8225000000000002,0.0,0.0,0.0,3.4558809999999998,2
1729690900.958603,699,1729690900,956037248,base_link,0,1,33.6371013,72.9913133,491.0961294788587,1.8225000000000002,0.0,0.0,0.0,1.8225000000000002,0.0,0.0,0.0,3.4521640000000002,2
1729690901.0580332,700,1729690901,56037248,base_link,0,1,33.6371013,72.9913131,491.0961286844952,1.8225000000000002,0.0,0.0,0.0,1.8225000000000002,0.0,0.0,0.0,3.4521640000000002,2
1729690901.1560838,701,1729690901,153039808,base_link,0,1,33.6371013,72.991313,491.0961282873136,1.8225000000000002,0.0,0.0,0.0,1.8225000000000002,0.0,0.0,0.0,3.4521640000000002,2
1729690901.2567146,702,1729690901,254039808,base_link,0,1,33.6371013,72.9913129,491.09612789013187,1.8225000000000002,0.0,0.0,0.0,1.8225000000000002,0.0,0.0,0.0,3.4521640000000002,2
1729690901.3544636,703,1729690901,353043136,base_link,0,1,33.6371013,72.9913127,491.0961270957686,1.8225000000000002,0.0,0.0,0.0,1.8225000000000002,0.0,0.0,0.0,3.4558809999999998,2
1729690901.4644868,704,1729690901,461041344,base_link,0,1,33.6371014,72.9913126,491.08612731154415,1.8225000000000002,0.0,0.0,0.0,1.8225000000000002,0.0,0.0,0.0,3.4558809999999998,2
1729690901.5556252,705,1729690901,554041088,base_link,0,1,33.6371014,72.9913126,491.07612731154416,1.819801,0.0,0.0,0.0,1.819801,0.0,0.0,0.0,3.463321,2
1729690901.6581233,706,1729690901,655043904,base_link,0,1,33.6371015,72.9913125,491.07612752731995,1.819801,0.0,0.0,0.0,1.819801,0.0,0.0,0.0,3.463321,2
1729690901.7561834,707,1729690901,754044928,base_link,0,1,33.6371015,72.9913125,491.08612752731995,1.8171040000000003,0.0,0.0,0.0,1.8171040000000003,0.0,0.0,0.0,3.4670440000000005,2
1729690901.8556528,708,1729690901,853045952,base_link,0,1,33.6371016,72.9913125,491.08612814027737,1.8171040000000003,0.0,0.0,0.0,1.8171040000000003,0.0,0.0,0.0,3.4670440000000005,2
1729690901.9576604,709,1729690901,955045184,base_link,0,1,33.6371016,72.9913125,491.0961281402775,1.8117160000000003,0.0,0.0,0.0,1.8117160000000003,0.0,0.0,0.0,3.4707689999999998,2
1729690902.0566294,710,1729690902,54041856,base_link,0,1,33.6371017,72.9913126,491.1061291504166,1.8117160000000003,0.0,0.0,0.0,1.8117160000000003,0.0,0.0,0.0,3.4707689999999998,2
1729690902.155645,711,1729690902,153041600,base_link,0,1,33.6371017,72.9913127,491.12612954759834,1.8117160000000003,0.0,0.0,0.0,1.8117160000000003,0.0,0.0,0.0,3.4744960000000003,2
1729690902.256639,712,1729690902,254040832,base_link,0,1,33.6371019,72.9913127,491.13613077351374,1.8117160000000003,0.0,0.0,0.0,1.8117160000000003,0.0,0.0,0.0,3.4744960000000003,2
1729690902.3563848,713,1729690902,353042112,base_link,0,1,33.6371019,72.9913128,491.1461311706956,1.8090249999999999,0.0,0.0,0.0,1.8090249999999999,0.0,0.0,0.0,3.4744960000000003,2
1729690902.4614413,714,1729690902,455039552,base_link,0,1,33.6371019,72.9913129,491.16613156787747,1.8090249999999999,0.0,0.0,0.0,1.8090249999999999,0.0,0.0,0.0,3.4744960000000003,2
1729690902.5565705,715,1729690902,554039296,base_link,0,1,33.6371019,72.991313,491.1761319650594,1.8090249999999999,0.0,0.0,0.0,1.8090249999999999,0.0,0.0,0.0,3.478225,2
1729690902.6551168,716,1729690902,653039040,base_link,0,1,33.637102,72.991313,491.1861325780174,1.8090249999999999,0.0,0.0,0.0,1.8090249999999999,0.0,0.0,0.0,3.478225,2
1729690902.7558594,717,1729690902,754038272,base_link,0,1,33.6371021,72.9913131,491.1861335881575,1.8090249999999999,0.0,0.0,0.0,1.8090249999999999,0.0,0.0,0.0,3.478225,2
1729690902.8575952,718,1729690902,855037760,base_link,0,1,33.6371021,72.9913132,491.18613398533955,1.8090249999999999,0.0,0.0,0.0,1.8090249999999999,0.0,0.0,0.0,3.478225,2
1729690902.9558325,719,1729690902,954036992,base_link,0,1,33.6371021,72.9913133,491.17613438252164,1.8063360000000002,0.0,0.0,0.0,1.8063360000000002,0.0,0.0,0.0,3.485689,2
1729690903.054658,720,1729690903,53033408,base_link,0,1,33.6371021,72.9913134,491.1661347797037,1.8063360000000002,0.0,0.0,0.0,1.8063360000000002,0.0,0.0,0.0,3.485689,2
1729690903.1559532,721,1729690903,154034176,base_link,0,1,33.6371021,72.9913135,491.1661351768859,1.8036489999999998,0.0,0.0,0.0,1.8036489999999998,0.0,0.0,0.0,3.4894240000000005,2
1729690903.2548258,722,1729690903,253035968,base_link,0,1,33.6371021,72.9913136,491.166135574068,1.8036489999999998,0.0,0.0,0.0,1.8036489999999998,0.0,0.0,0.0,3.4894240000000005,2
1729690903.356092,723,1729690903,354033920,base_link,0,1,33.637102,72.9913137,491.16613535829185,1.798281,0.0,0.0,0.0,1.798281,0.0,0.0,0.0,3.493161,2
1729690903.4563184,724,1729690903,453035456,base_link,0,1,33.637102,72.9913137,491.16613535829185,1.798281,0.0,0.0,0.0,1.798281,0.0,0.0,0.0,3.493161,2
1729690903.5575538,725,1729690903,555032640,base_link,0,1,33.6371019,72.9913138,491.16613514251566,1.7956000000000003,0.0,0.0,0.0,1.7956000000000003,0.0,0.0,0.0,3.500641,2
1729690903.6560228,726,1729690903,654031360,base_link,0,1,33.6371018,72.9913138,491.16613452955744,1.7956000000000003,0.0,0.0,0.0,1.7956000000000003,0.0,0.0,0.0,3.500641,2
1729690903.7573116,727,1729690903,755028032,base_link,0,1,33.6371017,72.9913138,491.1761339165993,1.7902440000000002,0.0,0.0,0.0,1.7902440000000002,0.0,0.0,0.0,3.5043840000000004,2
1729690903.8579528,728,1729690903,855025216,base_link,0,1,33.6371017,72.9913138,491.1961339165993,1.7902440000000002,0.0,0.0,0.0,1.7902440000000002,0.0,0.0,0.0,3.5043840000000004,2
1729690903.9565914,729,1729690903,954024960,base_link,0,1,33.6371016,72.9913138,491.20613330364125,1.7848960000000003,0.0,0.0,0.0,1.7848960000000003,0.0,0.0,0.0,3.5118760000000004,2
1729690904.0550888,730,1729690904,53023168,base_link,0,1,33.6371015,72.9913138,491.22613269068336,1.7848960000000003,0.0,0.0,0.0,1.7848960000000003,0.0,0.0,0.0,3.5118760000000004,2
1729690904.157157,731,1729690904,154022912,base_link,0,1,33.6371013,72.9913139,491.24613186194955,1.7795560000000001,0.0,0.0,0.0,1.7795560000000001,0.0,0.0,0.0,3.515625,2
1729690904.2564483,732,1729690904,253024192,base_link,0,1,33.6371012,72.991314,491.2561316461737,1.7795560000000001,0.0,0.0,0.0,1.7795560000000001,0.0,0.0,0.0,3.515625,2
1729690904.3571532,733,1729690904,355021376,base_link,0,1,33.6371012,72.9913141,491.2661320433555,1.7795560000000001,0.0,0.0,0.0,1.7795560000000001,0.0,0.0,0.0,3.523129,2
1729690904.456239,734,1729690904,454022912,base_link,0,1,33.6371011,72.9913141,491.2761314303978,1.7795560000000001,0.0,0.0,0.0,1.7795560000000001,0.0,0.0,0.0,3.523129,2
1729690904.5568547,735,1729690904,555021888,base_link,0,1,33.637101,72.9913141,491.27613081744016,1.7795560000000001,0.0,0.0,0.0,1.7795560000000001,0.0,0.0,0.0,3.530641,2
1729690904.6558292,736,1729690904,654020096,base_link,0,1,33.637101,72.9913141,491.28613081744015,1.7795560000000001,0.0,0.0,0.0,1.7795560000000001,0.0,0.0,0.0,3.530641,2
1729690904.7572496,737,1729690904,755020352,base_link,0,1,33.637101,72.991314,491.2861304202584,1.776889,0.0,0.0,0.0,1.776889,0.0,0.0,0.0,3.5343999999999998,2
1729690904.8570614,738,1729690904,855017792,base_link,0,1,33.6371009,72.991314,491.2961298073009,1.776889,0.0,0.0,0.0,1.776889,0.0,0.0,0.0,3.5343999999999998,2
1729690904.955536,739,1729690904,953017280,base_link,0,1,33.6371009,72.991314,491.2961298073009,1.776889,0.0,0.0,0.0,1.776889,0.0,0.0,0.0,3.5419239999999994,2
1729690905.0574093,740,1729690905,55015744,base_link,0,1,33.6371009,72.9913139,491.2861294101191,1.776889,0.0,0.0,0.0,1.776889,0.0,0.0,0.0,3.5419239999999994,2
1729690905.157121,741,1729690905,154016256,base_link,0,1,33.6371009,72.9913138,491.2761290129374,1.776889,0.0,0.0,0.0,1.776889,0.0,0.0,0.0,3.5494559999999997,2
1729690905.2559135,742,1729690905,253017792,base_link,0,1,33.6371009,72.9913137,491.2561286157558,1.776889,0.0,0.0,0.0,1.776889,0.0,0.0,0.0,3.5494559999999997,2
1729690905.3593142,743,1729690905,354017536,base_link,0,1,33.6371009,72.9913135,491.23612782139253,1.776889,0.0,0.0,0.0,1.776889,0.0,0.0,0.0,3.556996,2
1729690905.4550803,744,1729690905,453017280,base_link,0,1,33.6371009,72.9913134,491.2161274242109,1.776889,0.0,0.0,0.0,1.776889,0.0,0.0,0.0,3.556996,2
1729690905.5563655,745,1729690905,554014464,base_link,0,1,33.6371009,72.9913133,491.19612702702926,1.776889,0.0,0.0,0.0,1.776889,0.0,0.0,0.0,3.560769,2
1729690905.6554427,746,1729690905,653014208,base_link,0,1,33.6371009,72.9913132,491.1861266298477,1.776889,0.0,0.0,0.0,1.776889,0.0,0.0,0.0,3.560769,2
1729690905.7588544,747,1729690905,755015232,base_link,0,1,33.6371009,72.9913132,491.1761266298477,1.7795560000000001,0.0,0.0,0.0,1.7795560000000001,0.0,0.0,0.0,3.568321,2
1729690905.8564744,748,1729690905,854013952,base_link,0,1,33.6371009,72.9913131,491.16612623266616,1.7795560000000001,0.0,0.0,0.0,1.7795560000000001,0.0,0.0,0.0,3.568321,2
1729690905.9565172,749,1729690905,954014464,base_link,0,1,33.6371009,72.9913131,491.15612623266617,1.7795560000000001,0.0,0.0,0.0,1.7795560000000001,0.0,0.0,0.0,3.5721,2
1729690906.0558007,750,1729690906,53010624,base_link,0,1,33.6371009,72.991313,491.1461258354847,1.7795560000000001,0.0,0.0,0.0,1.7795560000000001,0.0,0.0,0.0,3.5721,2
1729690906.1578178,751,1729690906,155011136,base_link,0,1,33.6371009,72.991313,491.13612583548473,1.7795560000000001,0.0,0.0,0.0,1.7795560000000001,0.0,0.0,0.0,3.575881,2
1729690906.2565436,752,1729690906,254018048,base_link,0,1,33.6371009,72.991313,491.13612583548473,1.7795560000000001,0.0,0.0,0.0,1.7795560000000001,0.0,0.0,0.0,3.575881,2
1729690906.355375,753,1729690906,353019328,base_link,0,1,33.637101,72.9913129,491.12612605126026,1.776889,0.0,0.0,0.0,1.776889,0.0,0.0,0.0,3.575881,2
1729690906.4564734,754,1729690906,454016256,base_link,0,1,33.6371011,72.9913129,491.1261266642174,1.776889,0.0,0.0,0.0,1.776889,0.0,0.0,0.0,3.575881,2
1729690906.5552769,755,1729690906,553016512,base_link,0,1,33.6371011,72.9913129,491.1161266642174,1.7742240000000002,0.0,0.0,0.0,1.7742240000000002,0.0,0.0,0.0,3.575881,2
1729690906.6551507,756,1729690906,653010624,base_link,0,1,33.6371012,72.9913129,491.1061272771746,1.7742240000000002,0.0,0.0,0.0,1.7742240000000002,0.0,0.0,0.0,3.575881,2
1729690906.7556696,757,1729690906,753006784,base_link,0,1,33.6371014,72.991313,491.096128900271,1.7689000000000001,0.0,0.0,0.0,1.7689000000000001,0.0,0.0,0.0,3.5645439999999997,2
1729690906.8596087,758,1729690906,857004224,base_link,0,1,33.6371015,72.9913131,491.0861299104102,1.7689000000000001,0.0,0.0,0.0,1.7689000000000001,0.0,0.0,0.0,3.5645439999999997,2
1729690906.955716,759,1729690906,953995520,base_link,0,1,33.6371016,72.9913132,491.0861309205497,1.7635840000000003,0.0,0.0,0.0,1.7635840000000003,0.0,0.0,0.0,3.553225,2
1729690907.0546737,760,1729690907,52995520,base_link,0,1,33.6371017,72.9913133,491.0861319306894,1.7635840000000003,0.0,0.0,0.0,1.7635840000000003,0.0,0.0,0.0,3.553225,2
1729690907.1570354,761,1729690907,153987584,base_link,0,1,33.6371018,72.9913134,491.08613294082926,1.7582760000000002,0.0,0.0,0.0,1.7582760000000002,0.0,0.0,0.0,3.5419239999999994,2
1729690907.2593217,762,1729690907,256981952,base_link,0,1,33.6371018,72.9913135,491.08613333801134,1.7582760000000002,0.0,0.0,0.0,1.7582760000000002,0.0,0.0,0.0,3.5419239999999994,2
1729690907.3556592,763,1729690907,352976576,base_link,0,1,33.6371019,72.9913136,491.0861343481514,1.755625,0.0,0.0,0.0,1.755625,0.0,0.0,0.0,3.5268839999999995,2
1729690907.4576614,764,1729690907,454973760,base_link,0,1,33.6371019,72.9913136,491.0861343481514,1.755625,0.0,0.0,0.0,1.755625,0.0,0.0,0.0,3.5268839999999995,2
1729690907.5554109,765,1729690907,552975552,base_link,0,1,33.6371019,72.9913137,491.08613474533354,1.7503289999999998,0.0,0.0,0.0,1.7503289999999998,0.0,0.0,0.0,3.515625,2
1729690907.663628,766,1729690907,660972736,base_link,0,1,33.6371019,72.9913138,491.0761351425156,1.7503289999999998,0.0,0.0,0.0,1.7503289999999998,0.0,0.0,0.0,3.515625,2
1729690907.7552443,767,1729690907,753974272,base_link,0,1,33.637102,72.9913139,491.0661361526561,1.7476840000000002,0.0,0.0,0.0,1.7476840000000002,0.0,0.0,0.0,3.5043840000000004,2
1729690907.8543463,768,1729690907,852972224,base_link,0,1,33.637102,72.9913139,491.0661361526561,1.7476840000000002,0.0,0.0,0.0,1.7476840000000002,0.0,0.0,0.0,3.5043840000000004,2
1729690907.9574916,769,1729690907,954972480,base_link,0,1,33.637102,72.9913139,491.0561361526561,1.7450409999999998,0.0,0.0,0.0,1.7450409999999998,0.0,0.0,0.0,3.493161,2
1729690908.056599,770,1729690908,53966080,base_link,0,1,33.6371021,72.9913139,491.0561367656146,1.7450409999999998,0.0,0.0,0.0,1.7450409999999998,0.0,0.0,0.0,3.493161,2
1729690908.1557252,771,1729690908,152962752,base_link,0,1,33.6371021,72.9913139,491.0461367656146,1.7424000000000002,0.0,0.0,0.0,1.7424000000000002,0.0,0.0,0.0,3.4819560000000003,2
1729690908.2564368,772,1729690908,253960960,base_link,0,1,33.6371021,72.9913139,491.0561367656146,1.7424000000000002,0.0,0.0,0.0,1.7424000000000002,0.0,0.0,0.0,3.4819560000000003,2
1729690908.3579009,773,1729690908,354961984,base_link,0,1,33.6371021,72.9913138,491.05613636843236,1.739761,0.0,0.0,0.0,1.739761,0.0,0.0,0.0,3.4744960000000003,2
1729690908.456788,774,1729690908,454963264,base_link,0,1,33.6371021,72.9913138,491.05613636843236,1.739761,0.0,0.0,0.0,1.739761,0.0,0.0,0.0,3.4744960000000003,2
1729690908.5558243,775,1729690908,553963008,base_link,0,1,33.6371021,72.9913138,491.05613636843236,1.739761,0.0,0.0,0.0,1.739761,0.0,0.0,0.0,3.478225,2
1729690908.6578202,776,1729690908,654959680,base_link,0,1,33.6371021,72.9913138,491.06613636843235,1.739761,0.0,0.0,0.0,1.739761,0.0,0.0,0.0,3.478225,2
1729690908.7584069,777,1729690908,753960448,base_link,0,1,33.6371021,72.9913138,491.06613636843235,1.7424000000000002,0.0,0.0,0.0,1.7424000000000002,0.0,0.0,0.0,3.4819560000000003,2
1729690908.855775,778,1729690908,852956352,base_link,0,1,33.6371021,72.9913138,491.06613636843235,1.7424000000000002,0.0,0.0,0.0,1.7424000000000002,0.0,0.0,0.0,3.4819560000000003,2
1729690908.9568207,779,1729690908,953954560,base_link,0,1,33.637102,72.9913138,491.06613575547397,1.7424000000000002,0.0,0.0,0.0,1.7424000000000002,0.0,0.0,0.0,3.478225,2
1729690909.0556607,780,1729690909,53950720,base_link,0,1,33.6371019,72.9913138,491.06613514251563,1.7424000000000002,0.0,0.0,0.0,1.7424000000000002,0.0,0.0,0.0,3.478225,2
1729690909.1549745,781,1729690909,152946112,base_link,0,1,33.6371019,72.9913137,491.06613474533356,1.7450409999999998,0.0,0.0,0.0,1.7450409999999998,0.0,0.0,0.0,3.4707689999999998,2
1729690909.2567463,782,1729690909,254946112,base_link,0,1,33.6371018,72.9913137,491.0661341323754,1.7450409999999998,0.0,0.0,0.0,1.7450409999999998,0.0,0.0,0.0,3.4707689999999998,2
1729690909.3560123,783,1729690909,353945856,base_link,0,1,33.6371018,72.9913137,491.0761341323754,1.7450409999999998,0.0,0.0,0.0,1.7450409999999998,0.0,0.0,0.0,3.4744960000000003,2
1729690909.458031,784,1729690909,454944064,base_link,0,1,33.6371017,72.9913137,491.0861335194173,1.7450409999999998,0.0,0.0,0.0,1.7450409999999998,0.0,0.0,0.0,3.4744960000000003,2
1729690909.555492,785,1729690909,552945344,base_link,0,1,33.6371016,72.9913137,491.0961329064594,1.7424000000000002,0.0,0.0,0.0,1.7424000000000002,0.0,0.0,0.0,3.4819560000000003,2
1729690909.658115,786,1729690909,654943296,base_link,0,1,33.6371015,72.9913137,491.10613229350145,1.7424000000000002,0.0,0.0,0.0,1.7424000000000002,0.0,0.0,0.0,3.4819560000000003,2
1729690909.7572346,787,1729690909,753943296,base_link,0,1,33.6371014,72.9913137,491.1261316805436,1.739761,0.0,0.0,0.0,1.739761,0.0,0.0,0.0,3.4894240000000005,2
1729690909.858149,788,1729690909,855941248,base_link,0,1,33.6371013,72.9913137,491.13613106758584,1.739761,0.0,0.0,0.0,1.739761,0.0,0.0,0.0,3.4894240000000005,2
1729690909.956828,789,1729690909,953938432,base_link,0,1,33.6371013,72.9913137,491.1461310675858,1.7371240000000001,0.0,0.0,0.0,1.7371240000000001,0.0,0.0,0.0,3.4894240000000005,2
1729690910.056104,790,1729690910,52934336,base_link,0,1,33.6371012,72.9913137,491.16613045462816,1.7371240000000001,0.0,0.0,0.0,1.7371240000000001,0.0,0.0,0.0,3.4894240000000005,2
1729690910.1571612,791,1729690910,154932288,base_link,0,1,33.6371012,72.9913137,491.18613045462814,1.7371240000000001,0.0,0.0,0.0,1.7371240000000001,0.0,0.0,0.0,3.485689,2
1729690910.256042,792,1729690910,253932288,base_link,0,1,33.6371012,72.9913137,491.18613045462814,1.7371240000000001,0.0,0.0,0.0,1.7371240000000001,0.0,0.0,0.0,3.485689,2
1729690910.3571723,793,1729690910,353930240,base_link,0,1,33.6371011,72.9913137,491.19612984167065,1.7371240000000001,0.0,0.0,0.0,1.7371240000000001,0.0,0.0,0.0,3.485689,2
1729690910.4562132,794,1729690910,453930752,base_link,0,1,33.6371011,72.9913137,491.19612984167065,1.7371240000000001,0.0,0.0,0.0,1.7371240000000001,0.0,0.0,0.0,3.485689,2
1729690910.5568342,795,1729690910,554930752,base_link,0,1,33.6371011,72.9913137,491.19612984167065,1.7371240000000001,0.0,0.0,0.0,1.7371240000000001,0.0,0.0,0.0,3.485689,2
1729690910.6559045,796,1729690910,653929472,base_link,0,1,33.6371012,72.9913137,491.19613045462813,1.7371240000000001,0.0,0.0,0.0,1.7371240000000001,0.0,0.0,0.0,3.485689,2
1729690910.7555242,797,1729690910,752925376,base_link,0,1,33.6371012,72.9913137,491.19613045462813,1.7371240000000001,0.0,0.0,0.0,1.7371240000000001,0.0,0.0,0.0,3.485689,2
1729690910.856546,798,1729690910,853923840,base_link,0,1,33.6371013,72.9913138,491.19613146476763,1.7371240000000001,0.0,0.0,0.0,1.7371240000000001,0.0,0.0,0.0,3.485689,2
1729690910.9547222,799,1729690910,952924608,base_link,0,1,33.6371013,72.9913138,491.18613146476764,1.7371240000000001,0.0,0.0,0.0,1.7371240000000001,0.0,0.0,0.0,3.485689,2
1729690911.0572193,800,1729690911,54922816,base_link,0,1,33.6371014,72.9913139,491.1761324749073,1.7371240000000001,0.0,0.0,0.0,1.7371240000000001,0.0,0.0,0.0,3.485689,2
1729690911.155051,801,1729690911,152923840,base_link,0,1,33.6371014,72.9913139,491.16613247490733,1.7371240000000001,0.0,0.0,0.0,1.7371240000000001,0.0,0.0,0.0,3.4819560000000003,2
1729690911.2566204,802,1729690911,254924352,base_link,0,1,33.6371014,72.991314,491.1561328720893,1.7371240000000001,0.0,0.0,0.0,1.7371240000000001,0.0,0.0,0.0,3.4819560000000003,2
1729690911.3550892,803,1729690911,352926144,base_link,0,1,33.6371014,72.991314,491.1561328720893,1.7371240000000001,0.0,0.0,0.0,1.7371240000000001,0.0,0.0,0.0,3.4819560000000003,2
1729690911.4554198,804,1729690911,452926400,base_link,0,1,33.6371013,72.991314,491.1661322591315,1.7371240000000001,0.0,0.0,0.0,1.7371240000000001,0.0,0.0,0.0,3.4819560000000003,2
1729690911.5563045,805,1729690911,553926400,base_link,0,1,33.6371013,72.9913141,491.1661326563133,1.739761,0.0,0.0,0.0,1.739761,0.0,0.0,0.0,3.4819560000000003,2
1729690911.6556048,806,1729690911,652926656,base_link,0,1,33.6371012,72.9913141,491.1661320433555,1.739761,0.0,0.0,0.0,1.739761,0.0,0.0,0.0,3.4819560000000003,2
1729690911.7571247,807,1729690911,754925632,base_link,0,1,33.6371012,72.9913141,491.1561320433555,1.739761,0.0,0.0,0.0,1.739761,0.0,0.0,0.0,3.478225,2
1729690911.8560326,808,1729690911,853918720,base_link,0,1,33.6371012,72.9913141,491.1561320433555,1.739761,0.0,0.0,0.0,1.739761,0.0,0.0,0.0,3.478225,2
1729690911.9553156,809,1729690911,952917952,base_link,0,1,33.6371012,72.9913141,491.1461320433555,1.739761,0.0,0.0,0.0,1.739761,0.0,0.0,0.0,3.478225,2
1729690912.0563784,810,1729690912,53915904,base_link,0,1,33.6371012,72.991314,491.14613164617367,1.739761,0.0,0.0,0.0,1.739761,0.0,0.0,0.0,3.478225,2
1729690912.1572917,811,1729690912,154913600,base_link,0,1,33.6371011,72.991314,491.1461310332161,1.7371240000000001,0.0,0.0,0.0,1.7371240000000001,0.0,0.0,0.0,3.4744960000000003,2
1729690912.2560918,812,1729690912,253911296,base_link,0,1,33.6371011,72.991314,491.1461310332161,1.7371240000000001,0.0,0.0,0.0,1.7371240000000001,0.0,0.0,0.0,3.4744960000000003,2
1729690912.355167,813,1729690912,352906688,base_link,0,1,33.6371011,72.991314,491.1461310332161,1.734489,0.0,0.0,0.0,1.734489,0.0,0.0,0.0,3.4707689999999998,2
1729690912.45613,814,1729690912,452905408,base_link,0,1,33.6371011,72.991314,491.1461310332161,1.734489,0.0,0.0,0.0,1.734489,0.0,0.0,0.0,3.4707689999999998,2
1729690912.5565646,815,1729690912,553902336,base_link,0,1,33.6371011,72.991314,491.1361310332161,1.734489,0.0,0.0,0.0,1.734489,0.0,0.0,0.0,3.4707689999999998,2
1729690912.6568868,816,1729690912,653913344,base_link,0,1,33.6371011,72.9913139,491.1361306360342,1.734489,0.0,0.0,0.0,1.734489,0.0,0.0,0.0,3.4707689999999998,2
1729690912.7556262,817,1729690912,752925888,base_link,0,1,33.6371011,72.9913139,491.1361306360342,1.731856,0.0,0.0,0.0,1.731856,0.0,0.0,0.0,3.4707689999999998,2
1729690912.8574505,818,1729690912,854918208,base_link,0,1,33.6371011,72.9913139,491.1461306360342,1.731856,0.0,0.0,0.0,1.731856,0.0,0.0,0.0,3.4707689999999998,2
1729690912.9565148,819,1729690912,953909760,base_link,0,1,33.6371011,72.991314,491.15613103321607,1.731856,0.0,0.0,0.0,1.731856,0.0,0.0,0.0,3.4707689999999998,2
1729690913.0554695,820,1729690913,52903360,base_link,0,1,33.6371012,72.991314,491.16613164617365,1.731856,0.0,0.0,0.0,1.731856,0.0,0.0,0.0,3.4707689999999998,2
1729690913.1623993,821,1729690913,159896704,base_link,0,1,33.6371012,72.991314,491.17613164617364,1.731856,0.0,0.0,0.0,1.731856,0.0,0.0,0.0,3.4670440000000005,2
1729690913.2605212,822,1729690913,258894656,base_link,0,1,33.6371013,72.9913141,491.1861326563133,1.731856,0.0,0.0,0.0,1.731856,0.0,0.0,0.0,3.4670440000000005,2
1729690913.3596127,823,1729690913,356894400,base_link,0,1,33.6371013,72.9913142,491.18613305349527,1.731856,0.0,0.0,0.0,1.731856,0.0,0.0,0.0,3.4670440000000005,2
1729690913.4585145,824,1729690913,455894144,base_link,0,1,33.6371014,72.9913142,491.19613366645325,1.731856,0.0,0.0,0.0,1.731856,0.0,0.0,0.0,3.4670440000000005,2
1729690913.557484,825,1729690913,554892352,base_link,0,1,33.6371015,72.9913143,491.1961346765933,1.731856,0.0,0.0,0.0,1.731856,0.0,0.0,0.0,3.463321,2
1729690913.655327,826,1729690913,652893376,base_link,0,1,33.6371015,72.9913143,491.1961346765933,1.731856,0.0,0.0,0.0,1.731856,0.0,0.0,0.0,3.463321,2
1729690913.7594132,827,1729690913,756892608,base_link,0,1,33.6371016,72.9913144,491.2061356867336,1.731856,0.0,0.0,0.0,1.731856,0.0,0.0,0.0,3.4596000000000005,2
1729690913.8563802,828,1729690913,853891840,base_link,0,1,33.6371017,72.9913144,491.2061362996919,1.731856,0.0,0.0,0.0,1.731856,0.0,0.0,0.0,3.4596000000000005,2
1729690913.9547632,829,1729690913,952895424,base_link,0,1,33.6371017,72.9913145,491.19613669687413,1.731856,0.0,0.0,0.0,1.731856,0.0,0.0,0.0,3.4670440000000005,2
1729690914.0566497,830,1729690914,53889280,base_link,0,1,33.6371017,72.9913145,491.18613669687414,1.731856,0.0,0.0,0.0,1.731856,0.0,0.0,0.0,3.4670440000000005,2
1729690914.1558044,831,1729690914,152890304,base_link,0,1,33.6371018,72.9913145,491.1861373098326,1.7292249999999998,0.0,0.0,0.0,1.7292249999999998,0.0,0.0,0.0,3.4744960000000003,2
1729690914.25792,832,1729690914,254888256,base_link,0,1,33.6371018,72.9913146,491.1861377070148,1.7292249999999998,0.0,0.0,0.0,1.7292249999999998,0.0,0.0,0.0,3.4744960000000003,2
1729690914.3569207,833,1729690914,353886464,base_link,0,1,33.6371018,72.9913146,491.19613770701477,1.7292249999999998,0.0,0.0,0.0,1.7292249999999998,0.0,0.0,0.0,3.4819560000000003,2
1729690914.4557872,834,1729690914,452886976,base_link,0,1,33.6371017,72.9913147,491.1961374912386,1.7292249999999998,0.0,0.0,0.0,1.7292249999999998,0.0,0.0,0.0,3.4819560000000003,2
1729690914.5579202,835,1729690914,554885696,base_link,0,1,33.6371017,72.9913148,491.2061378884208,1.7292249999999998,0.0,0.0,0.0,1.7292249999999998,0.0,0.0,0.0,3.4819560000000003,2
1729690914.6558282,836,1729690914,653888256,base_link,0,1,33.6371017,72.9913148,491.2161378884209,1.7292249999999998,0.0,0.0,0.0,1.7292249999999998,0.0,0.0,0.0,3.4819560000000003,2
1729690914.7558284,837,1729690914,752889024,base_link,0,1,33.6371017,72.9913149,491.21613828560317,1.7265960000000002,0.0,0.0,0.0,1.7265960000000002,0.0,0.0,0.0,3.478225,2
1729690914.8561814,838,1729690914,852889280,base_link,0,1,33.6371017,72.991315,491.2161386827855,1.7265960000000002,0.0,0.0,0.0,1.7265960000000002,0.0,0.0,0.0,3.478225,2
1729690914.9573643,839,1729690914,954886464,base_link,0,1,33.6371017,72.991315,491.2161386827855,1.7265960000000002,0.0,0.0,0.0,1.7265960000000002,0.0,0.0,0.0,3.4744960000000003,2
1729690915.0586278,840,1729690915,53885184,base_link,0,1,33.6371017,72.9913151,491.20613907996767,1.7265960000000002,0.0,0.0,0.0,1.7265960000000002,0.0,0.0,0.0,3.4744960000000003,2
1729690915.1558084,841,1729690915,152885440,base_link,0,1,33.6371017,72.9913151,491.1961390799677,1.7265960000000002,0.0,0.0,0.0,1.7265960000000002,0.0,0.0,0.0,3.4744960000000003,2
1729690915.2546825,842,1729690915,252882624,base_link,0,1,33.6371016,72.9913151,491.19613846700906,1.7265960000000002,0.0,0.0,0.0,1.7265960000000002,0.0,0.0,0.0,3.4744960000000003,2
1729690915.3564348,843,1729690915,353883392,base_link,0,1,33.6371015,72.9913152,491.19613825123287,1.7292249999999998,0.0,0.0,0.0,1.7292249999999998,0.0,0.0,0.0,3.4819560000000003,2
1729690915.4565742,844,1729690915,452879040,base_link,0,1,33.6371015,72.9913151,491.18613785405057,1.7292249999999998,0.0,0.0,0.0,1.7292249999999998,0.0,0.0,0.0,3.4819560000000003,2
1729690915.557586,845,1729690915,554876992,base_link,0,1,33.6371015,72.9913151,491.18613785405057,1.731856,0.0,0.0,0.0,1.731856,0.0,0.0,0.0,3.493161,2
1729690915.656295,846,1729690915,653876480,base_link,0,1,33.6371015,72.9913151,491.1761378540506,1.731856,0.0,0.0,0.0,1.731856,0.0,0.0,0.0,3.493161,2
1729690915.7580135,847,1729690915,754873664,base_link,0,1,33.6371016,72.9913151,491.1761384670091,1.734489,0.0,0.0,0.0,1.734489,0.0,0.0,0.0,3.500641,2
1729690915.855759,848,1729690915,853871872,base_link,0,1,33.6371016,72.991315,491.1761380698269,1.734489,0.0,0.0,0.0,1.734489,0.0,0.0,0.0,3.500641,2
1729690915.9546611,849,1729690915,952870080,base_link,0,1,33.6371017,72.9913149,491.1761382856031,1.7371240000000001,0.0,0.0,0.0,1.7371240000000001,0.0,0.0,0.0,3.5043840000000004,2
1729690916.0568905,850,1729690916,54865984,base_link,0,1,33.6371017,72.9913149,491.1661382856031,1.7371240000000001,0.0,0.0,0.0,1.7371240000000001,0.0,0.0,0.0,3.5043840000000004,2
1729690916.1558633,851,1729690916,152867520,base_link,0,1,33.6371017,72.9913148,491.16613788842085,1.7371240000000001,0.0,0.0,0.0,1.7371240000000001,0.0,0.0,0.0,3.5118760000000004,2
1729690916.257892,852,1729690916,254867776,base_link,0,1,33.6371018,72.9913147,491.1561381041971,1.7371240000000001,0.0,0.0,0.0,1.7371240000000001,0.0,0.0,0.0,3.5118760000000004,2
1729690916.3568902,853,1729690916,353869312,base_link,0,1,33.6371019,72.9913146,491.15613831997337,1.7371240000000001,0.0,0.0,0.0,1.7371240000000001,0.0,0.0,0.0,3.515625,2
1729690916.4605472,854,1729690916,454874176,base_link,0,1,33.6371019,72.9913145,491.1561379227911,1.7371240000000001,0.0,0.0,0.0,1.7371240000000001,0.0,0.0,0.0,3.515625,2
1729690916.5556433,855,1729690916,553872896,base_link,0,1,33.6371019,72.9913144,491.16613752560875,1.739761,0.0,0.0,0.0,1.739761,0.0,0.0,0.0,3.523129,2
1729690916.6546648,856,1729690916,652873920,base_link,0,1,33.6371019,72.9913143,491.16613712842656,1.739761,0.0,0.0,0.0,1.739761,0.0,0.0,0.0,3.523129,2
1729690916.7567801,857,1729690916,754874176,base_link,0,1,33.6371019,72.9913142,491.17613673124436,1.7450409999999998,0.0,0.0,0.0,1.7450409999999998,0.0,0.0,0.0,3.5268839999999995,2
1729690916.8556507,858,1729690916,853874688,base_link,0,1,33.6371019,72.9913142,491.17613673124436,1.7450409999999998,0.0,0.0,0.0,1.7450409999999998,0.0,0.0,0.0,3.5268839999999995,2
1729690916.9549289,859,1729690916,952871872,base_link,0,1,33.6371019,72.9913141,491.17613633406205,1.7503289999999998,0.0,0.0,0.0,1.7503289999999998,0.0,0.0,0.0,3.5343999999999998,2
1729690917.055874,860,1729690917,53870848,base_link,0,1,33.6371019,72.991314,491.17613593688,1.7503289999999998,0.0,0.0,0.0,1.7503289999999998,0.0,0.0,0.0,3.5343999999999998,2
1729690917.1546426,861,1729690917,152870848,base_link,0,1,33.6371019,72.991314,491.17613593688,1.752976,0.0,0.0,0.0,1.752976,0.0,0.0,0.0,3.538161,2
1729690917.256722,862,1729690917,253869056,base_link,0,1,33.6371019,72.9913139,491.1861355396977,1.752976,0.0,0.0,0.0,1.752976,0.0,0.0,0.0,3.538161,2
1729690917.3561876,863,1729690917,352867520,base_link,0,1,33.6371018,72.9913139,491.1961349267395,1.7582760000000002,0.0,0.0,0.0,1.7582760000000002,0.0,0.0,0.0,3.5419239999999994,2
1729690917.4566512,864,1729690917,453865216,base_link,0,1,33.6371018,72.9913139,491.1961349267395,1.7582760000000002,0.0,0.0,0.0,1.7582760000000002,0.0,0.0,0.0,3.5419239999999994,2
1729690917.554762,865,1729690917,552864448,base_link,0,1,33.6371017,72.9913138,491.2061339165993,1.760929,0.0,0.0,0.0,1.760929,0.0,0.0,0.0,3.5494559999999997,2
1729690917.6568742,866,1729690917,654864448,base_link,0,1,33.6371017,72.9913138,491.2061339165993,1.760929,0.0,0.0,0.0,1.760929,0.0,0.0,0.0,3.5494559999999997,2
1729690917.7559092,867,1729690917,753865216,base_link,0,1,33.6371016,72.9913138,491.20613330364125,1.7635840000000003,0.0,0.0,0.0,1.7635840000000003,0.0,0.0,0.0,3.556996,2
1729690917.8547914,868,1729690917,852868800,base_link,0,1,33.6371016,72.9913138,491.20613330364125,1.7635840000000003,0.0,0.0,0.0,1.7635840000000003,0.0,0.0,0.0,3.556996,2
1729690917.9567678,869,1729690917,954869056,base_link,0,1,33.6371015,72.9913139,491.2061330878652,1.766241,0.0,0.0,0.0,1.766241,0.0,0.0,0.0,3.560769,2
1729690918.0560935,870,1729690918,53861632,base_link,0,1,33.6371015,72.9913139,491.2061330878652,1.766241,0.0,0.0,0.0,1.766241,0.0,0.0,0.0,3.560769,2
1729690918.1568906,871,1729690918,154859328,base_link,0,1,33.6371015,72.9913139,491.2061330878652,1.7689000000000001,0.0,0.0,0.0,1.7689000000000001,0.0,0.0,0.0,3.568321,2
1729690918.2560687,872,1729690918,253859072,base_link,0,1,33.6371015,72.9913139,491.2061330878652,1.7689000000000001,0.0,0.0,0.0,1.7689000000000001,0.0,0.0,0.0,3.568321,2
1729690918.354955,873,1729690918,352860352,base_link,0,1,33.6371014,72.9913139,491.1961324749073,1.7742240000000002,0.0,0.0,0.0,1.7742240000000002,0.0,0.0,0.0,3.575881,2
1729690918.4569812,874,1729690918,454861120,base_link,0,1,33.6371014,72.9913139,491.1961324749073,1.7742240000000002,0.0,0.0,0.0,1.7742240000000002,0.0,0.0,0.0,3.575881,2
1729690918.5560136,875,1729690918,553860352,base_link,0,1,33.6371014,72.9913139,491.1861324749073,1.7742240000000002,0.0,0.0,0.0,1.7742240000000002,0.0,0.0,0.0,3.5796639999999997,2
1729690918.6562047,876,1729690918,653859840,base_link,0,1,33.6371014,72.9913139,491.1761324749073,1.7742240000000002,0.0,0.0,0.0,1.7742240000000002,0.0,0.0,0.0,3.5796639999999997,2
1729690918.7554467,877,1729690918,752862912,base_link,0,1,33.6371014,72.9913138,491.1661320777254,1.776889,0.0,0.0,0.0,1.776889,0.0,0.0,0.0,3.5872359999999994,2
1729690918.859039,878,1729690918,856867264,base_link,0,1,33.6371014,72.9913137,491.1561316805436,1.776889,0.0,0.0,0.0,1.776889,0.0,0.0,0.0,3.5872359999999994,2
1729690918.9563608,879,1729690918,953866240,base_link,0,1,33.6371014,72.9913136,491.1561312833616,1.7795560000000001,0.0,0.0,0.0,1.7795560000000001,0.0,0.0,0.0,3.594816,2
1729690919.0594456,880,1729690919,55863936,base_link,0,1,33.6371014,72.9913135,491.1661308861799,1.7795560000000001,0.0,0.0,0.0,1.7795560000000001,0.0,0.0,0.0,3.594816,2
1729690919.1595633,881,1729690919,156858816,base_link,0,1,33.6371014,72.9913134,491.16613048899796,1.782225,0.0,0.0,0.0,1.782225,0.0,0.0,0.0,3.591025,2
1729690919.2600813,882,1729690919,257856256,base_link,0,1,33.6371014,72.9913133,491.17613009181616,1.782225,0.0,0.0,0.0,1.782225,0.0,0.0,0.0,3.591025,2
1729690919.3592174,883,1729690919,356855488,base_link,0,1,33.6371014,72.9913131,491.17612929745263,1.782225,0.0,0.0,0.0,1.782225,0.0,0.0,0.0,3.591025,2
1729690919.4562805,884,1729690919,453856256,base_link,0,1,33.6371014,72.991313,491.18612890027094,1.782225,0.0,0.0,0.0,1.782225,0.0,0.0,0.0,3.591025,2
1729690919.5635614,885,1729690919,560852928,base_link,0,1,33.6371014,72.9913128,491.17612810590754,1.7848960000000003,0.0,0.0,0.0,1.7848960000000003,0.0,0.0,0.0,3.598609,2
1729690919.6612756,886,1729690919,659852160,base_link,0,1,33.6371014,72.9913127,491.17612770872586,1.7848960000000003,0.0,0.0,0.0,1.7848960000000003,0.0,0.0,0.0,3.598609,2
1729690919.760489,887,1729690919,757848576,base_link,0,1,33.6371014,72.9913126,491.1761273115442,1.7902440000000002,0.0,0.0,0.0,1.7902440000000002,0.0,0.0,0.0,3.606201,2
1729690919.8553016,888,1729690919,853849856,base_link,0,1,33.6371013,72.9913125,491.1661263014054,1.7902440000000002,0.0,0.0,0.0,1.7902440000000002,0.0,0.0,0.0,3.606201,2
1729690919.957775,889,1729690919,954848064,base_link,0,1,33.6371013,72.9913124,491.16612590422386,1.7956000000000003,0.0,0.0,0.0,1.7956000000000003,0.0,0.0,0.0,3.6176039999999996,2
1729690920.0555341,890,1729690920,52850624,base_link,0,1,33.6371012,72.9913123,491.1661248940853,1.7956000000000003,0.0,0.0,0.0,1.7956000000000003,0.0,0.0,0.0,3.6176039999999996,2
1729690920.157267,891,1729690920,154850624,base_link,0,1,33.6371011,72.9913123,491.1561242811284,1.798281,0.0,0.0,0.0,1.798281,0.0,0.0,0.0,3.6252159999999995,2
1729690920.2572687,892,1729690920,254847808,base_link,0,1,33.6371011,72.9913123,491.1561242811284,1.798281,0.0,0.0,0.0,1.798281,0.0,0.0,0.0,3.6252159999999995,2
1729690920.355158,893,1729690920,352847296,base_link,0,1,33.6371009,72.9913123,491.14612305521473,1.8036489999999998,0.0,0.0,0.0,1.8036489999999998,0.0,0.0,0.0,3.6328359999999997,2
1729690920.4628985,894,1729690920,455843968,base_link,0,1,33.6371009,72.9913123,491.14612305521473,1.8036489999999998,0.0,0.0,0.0,1.8036489999999998,0.0,0.0,0.0,3.6328359999999997,2
1729690920.5563135,895,1729690920,553842176,base_link,0,1,33.6371009,72.9913124,491.14612345239607,1.8063360000000002,0.0,0.0,0.0,1.8063360000000002,0.0,0.0,0.0,3.6366490000000002,2
1729690920.65538,896,1729690920,653841152,base_link,0,1,33.6371009,72.9913125,491.1461238495775,1.8063360000000002,0.0,0.0,0.0,1.8063360000000002,0.0,0.0,0.0,3.6366490000000002,2
1729690920.7562356,897,1729690920,752840384,base_link,0,1,33.6371008,72.9913125,491.1461232366207,1.8117160000000003,0.0,0.0,0.0,1.8117160000000003,0.0,0.0,0.0,3.6328359999999997,2
1729690920.8558316,898,1729690920,853840128,base_link,0,1,33.6371009,72.9913126,491.13612424675887,1.8117160000000003,0.0,0.0,0.0,1.8117160000000003,0.0,0.0,0.0,3.6328359999999997,2
1729690920.955516,899,1729690920,952838592,base_link,0,1,33.6371009,72.9913127,491.1261246439403,1.814409,0.0,0.0,0.0,1.814409,0.0,0.0,0.0,3.629025,2
1729690921.0566232,900,1729690921,54836544,base_link,0,1,33.6371009,72.9913128,491.1161250411218,1.814409,0.0,0.0,0.0,1.814409,0.0,0.0,0.0,3.629025,2
1729690921.1564877,901,1729690921,153836032,base_link,0,1,33.6371009,72.9913128,491.0961250411218,1.8171040000000003,0.0,0.0,0.0,1.8171040000000003,0.0,0.0,0.0,3.6252159999999995,2
1729690921.2547107,902,1729690921,252836032,base_link,0,1,33.637101,72.9913129,491.0761260512602,1.8171040000000003,0.0,0.0,0.0,1.8171040000000003,0.0,0.0,0.0,3.6252159999999995,2
1729690921.3573008,903,1729690921,354837056,base_link,0,1,33.637101,72.991313,491.0561264484418,1.8171040000000003,0.0,0.0,0.0,1.8171040000000003,0.0,0.0,0.0,3.621409,2
1729690921.4569693,904,1729690921,452835264,base_link,0,1,33.637101,72.991313,491.0561264484418,1.8171040000000003,0.0,0.0,0.0,1.8171040000000003,0.0,0.0,0.0,3.621409,2
1729690921.5595322,905,1729690921,552833472,base_link,0,1,33.637101,72.991313,491.0461264484418,1.819801,0.0,0.0,0.0,1.819801,0.0,0.0,0.0,3.6252159999999995,2
1729690921.6612313,906,1729690921,654831424,base_link,0,1,33.6371011,72.991313,491.046127061399,1.819801,0.0,0.0,0.0,1.819801,0.0,0.0,0.0,3.6252159999999995,2
1729690921.7557912,907,1729690921,753830400,base_link,0,1,33.6371012,72.991313,491.0361276743562,1.819801,0.0,0.0,0.0,1.819801,0.0,0.0,0.0,3.6328359999999997,2
1729690921.8546476,908,1729690921,852829632,base_link,0,1,33.6371013,72.9913129,491.0261278901318,1.819801,0.0,0.0,0.0,1.819801,0.0,0.0,0.0,3.6328359999999997,2
1729690921.9567802,909,1729690921,953830400,base_link,0,1,33.6371013,72.9913129,491.0161278901318,1.819801,0.0,0.0,0.0,1.819801,0.0,0.0,0.0,3.6404639999999997,2
1729690922.0554545,910,1729690922,52827072,base_link,0,1,33.6371014,72.9913129,491.01612850308925,1.819801,0.0,0.0,0.0,1.819801,0.0,0.0,0.0,3.6404639999999997,2
1729690922.1567535,911,1729690922,154824000,base_link,0,1,33.6371014,72.9913129,491.01612850308925,1.8225000000000002,0.0,0.0,0.0,1.8225000000000002,0.0,0.0,0.0,3.651921,2
1729690922.2567358,912,1729690922,253825024,base_link,0,1,33.6371014,72.9913128,491.0061281059076,1.8225000000000002,0.0,0.0,0.0,1.8225000000000002,0.0,0.0,0.0,3.651921,2
1729690922.3554335,913,1729690922,352823744,base_link,0,1,33.6371014,72.9913128,491.0061281059076,1.8225000000000002,0.0,0.0,0.0,1.8225000000000002,0.0,0.0,0.0,3.6595690000000003,2
1729690922.4564865,914,1729690922,453823488,base_link,0,1,33.6371015,72.9913128,490.996128718865,1.8225000000000002,0.0,0.0,0.0,1.8225000000000002,0.0,0.0,0.0,3.6595690000000003,2
1729690922.555499,915,1729690922,552825280,base_link,0,1,33.6371015,72.9913127,490.99612832168333,1.8252009999999999,0.0,0.0,0.0,1.8252009999999999,0.0,0.0,0.0,3.6710559999999997,2
1729690922.65652,916,1729690922,654823744,base_link,0,1,33.6371015,72.9913127,490.98612832168334,1.8252009999999999,0.0,0.0,0.0,1.8252009999999999,0.0,0.0,0.0,3.6710559999999997,2
1729690922.7559454,917,1729690922,752825024,base_link,0,1,33.6371015,72.9913126,490.9861279245016,1.8279040000000002,0.0,0.0,0.0,1.8279040000000002,0.0,0.0,0.0,3.682561,2
1729690922.8570077,918,1729690922,854825280,base_link,0,1,33.6371015,72.9913126,490.9861279245016,1.8279040000000002,0.0,0.0,0.0,1.8279040000000002,0.0,0.0,0.0,3.682561,2
1729690922.9553964,919,1729690922,952824256,base_link,0,1,33.6371014,72.9913126,490.98612731154424,1.830609,0.0,0.0,0.0,1.830609,0.0,0.0,0.0,3.678724,2
1729690923.0566986,920,1729690923,54822464,base_link,0,1,33.6371014,72.9913126,490.98612731154424,1.830609,0.0,0.0,0.0,1.830609,0.0,0.0,0.0,3.678724,2
1729690923.155707,921,1729690923,153821696,base_link,0,1,33.6371014,72.9913125,490.99612691436266,1.8333160000000002,0.0,0.0,0.0,1.8333160000000002,0.0,0.0,0.0,3.6748890000000003,2
1729690923.2555497,922,1729690923,252818112,base_link,0,1,33.6371014,72.9913125,490.99612691436266,1.8333160000000002,0.0,0.0,0.0,1.8333160000000002,0.0,0.0,0.0,3.6748890000000003,2
1729690923.3567946,923,1729690923,354815552,base_link,0,1,33.6371013,72.9913125,490.99612630140547,1.830609,0.0,0.0,0.0,1.830609,0.0,0.0,0.0,3.6633959999999997,2
1729690923.4555259,924,1729690923,453810944,base_link,0,1,33.6371012,72.9913124,490.9961252912668,1.830609,0.0,0.0,0.0,1.830609,0.0,0.0,0.0,3.6633959999999997,2
1729690923.5578456,925,1729690923,554808896,base_link,0,1,33.6371011,72.9913124,490.99612467830985,1.8279040000000002,0.0,0.0,0.0,1.8279040000000002,0.0,0.0,0.0,3.655744,2
1729690923.6558342,926,1729690923,653808640,base_link,0,1,33.637101,72.9913125,491.0061244625344,1.8279040000000002,0.0,0.0,0.0,1.8279040000000002,0.0,0.0,0.0,3.655744,2
1729690923.755335,927,1729690923,752805312,base_link,0,1,33.6371008,72.9913125,491.0261232366207,1.8252009999999999,0.0,0.0,0.0,1.8252009999999999,0.0,0.0,0.0,3.6442810000000003,2
1729690923.8569977,928,1729690923,853802496,base_link,0,1,33.6371006,72.9913126,491.02612240788864,1.8252009999999999,0.0,0.0,0.0,1.8252009999999999,0.0,0.0,0.0,3.6442810000000003,2
1729690923.9551263,929,1729690923,952800960,base_link,0,1,33.6371005,72.9913126,491.0361217949321,1.8252009999999999,0.0,0.0,0.0,1.8252009999999999,0.0,0.0,0.0,3.6328359999999997,2
1729690924.0572624,930,1729690924,53795584,base_link,0,1,33.6371004,72.9913127,491.0461215791569,1.8252009999999999,0.0,0.0,0.0,1.8252009999999999,0.0,0.0,0.0,3.6328359999999997,2
1729690924.1546953,931,1729690924,152794560,base_link,0,1,33.6371003,72.9913127,491.05612096620047,1.8225000000000002,0.0,0.0,0.0,1.8225000000000002,0.0,0.0,0.0,3.6176039999999996,2
1729690924.2580848,932,1729690924,254794560,base_link,0,1,33.6371003,72.9913128,491.0761213633816,1.8225000000000002,0.0,0.0,0.0,1.8225000000000002,0.0,0.0,0.0,3.6176039999999996,2
1729690924.3568616,933,1729690924,353796352,base_link,0,1,33.6371003,72.9913128,491.0861213633816,1.819801,0.0,0.0,0.0,1.819801,0.0,0.0,0.0,3.613801,2
1729690924.4581614,934,1729690924,455792768,base_link,0,1,33.6371003,72.9913129,491.1061217605629,1.819801,0.0,0.0,0.0,1.819801,0.0,0.0,0.0,3.613801,2
1729690924.556158,935,1729690924,553784320,base_link,0,1,33.6371003,72.991313,491.1161221577442,1.814409,0.0,0.0,0.0,1.814409,0.0,0.0,0.0,3.6024039999999995,2
