Time,header.seq,header.stamp.secs,header.stamp.nsecs,header.frame_id,orientation.x,orientation.y,orientation.z,orientation.w,orientation_covariance_0,orientation_covariance_1,orientation_covariance_2,orientation_covariance_3,orientation_covariance_4,orientation_covariance_5,orientation_covariance_6,orientation_covariance_7,orientation_covariance_8,angular_velocity.x,angular_velocity.y,angular_velocity.z,angular_velocity_covariance_0,angular_velocity_covariance_1,angular_velocity_covariance_2,angular_velocity_covariance_3,angular_velocity_covariance_4,angular_velocity_covariance_5,angular_velocity_covariance_6,angular_velocity_covariance_7,angular_velocity_covariance_8,linear_acceleration.x,linear_acceleration.y,linear_acceleration.z,linear_acceleration_covariance_0,linear_acceleration_covariance_1,linear_acceleration_covariance_2,linear_acceleration_covariance_3,linear_acceleration_covariance_4,linear_acceleration_covariance_5,linear_acceleration_covariance_6,linear_acceleration_covariance_7,linear_acceleration_covariance_8
1729690891.1185286,1605,1729690889,956123008,base_link,0.1116707798473336,0.02143309814615103,-0.2838977762983884,-0.9520883949744248,1.0,0.0,0.0,0.0,1.0,0.0,0.0,0.0,1.0,0.1915823370218277,-0.3272936642169953,-0.2808780968189239,1.2184696791468346e-07,0.0,0.0,0.0,1.2184696791468346e-07,0.0,0.0,0.0,1.2184696791468346e-07,-0.08825985,-0.8139519499999986,11.9248864,8.999999999999999e-08,0.0,0.0,0.0,8.999999999999999e-08,0.0,0.0,0.0,8.999999999999999e-08
1729690891.118813,1606,1729690890,58123008,base_link,0.08509717010626154,0.03940562049017743,-0.2787552671920598,-0.9557725512517992,1.0,0.0,0.0,0.0,1.0,0.0,0.0,0.0,1.0,0.5938903093338013,-0.5451591610908508,-0.06068968027830117,1.2184696791468346e-07,0.0,0.0,0.0,1.2184696791468346e-07,0.0,0.0,0.0,1.2184696791468346e-07,-0.4118793,-1.1081514499999985,12.5721253,8.999999999999999e-08,0.0,0.0,0.0,8.999999999999999e-08,0.0,0.0,0.0,8.999999999999999e-08
1729690891.119464,1607,1729690890,155123008,base_link,0.0653109813487549,0.05722832026127039,-0.2777600734661586,-0.9567176891138838,1.0,0.0,0.0,0.0,1.0,0.0,0.0,0.0,1.0,0.036094099283218384,-0.4147607982158661,-0.1280324608087539,1.2184696791468346e-07,0.0,0.0,0.0,1.2184696791468346e-07,0.0,0.0,0.0,1.2184696791468346e-07,0.67665885,-0.696272149999999,7.8845466,8.999999999999999e-08,0.0,0.0,0.0,8.999999999999999e-08,0.0,0.0,0.0,8.999999999999999e-08
1729690891.1207948,1608,1729690890,253123008,base_link,0.04294006889709004,0.07401044162235461,-0.2815948215472719,-0.9557107101480746,1.0,0.0,0.0,0.0,1.0,0.0,0.0,0.0,1.0,0.3983593285083771,-0.4496303498744964,0.26112416386604315,1.2184696791468346e-07,0.0,0.0,0.0,1.2184696791468346e-07,0.0,0.0,0.0,1.2184696791468346e-07,0.08825985,-0.7845319999999985,12.2190859,8.999999999999999e-08,0.0,0.0,0.0,8.999999999999999e-08,0.0,0.0,0.0,8.999999999999999e-08
1729690891.1257138,1609,1729690890,353123008,base_link,0.028866310481304242,0.08299161341106533,-0.2883411795775387,-0.9534875418076834,1.0,0.0,0.0,0.0,1.0,0.0,0.0,0.0,1.0,-0.1890334188938141,-0.24333737790584561,0.19955988228321078,1.2184696791468346e-07,0.0,0.0,0.0,1.2184696791468346e-07,0.0,0.0,0.0,1.2184696791468346e-07,0.97085835,-0.9414383999999988,10.2185293,8.999999999999999e-08,0.0,0.0,0.0,8.999999999999999e-08,0.0,0.0,0.0,8.999999999999999e-08
1729690891.1263955,1610,1729690890,454123008,base_link,0.01715233998180796,0.09077966221331014,-0.29902101503188194,-0.9497638036537761,1.0,0.0,0.0,0.0,1.0,0.0,0.0,0.0,1.0,0.2312648445367813,-0.1285464167594909,0.3853527307510376,1.2184696791468346e-07,0.0,0.0,0.0,1.2184696791468346e-07,0.0,0.0,0.0,1.2184696791468346e-07,-0.40207265000000003,-0.5197524499999989,8.924051500000001,8.999999999999999e-08,0.0,0.0,0.0,8.999999999999999e-08,0.0,0.0,0.0,8.999999999999999e-08
1729690891.1264975,1611,1729690890,556123008,base_link,0.005919395208326868,0.09279875615327797,-0.31418444519880995,-0.944797060755318,1.0,0.0,0.0,0.0,1.0,0.0,0.0,0.0,1.0,0.37443095445632935,-0.17261710762977597,0.2626557946205139,1.2184696791468346e-07,0.0,0.0,0.0,1.2184696791468346e-07,0.0,0.0,0.0,1.2184696791468346e-07,0.67665885,-1.2454445499999987,10.3165958,8.999999999999999e-08,0.0,0.0,0.0,8.999999999999999e-08,0.0,0.0,0.0,8.999999999999999e-08
1729690891.1265898,1612,1729690890,656123008,base_link,0.0015568040688115597,0.10035267438633313,-0.33076260617095204,-0.9383618787352787,1.0,0.0,0.0,0.0,1.0,0.0,0.0,0.0,1.0,0.060124531388282776,-0.12134063988924021,0.4372924566268921,1.2184696791468346e-07,0.0,0.0,0.0,1.2184696791468346e-07,0.0,0.0,0.0,1.2184696791468346e-07,0.18632635,0.06864655000000122,10.01258965,8.999999999999999e-08,0.0,0.0,0.0,8.999999999999999e-08,0.0,0.0,0.0,8.999999999999999e-08
1729690891.126617,1613,1729690890,753123008,base_link,-0.004062901641041646,0.10453641272954381,-0.3507628086786405,-0.9306025377634455,1.0,0.0,0.0,0.0,1.0,0.0,0.0,0.0,1.0,0.16723236441612244,-0.1339936554431915,0.23576417565345767,1.2184696791468346e-07,0.0,0.0,0.0,1.2184696791468346e-07,0.0,0.0,0.0,1.2184696791468346e-07,0.46091255,-0.5197524499999988,9.42419065,8.999999999999999e-08,0.0,0.0,0.0,8.999999999999999e-08,0.0,0.0,0.0,8.999999999999999e-08
1729690891.1266701,1614,1729690890,857123008,base_link,-0.006919675582052866,0.10945643348305426,-0.3720841009909098,-0.9216967120744195,1.0,0.0,0.0,0.0,1.0,0.0,0.0,0.0,1.0,-0.024815384298563004,0.08220876753330233,0.2666105031967163,1.2184696791468346e-07,0.0,0.0,0.0,1.2184696791468346e-07,0.0,0.0,0.0,1.2184696791468346e-07,0.24516625,-0.5099457999999987,10.93441475,8.999999999999999e-08,0.0,0.0,0.0,8.999999999999999e-08,0.0,0.0,0.0,8.999999999999999e-08
1729690891.126695,1615,1729690890,960123008,base_link,-0.01458278252981489,0.10916592545109485,-0.3924858318001268,-0.9131401946088327,1.0,0.0,0.0,0.0,1.0,0.0,0.0,0.0,1.0,-0.09942485392093658,-0.04086826741695399,0.36842837929725647,1.2184696791468346e-07,0.0,0.0,0.0,1.2184696791468346e-07,0.0,0.0,0.0,1.2184696791468346e-07,-0.0588399,-0.7747253499999988,9.75761675,8.999999999999999e-08,0.0,0.0,0.0,8.999999999999999e-08,0.0,0.0,0.0,8.999999999999999e-08
1729690891.1269286,1616,1729690891,58123008,base_link,-0.020474514798582304,0.11047796540730655,-0.4085655872147913,-0.9057867157046725,1.0,0.0,0.0,0.0,1.0,0.0,0.0,0.0,1.0,0.1322798877954483,-0.02988651767373081,0.3487776517868042,1.2184696791468346e-07,0.0,0.0,0.0,1.2184696791468346e-07,0.0,0.0,0.0,1.2184696791468346e-07,-0.4903325,-0.11767979999999893,8.7083052,8.999999999999999e-08,0.0,0.0,0.0,8.999999999999999e-08,0.0,0.0,0.0,8.999999999999999e-08
1729690891.1585565,1617,1729690891,155123008,base_link,-0.025085048663812178,0.10949531392431644,-0.4208807568884264,-0.9001338261854039,1.0,0.0,0.0,0.0,1.0,0.0,0.0,0.0,1.0,-0.1193230152130127,0.0350957550108433,0.1813129484653473,1.2184696791468346e-07,0.0,0.0,0.0,1.2184696791468346e-07,0.0,0.0,0.0,1.2184696791468346e-07,0.26477955,-1.4709974999999988,9.7870367,8.999999999999999e-08,0.0,0.0,0.0,8.999999999999999e-08,0.0,0.0,0.0,8.999999999999999e-08
1729690891.254478,1618,1729690891,253123008,base_link,-0.02877012229232108,0.1069007349796122,-0.4315080155990523,-0.8952906485593779,1.0,0.0,0.0,0.0,1.0,0.0,0.0,0.0,1.0,0.24682505428791046,-0.03163173794746394,0.4167937636375427,1.2184696791468346e-07,0.0,0.0,0.0,1.2184696791468346e-07,0.0,0.0,0.0,1.2184696791468346e-07,-0.06864655,-0.2647795499999988,9.62032365,8.999999999999999e-08,0.0,0.0,0.0,8.999999999999999e-08,0.0,0.0,0.0,8.999999999999999e-08
1729690891.3596015,1619,1729690891,358123008,base_link,-0.03226065367918189,0.09990064261002979,-0.4404063083607234,-0.8916397228625329,1.0,0.0,0.0,0.0,1.0,0.0,0.0,0.0,1.0,0.34336134791374207,0.03716236352920534,0.15665355324745178,1.2184696791468346e-07,0.0,0.0,0.0,1.2184696791468346e-07,0.0,0.0,0.0,1.2184696791468346e-07,0.4511059,-0.9512450499999989,9.12999115,8.999999999999999e-08,0.0,0.0,0.0,8.999999999999999e-08,0.0,0.0,0.0,8.999999999999999e-08
1729690891.4611795,1620,1729690891,453123008,base_link,-0.03536340906551312,0.0982751394137164,-0.44997598751231854,-0.8869120795968412,1.0,0.0,0.0,0.0,1.0,0.0,0.0,0.0,1.0,-0.09282425045967102,0.14072687923908236,0.2613759934902191,1.2184696791468346e-07,0.0,0.0,0.0,1.2184696791468346e-07,0.0,0.0,0.0,1.2184696791468346e-07,-0.10787315,-0.6962721499999988,10.002783,8.999999999999999e-08,0.0,0.0,0.0,8.999999999999999e-08,0.0,0.0,0.0,8.999999999999999e-08
1729690891.557494,1621,1729690891,554123008,base_link,-0.039914597531617566,0.09211717839397138,-0.4582526934818075,-0.8831340324465424,1.0,0.0,0.0,0.0,1.0,0.0,0.0,0.0,1.0,-0.1085696890950203,0.13401888310909274,0.14571563899517057,1.2184696791468346e-07,0.0,0.0,0.0,1.2184696791468346e-07,0.0,0.0,0.0,1.2184696791468346e-07,-0.44129925000000003,-0.2843928499999988,9.6497436,8.999999999999999e-08,0.0,0.0,0.0,8.999999999999999e-08,0.0,0.0,0.0,8.999999999999999e-08
1729690891.656325,1622,1729690891,655121216,base_link,-0.035710148441534986,0.0819751914751563,-0.4669666272367693,-0.879742588674671,1.0,0.0,0.0,0.0,1.0,0.0,0.0,0.0,1.0,-0.2563888728618622,0.37216052412986755,0.2209531664848327,1.2184696791468346e-07,0.0,0.0,0.0,1.2184696791468346e-07,0.0,0.0,0.0,1.2184696791468346e-07,1.06892485,-0.7845319999999989,9.2770909,8.999999999999999e-08,0.0,0.0,0.0,8.999999999999999e-08,0.0,0.0,0.0,8.999999999999999e-08
1729690891.7572184,1623,1729690891,755119424,base_link,-0.017293726701751163,0.07601610131519325,-0.47579906578504105,-0.8760923058420761,1.0,0.0,0.0,0.0,1.0,0.0,0.0,0.0,1.0,-0.2493980973958969,0.2523418068885803,0.05936769396066663,1.2184696791468346e-07,0.0,0.0,0.0,1.2184696791468346e-07,0.0,0.0,0.0,1.2184696791468346e-07,0.0,-0.6766588499999989,9.28689755,8.999999999999999e-08,0.0,0.0,0.0,8.999999999999999e-08,0.0,0.0,0.0,8.999999999999999e-08
1729690891.8579717,1624,1729690891,855119424,base_link,-0.0010915443835232757,0.08016948178276162,-0.4878402865590792,-0.869243071603966,1.0,0.0,0.0,0.0,1.0,0.0,0.0,0.0,1.0,-0.17605270445346832,-0.026063673198223076,0.30094316601753235,1.2184696791468346e-07,0.0,0.0,0.0,1.2184696791468346e-07,0.0,0.0,0.0,1.2184696791468346e-07,-0.08825985,-0.5001391499999985,11.91507975,8.999999999999999e-08,0.0,0.0,0.0,8.999999999999999e-08,0.0,0.0,0.0,8.999999999999999e-08
1729690891.9561894,1625,1729690891,953115584,base_link,-0.0015416635080250857,0.09007267746119191,-0.5036142612052297,-0.8592189546089579,1.0,0.0,0.0,0.0,1.0,0.0,0.0,0.0,1.0,0.13642151653766632,-0.26995271444320673,0.43611288070678716,1.2184696791468346e-07,0.0,0.0,0.0,1.2184696791468346e-07,0.0,0.0,0.0,1.2184696791468346e-07,0.0980665,-0.4903324999999989,8.99269805,8.999999999999999e-08,0.0,0.0,0.0,8.999999999999999e-08,0.0,0.0,0.0,8.999999999999999e-08
1729690892.0559335,1626,1729690892,53113536,base_link,-0.012492602138110563,0.09315596457096363,-0.5240981192801917,-0.8464555880397023,1.0,0.0,0.0,0.0,1.0,0.0,0.0,0.0,1.0,0.4125381410121918,-0.11740092188119883,0.42220401763916016,1.2184696791468346e-07,0.0,0.0,0.0,1.2184696791468346e-07,0.0,0.0,0.0,1.2184696791468346e-07,0.7453054,-1.4317708999999985,11.2384209,8.999999999999999e-08,0.0,0.0,0.0,8.999999999999999e-08,0.0,0.0,0.0,8.999999999999999e-08
1729690892.156272,1627,1729690892,153113280,base_link,-0.023964606524397362,0.09441570090551696,-0.5493495581199539,-0.8298954368172305,1.0,0.0,0.0,0.0,1.0,0.0,0.0,0.0,1.0,0.10688652843236923,-0.13998751342296595,0.5562796592712402,1.2184696791468346e-07,0.0,0.0,0.0,1.2184696791468346e-07,0.0,0.0,0.0,1.2184696791468346e-07,0.18632635,-0.6472388999999987,10.6107953,8.999999999999999e-08,0.0,0.0,0.0,8.999999999999999e-08,0.0,0.0,0.0,8.999999999999999e-08
1729690892.2541928,1628,1729690892,253113024,base_link,-0.03518102742043509,0.09052811638447712,-0.5764694421937551,-0.8113260366032525,1.0,0.0,0.0,0.0,1.0,0.0,0.0,0.0,1.0,0.6186415553092957,-0.04904171824455253,0.6806796193122864,1.2184696791468346e-07,0.0,0.0,0.0,1.2184696791468346e-07,0.0,0.0,0.0,1.2184696791468346e-07,-0.00980665,-0.6766588499999985,12.36618565,8.999999999999999e-08,0.0,0.0,0.0,8.999999999999999e-08,0.0,0.0,0.0,8.999999999999999e-08
1729690892.3543105,1629,1729690892,353112768,base_link,-0.04382884790044006,0.08184952784548331,-0.6042078977189238,-0.7913990796161376,1.0,0.0,0.0,0.0,1.0,0.0,0.0,0.0,1.0,0.45400524139404297,0.049370400607586,0.7316404581069946,1.2184696791468346e-07,0.0,0.0,0.0,1.2184696791468346e-07,0.0,0.0,0.0,1.2184696791468346e-07,0.8041453000000001,-0.7649186999999987,10.6500219,8.999999999999999e-08,0.0,0.0,0.0,8.999999999999999e-08,0.0,0.0,0.0,8.999999999999999e-08
1729690892.455377,1630,1729690892,453112768,base_link,-0.045478946675613,0.07045656970317207,-0.6350902270069534,-0.7678723466535274,1.0,0.0,0.0,0.0,1.0,0.0,0.0,0.0,1.0,-0.03887694329023361,0.210842251777649,0.6728567481040955,1.2184696791468346e-07,0.0,0.0,0.0,1.2184696791468346e-07,0.0,0.0,0.0,1.2184696791468346e-07,0.4314926,-0.6374322499999987,9.8851032,8.999999999999999e-08,0.0,0.0,0.0,8.999999999999999e-08,0.0,0.0,0.0,8.999999999999999e-08
1729690892.554552,1631,1729690892,553113024,base_link,-0.05225675044440812,0.06330357026834588,-0.6628193339395102,-0.7442663639989755,1.0,0.0,0.0,0.0,1.0,0.0,0.0,0.0,1.0,0.45316773653030396,-0.02799895405769338,0.8302382826805115,1.2184696791468346e-07,0.0,0.0,0.0,1.2184696791468346e-07,0.0,0.0,0.0,1.2184696791468346e-07,-0.87279185,-1.0100849499999984,12.34657235,8.999999999999999e-08,0.0,0.0,0.0,8.999999999999999e-08,0.0,0.0,0.0,8.999999999999999e-08
1729690892.661172,1632,1729690892,655113792,base_link,-0.0555278448095576,0.05566762391651593,-0.6906970220128289,-0.7188570079514456,1.0,0.0,0.0,0.0,1.0,0.0,0.0,0.0,1.0,0.34060561656951904,0.07541668415069588,0.7124131917953491,1.2184696791468346e-07,0.0,0.0,0.0,1.2184696791468346e-07,0.0,0.0,0.0,1.2184696791468346e-07,0.69627215,-0.6472388999999988,9.5320638,8.999999999999999e-08,0.0,0.0,0.0,8.999999999999999e-08,0.0,0.0,0.0,8.999999999999999e-08
1729690892.7547636,1633,1729690892,753114560,base_link,-0.05540787462585412,0.048733137226521735,-0.7186516407049068,-0.6914440455146401,1.0,0.0,0.0,0.0,1.0,0.0,0.0,0.0,1.0,0.006735815200954676,0.1271565258502961,0.6469129323959351,1.2184696791468346e-07,0.0,0.0,0.0,1.2184696791468346e-07,0.0,0.0,0.0,1.2184696791468346e-07,-0.08825985,-0.3432327499999986,11.32668075,8.999999999999999e-08,0.0,0.0,0.0,8.999999999999999e-08,0.0,0.0,0.0,8.999999999999999e-08
1729690892.855673,1634,1729690892,853113792,base_link,-0.06016149354146045,0.04402187953854036,-0.7448509833535432,-0.6630533020911777,1.0,0.0,0.0,0.0,1.0,0.0,0.0,0.0,1.0,0.2384679615497589,-0.006490825675427817,0.7879000306129456,1.2184696791468346e-07,0.0,0.0,0.0,1.2184696791468346e-07,0.0,0.0,0.0,1.2184696791468346e-07,-0.4707192,-0.8041452999999985,12.18966595,8.999999999999999e-08,0.0,0.0,0.0,8.999999999999999e-08,0.0,0.0,0.0,8.999999999999999e-08
1729690892.9561634,1635,1729690892,954113280,base_link,-0.06109389241489711,0.0388451509769108,-0.7717953248942602,-0.6317361530152771,1.0,0.0,0.0,0.0,1.0,0.0,0.0,0.0,1.0,0.1939154863357544,0.06638453900814067,0.883057177066803,1.2184696791468346e-07,0.0,0.0,0.0,1.2184696791468346e-07,0.0,0.0,0.0,1.2184696791468346e-07,0.28439285000000003,-0.38245934999999875,9.97336305,8.999999999999999e-08,0.0,0.0,0.0,8.999999999999999e-08,0.0,0.0,0.0,8.999999999999999e-08
1729690893.059373,1636,1729690893,55113280,base_link,-0.06194334407738001,0.01936608139903125,-0.7977619125968523,-0.5994696888296934,1.0,0.0,0.0,0.0,1.0,0.0,0.0,0.0,1.0,0.4465441107749939,0.1550346314907075,0.7939257025718689,1.2184696791468346e-07,0.0,0.0,0.0,1.2184696791468346e-07,0.0,0.0,0.0,1.2184696791468346e-07,0.2941995,-0.47071919999999895,8.28661925,8.999999999999999e-08,0.0,0.0,0.0,8.999999999999999e-08,0.0,0.0,0.0,8.999999999999999e-08
1729690893.1590395,1637,1729690893,153113280,base_link,-0.06456892841176604,0.023070798984499253,-0.8159181140349279,-0.5740872955462951,1.0,0.0,0.0,0.0,1.0,0.0,0.0,0.0,1.0,-0.031336866319179535,-0.1594358086585998,0.4182864725589752,1.2184696791468346e-07,0.0,0.0,0.0,1.2184696791468346e-07,0.0,0.0,0.0,1.2184696791468346e-07,0.10787315,0.14709975000000106,8.56120545,8.999999999999999e-08,0.0,0.0,0.0,8.999999999999999e-08,0.0,0.0,0.0,8.999999999999999e-08
1729690893.2571118,1638,1729690893,253113280,base_link,-0.06253178263070852,0.0354098087708313,-0.8330643054100371,-0.5484886367606271,1.0,0.0,0.0,0.0,1.0,0.0,0.0,0.0,1.0,-0.30725759267807007,0.07206360995769509,0.6957773566246033,1.2184696791468346e-07,0.0,0.0,0.0,1.2184696791468346e-07,0.0,0.0,0.0,1.2184696791468346e-07,0.51975245,-0.5883989999999988,9.8851032,8.999999999999999e-08,0.0,0.0,0.0,8.999999999999999e-08,0.0,0.0,0.0,8.999999999999999e-08
1729690893.3549256,1639,1729690893,353113536,base_link,-0.053455447193108706,0.04799108071778692,-0.8482737485858305,-0.5246627667340871,1.0,0.0,0.0,0.0,1.0,0.0,0.0,0.0,1.0,-0.2850073575973511,-0.08654273301362984,0.587517499923706,1.2184696791468346e-07,0.0,0.0,0.0,1.2184696791468346e-07,0.0,0.0,0.0,1.2184696791468346e-07,-0.196133,1.1060917612762579e-15,9.03192465,8.999999999999999e-08,0.0,0.0,0.0,8.999999999999999e-08,0.0,0.0,0.0,8.999999999999999e-08
1729690893.454857,1640,1729690893,453110720,base_link,-0.04119447031181557,0.0741135404207787,-0.8599953380983848,-0.5032079263992879,1.0,0.0,0.0,0.0,1.0,0.0,0.0,0.0,1.0,-0.5649262070655823,0.05279904976487165,0.4542357325553894,1.2184696791468346e-07,0.0,0.0,0.0,1.2184696791468346e-07,0.0,0.0,0.0,1.2184696791468346e-07,0.392266,-0.4020726499999986,11.11093445,8.999999999999999e-08,0.0,0.0,0.0,8.999999999999999e-08,0.0,0.0,0.0,8.999999999999999e-08
1729690893.5548782,1641,1729690893,553110464,base_link,-0.033251632197873554,0.08526039929462231,-0.8742600032183151,-0.47675406662241576,1.0,0.0,0.0,0.0,1.0,0.0,0.0,0.0,1.0,0.27176663279533386,-0.033490054309368064,0.5617397427558899,1.2184696791468346e-07,0.0,0.0,0.0,1.2184696791468346e-07,0.0,0.0,0.0,1.2184696791468346e-07,-0.0392266,-0.6080122999999986,11.4933938,8.999999999999999e-08,0.0,0.0,0.0,8.999999999999999e-08,0.0,0.0,0.0,8.999999999999999e-08
1729690893.6556017,1642,1729690893,653110208,base_link,-0.03145918015344725,0.06775707833309857,-0.888991977712953,-0.45178818253895003,1.0,0.0,0.0,0.0,1.0,0.0,0.0,0.0,1.0,0.28966566920280457,0.26852878928184515,0.4675941169261932,1.2184696791468346e-07,0.0,0.0,0.0,1.2184696791468346e-07,0.0,0.0,0.0,1.2184696791468346e-07,0.32361945000000003,-0.6864654999999991,8.1591328,8.999999999999999e-08,0.0,0.0,0.0,8.999999999999999e-08,0.0,0.0,0.0,8.999999999999999e-08
1729690893.7548244,1643,1729690893,753110464,base_link,-0.039972768849350755,0.03520373988176957,-0.9017760330263709,-0.428908918895463,1.0,0.0,0.0,0.0,1.0,0.0,0.0,0.0,1.0,0.6182692050933838,0.17647610604763034,0.2943556308746338,1.2184696791468346e-07,0.0,0.0,0.0,1.2184696791468346e-07,0.0,0.0,0.0,1.2184696791468346e-07,-0.0980665,-0.9316317499999984,12.160246,8.999999999999999e-08,0.0,0.0,0.0,8.999999999999999e-08,0.0,0.0,0.0,8.999999999999999e-08
1729690893.8547926,1644,1729690893,853109696,base_link,-0.05422457160042761,-0.001884528325039672,-0.9117749149538816,-0.4070904676464239,1.0,0.0,0.0,0.0,1.0,0.0,0.0,0.0,1.0,0.8521391749382019,0.13638272881507876,0.20965684950351712,1.2184696791468346e-07,0.0,0.0,0.0,1.2184696791468346e-07,0.0,0.0,0.0,1.2184696791468346e-07,-0.3138128,-0.7453053999999986,11.91507975,8.999999999999999e-08,0.0,0.0,0.0,8.999999999999999e-08,0.0,0.0,0.0,8.999999999999999e-08
1729690893.954851,1645,1729690893,953108672,base_link,-0.06480183498461049,-0.03351732018267857,-0.9184565235148257,-0.38873503295105755,1.0,0.0,0.0,0.0,1.0,0.0,0.0,0.0,1.0,0.6403446197509766,0.10032499581575396,0.18242330849170685,1.2184696791468346e-07,0.0,0.0,0.0,1.2184696791468346e-07,0.0,0.0,0.0,1.2184696791468346e-07,-0.0588399,-0.7845319999999985,12.0229529,8.999999999999999e-08,0.0,0.0,0.0,8.999999999999999e-08,0.0,0.0,0.0,8.999999999999999e-08
1729690894.056548,1646,1729690894,53108160,base_link,-0.07216710820349155,-0.06161985591555871,-0.9249426311720602,-0.36807068735637893,1.0,0.0,0.0,0.0,1.0,0.0,0.0,0.0,1.0,0.8532955050468445,0.17667885124683386,0.4068930447101593,1.2184696791468346e-07,0.0,0.0,0.0,1.2184696791468346e-07,0.0,0.0,0.0,1.2184696791468346e-07,-0.2941995,-0.5001391499999986,11.0226746,8.999999999999999e-08,0.0,0.0,0.0,8.999999999999999e-08,0.0,0.0,0.0,8.999999999999999e-08
1729690894.1564233,1647,1729690894,153109440,base_link,-0.07301700560520713,-0.08449754744447152,-0.930505995711354,-0.34883702973385716,1.0,0.0,0.0,0.0,1.0,0.0,0.0,0.0,1.0,0.5086345672607422,0.04875991120934493,0.5536864399909973,1.2184696791468346e-07,0.0,0.0,0.0,1.2184696791468346e-07,0.0,0.0,0.0,1.2184696791468346e-07,0.3530394,-0.42168594999999875,10.091042850000001,8.999999999999999e-08,0.0,0.0,0.0,8.999999999999999e-08,0.0,0.0,0.0,8.999999999999999e-08
1729690894.255804,1648,1729690894,253109696,base_link,-0.0653131075078399,-0.07804494717382718,-0.9370900500726699,-0.33392427624104354,1.0,0.0,0.0,0.0,1.0,0.0,0.0,0.0,1.0,-0.6775251626968384,0.2570025622844696,0.12612298130989072,1.2184696791468346e-07,0.0,0.0,0.0,1.2184696791468346e-07,0.0,0.0,0.0,1.2184696791468346e-07,0.1569064,-0.15690639999999895,8.69849855,8.999999999999999e-08,0.0,0.0,0.0,8.999999999999999e-08,0.0,0.0,0.0,8.999999999999999e-08
1729690894.3558424,1649,1729690894,354109440,base_link,-0.053954104110325245,-0.058335385758584886,-0.9433347717396348,-0.32218852531550635,1.0,0.0,0.0,0.0,1.0,0.0,0.0,0.0,1.0,-0.6673510074615479,0.17708934843540194,0.2989238500595093,1.2184696791468346e-07,0.0,0.0,0.0,1.2184696791468346e-07,0.0,0.0,0.0,1.2184696791468346e-07,-0.588399,-0.07845319999999853,12.0425662,8.999999999999999e-08,0.0,0.0,0.0,8.999999999999999e-08,0.0,0.0,0.0,8.999999999999999e-08
1729690894.4559476,1650,1729690894,454107648,base_link,-0.042440485921507766,-0.04104005326490299,-0.949403091993148,-0.30846116140708935,1.0,0.0,0.0,0.0,1.0,0.0,0.0,0.0,1.0,-0.19479238986968994,0.047051422297954615,0.4706004559993744,1.2184696791468346e-07,0.0,0.0,0.0,1.2184696791468346e-07,0.0,0.0,0.0,1.2184696791468346e-07,-0.5687857000000001,0.20593965000000122,9.8851032,8.999999999999999e-08,0.0,0.0,0.0,8.999999999999999e-08,0.0,0.0,0.0,8.999999999999999e-08
1729690894.5549238,1651,1729690894,554108672,base_link,-0.03795197559631077,-0.03430863119557229,-0.9535516621216832,-0.29685315062973233,1.0,0.0,0.0,0.0,1.0,0.0,0.0,0.0,1.0,0.35301822423934937,0.1161518692970276,0.1644329726696014,1.2184696791468346e-07,0.0,0.0,0.0,1.2184696791468346e-07,0.0,0.0,0.0,1.2184696791468346e-07,-0.04903325,0.019613300000001128,9.22805765,8.999999999999999e-08,0.0,0.0,0.0,8.999999999999999e-08,0.0,0.0,0.0,8.999999999999999e-08
1729690894.656192,1652,1729690894,654106112,base_link,-0.031023298736925334,-0.044884020662325615,-0.9567245749482418,-0.2858339855838864,1.0,0.0,0.0,0.0,1.0,0.0,0.0,0.0,1.0,0.16010808944702148,0.3009970784187317,0.17887082695960996,1.2184696791468346e-07,0.0,0.0,0.0,1.2184696791468346e-07,0.0,0.0,0.0,1.2184696791468346e-07,0.20593965,0.049033250000001395,11.3953273,8.999999999999999e-08,0.0,0.0,0.0,8.999999999999999e-08,0.0,0.0,0.0,8.999999999999999e-08
1729690894.755899,1653,1729690894,754105600,base_link,-0.022569171855834857,-0.053496188860977116,-0.9604282779661257,-0.27240835732795515,1.0,0.0,0.0,0.0,1.0,0.0,0.0,0.0,1.0,0.1946815550327301,0.22729386389255526,0.2009288966655731,1.2184696791468346e-07,0.0,0.0,0.0,1.2184696791468346e-07,0.0,0.0,0.0,1.2184696791468346e-07,-0.196133,-0.3040061499999986,11.58165365,8.999999999999999e-08,0.0,0.0,0.0,8.999999999999999e-08,0.0,0.0,0.0,8.999999999999999e-08
1729690894.8559792,1654,1729690894,855105344,base_link,-0.013555334993107368,-0.059614472127846034,-0.9644756707536675,-0.2570000936389053,1.0,0.0,0.0,0.0,1.0,0.0,0.0,0.0,1.0,-0.20121027529239655,0.18947495520114901,0.24422182142734525,1.2184696791468346e-07,0.0,0.0,0.0,1.2184696791468346e-07,0.0,0.0,0.0,1.2184696791468346e-07,-0.06864655,0.15690640000000125,10.179302700000001,8.999999999999999e-08,0.0,0.0,0.0,8.999999999999999e-08,0.0,0.0,0.0,8.999999999999999e-08
1729690894.9561393,1655,1729690894,955103552,base_link,-0.009214279440810356,-0.057573919359432436,-0.9686761896411361,-0.24138512896678216,1.0,0.0,0.0,0.0,1.0,0.0,0.0,0.0,1.0,-0.03891874849796295,0.11225212365388876,0.48221084475517273,1.2184696791468346e-07,0.0,0.0,0.0,1.2184696791468346e-07,0.0,0.0,0.0,1.2184696791468346e-07,-0.8237586,0.3040061500000013,10.93441475,8.999999999999999e-08,0.0,0.0,0.0,8.999999999999999e-08,0.0,0.0,0.0,8.999999999999999e-08
1729690895.057875,1656,1729690895,53103552,base_link,-0.004836030505107057,-0.05017580513450685,-0.9731989725853178,-0.22437192593312416,1.0,0.0,0.0,0.0,1.0,0.0,0.0,0.0,1.0,-0.2709985375404358,0.08995008468627934,0.2952093482017517,1.2184696791468346e-07,0.0,0.0,0.0,1.2184696791468346e-07,0.0,0.0,0.0,1.2184696791468346e-07,0.00980665,-0.019613299999998574,11.64049355,8.999999999999999e-08,0.0,0.0,0.0,8.999999999999999e-08,0.0,0.0,0.0,8.999999999999999e-08
1729690895.1600623,1657,1729690895,158101504,base_link,-0.0003939869254378869,-0.042558324112128225,-0.977172123980284,-0.20814243666040377,1.0,0.0,0.0,0.0,1.0,0.0,0.0,0.0,1.0,-0.22914282977581024,0.001544885337352794,0.3385009765625,1.2184696791468346e-07,0.0,0.0,0.0,1.2184696791468346e-07,0.0,0.0,0.0,1.2184696791468346e-07,-0.2353596,-0.15690639999999867,10.91480145,8.999999999999999e-08,0.0,0.0,0.0,8.999999999999999e-08,0.0,0.0,0.0,8.999999999999999e-08
1729690895.2570848,1658,1729690895,253102016,base_link,-0.0008911034946462886,-0.036041769261430774,-0.9800334228856182,-0.19553691935326883,1.0,0.0,0.0,0.0,1.0,0.0,0.0,0.0,1.0,-0.09951553493738174,-0.028425870463252033,0.27569106221199036,1.2184696791468346e-07,0.0,0.0,0.0,1.2184696791468346e-07,0.0,0.0,0.0,1.2184696791468346e-07,-0.26477955,-0.00980664999999871,10.54214875,8.999999999999999e-08,0.0,0.0,0.0,8.999999999999999e-08,0.0,0.0,0.0,8.999999999999999e-08
1729690895.359083,1659,1729690895,353101248,base_link,0.0010064864032301977,-0.03641524404658473,-0.9806299235295758,-0.19245225398660853,1.0,0.0,0.0,0.0,1.0,0.0,0.0,0.0,1.0,0.12883971631526947,-0.13439629971981049,0.04991378262639047,1.2184696791468346e-07,0.0,0.0,0.0,1.2184696791468346e-07,0.0,0.0,0.0,1.2184696791468346e-07,-0.1372931,-0.04903324999999873,10.3754357,8.999999999999999e-08,0.0,0.0,0.0,8.999999999999999e-08,0.0,0.0,0.0,8.999999999999999e-08
1729690895.455965,1660,1729690895,453102528,base_link,0.0026671666725922895,-0.031305395280810146,-0.9783251466374098,-0.2046772237088033,1.0,0.0,0.0,0.0,1.0,0.0,0.0,0.0,1.0,-0.17822158336639404,-0.09055977314710621,-0.30148768424987793,1.2184696791468346e-07,0.0,0.0,0.0,1.2184696791468346e-07,0.0,0.0,0.0,1.2184696791468346e-07,-0.14709975,0.35303940000000106,8.79656505,8.999999999999999e-08,0.0,0.0,0.0,8.999999999999999e-08,0.0,0.0,0.0,8.999999999999999e-08
1729690895.5577216,1661,1729690895,554100736,base_link,0.007705410088634536,-0.02604897751914889,-0.9710496231503838,-0.23732826802778983,1.0,0.0,0.0,0.0,1.0,0.0,0.0,0.0,1.0,-0.16695530712604523,0.2739020287990569,-1.0046950578689575,1.2184696791468346e-07,0.0,0.0,0.0,1.2184696791468346e-07,0.0,0.0,0.0,1.2184696791468346e-07,0.1765197,-0.5295590999999987,10.2577559,8.999999999999999e-08,0.0,0.0,0.0,8.999999999999999e-08,0.0,0.0,0.0,8.999999999999999e-08
1729690895.6559823,1662,1729690895,654098944,base_link,0.0139864320891973,-0.028744954052081034,-0.9580300939892374,-0.2848797050422005,1.0,0.0,0.0,0.0,1.0,0.0,0.0,0.0,1.0,0.0036257989704608917,0.13522939383983598,-1.0957626104354858,1.2184696791468346e-07,0.0,0.0,0.0,1.2184696791468346e-07,0.0,0.0,0.0,1.2184696791468346e-07,-0.48052585000000003,1.1964113000000012,10.7088618,8.999999999999999e-08,0.0,0.0,0.0,8.999999999999999e-08,0.0,0.0,0.0,8.999999999999999e-08
1729690895.758062,1663,1729690895,754097408,base_link,0.01864848405945615,-0.03982989020582853,-0.9401033586913619,-0.3380406615567079,1.0,0.0,0.0,0.0,1.0,0.0,0.0,0.0,1.0,0.10269689559936523,-0.07738537341356289,-0.9440985918045044,1.2184696791468346e-07,0.0,0.0,0.0,1.2184696791468346e-07,0.0,0.0,0.0,1.2184696791468346e-07,-0.02941995,-0.7649186999999986,11.18938765,8.999999999999999e-08,0.0,0.0,0.0,8.999999999999999e-08,0.0,0.0,0.0,8.999999999999999e-08
1729690895.8627708,1664,1729690895,855098432,base_link,0.01941754181134292,-0.0394796747883217,-0.9189653044678846,-0.3918763625594959,1.0,0.0,0.0,0.0,1.0,0.0,0.0,0.0,1.0,-0.08839654922485352,-0.04480811953544631,-1.1658002138137817,1.2184696791468346e-07,0.0,0.0,0.0,1.2184696791468346e-07,0.0,0.0,0.0,1.2184696791468346e-07,-0.0392266,-0.3040061499999988,9.89490985,8.999999999999999e-08,0.0,0.0,0.0,8.999999999999999e-08,0.0,0.0,0.0,8.999999999999999e-08
1729690895.9573488,1665,1729690895,955093056,base_link,0.017696946315411036,-0.03445595081850279,-0.8956721872227356,-0.44302476068493435,1.0,0.0,0.0,0.0,1.0,0.0,0.0,0.0,1.0,-0.1744568645954132,-0.12985832989215865,-1.1364206075668335,1.2184696791468346e-07,0.0,0.0,0.0,1.2184696791468346e-07,0.0,0.0,0.0,1.2184696791468346e-07,-0.24516625,0.6668522000000012,10.2773692,8.999999999999999e-08,0.0,0.0,0.0,8.999999999999999e-08,0.0,0.0,0.0,8.999999999999999e-08
1729690896.05401,1666,1729690896,53088704,base_link,0.017183186485356442,-0.025176548623794752,-0.8721684451903845,-0.48825514100292927,1.0,0.0,0.0,0.0,1.0,0.0,0.0,0.0,1.0,0.012453831732273102,-0.14771227538585674,-0.9079808592796326,1.2184696791468346e-07,0.0,0.0,0.0,1.2184696791468346e-07,0.0,0.0,0.0,1.2184696791468346e-07,-0.48052585000000003,1.2165808405785551e-15,9.93413645,8.999999999999999e-08,0.0,0.0,0.0,8.999999999999999e-08,0.0,0.0,0.0,8.999999999999999e-08
1729690896.1570714,1667,1729690896,155086144,base_link,0.017554636784624926,-0.01631025471128295,-0.8451267362289596,-0.5340286603072903,1.0,0.0,0.0,0.0,1.0,0.0,0.0,0.0,1.0,-0.01944468915462494,-0.13525448739528667,-0.9481334090232849,1.2184696791468346e-07,0.0,0.0,0.0,1.2184696791468346e-07,0.0,0.0,0.0,1.2184696791468346e-07,0.08825985,0.06864655000000128,10.38524235,8.999999999999999e-08,0.0,0.0,0.0,8.999999999999999e-08,0.0,0.0,0.0,8.999999999999999e-08
1729690896.258809,1668,1729690896,255084608,base_link,0.019140749765321645,-0.00738232667719945,-0.8166628835727217,-0.5767502644524231,1.0,0.0,0.0,0.0,1.0,0.0,0.0,0.0,1.0,-0.3506225049495697,-0.027294943109154837,-1.096343994140625,1.2184696791468346e-07,0.0,0.0,0.0,1.2184696791468346e-07,0.0,0.0,0.0,1.2184696791468346e-07,0.0588399,-0.37265269999999884,9.3947707,8.999999999999999e-08,0.0,0.0,0.0,8.999999999999999e-08,0.0,0.0,0.0,8.999999999999999e-08
1729690896.3538942,1669,1729690896,353080512,base_link,0.018160491062905616,0.00011646524365646579,-0.7873199874400942,-0.61627706462072,1.0,0.0,0.0,0.0,1.0,0.0,0.0,0.0,1.0,0.07190466672182083,-0.19046913087368023,-0.9290676116943359,1.2184696791468346e-07,0.0,0.0,0.0,1.2184696791468346e-07,0.0,0.0,0.0,1.2184696791468346e-07,-0.73549875,-0.46091254999999876,10.16949605,8.999999999999999e-08,0.0,0.0,0.0,8.999999999999999e-08,0.0,0.0,0.0,8.999999999999999e-08
1729690896.4539886,1670,1729690896,453080000,base_link,0.01387115362126077,0.011397515147097559,-0.7566195662859367,-0.6536088430085442,1.0,0.0,0.0,0.0,1.0,0.0,0.0,0.0,1.0,-0.06567598134279251,-0.23301078379154216,-0.9138193130493164,1.2184696791468346e-07,0.0,0.0,0.0,1.2184696791468346e-07,0.0,0.0,0.0,1.2184696791468346e-07,-0.18632635,-0.8531785499999988,10.4538889,8.999999999999999e-08,0.0,0.0,0.0,8.999999999999999e-08,0.0,0.0,0.0,8.999999999999999e-08
1729690896.5549417,1671,1729690896,553079232,base_link,0.00975014658215602,0.02328485805580263,-0.7256923172342633,-0.6875561146074646,1.0,0.0,0.0,0.0,1.0,0.0,0.0,0.0,1.0,0.07237962633371353,-0.1969624459743501,-0.797325849533081,1.2184696791468346e-07,0.0,0.0,0.0,1.2184696791468346e-07,0.0,0.0,0.0,1.2184696791468346e-07,-0.38245935,-0.4412992499999987,10.60098865,8.999999999999999e-08,0.0,0.0,0.0,8.999999999999999e-08,0.0,0.0,0.0,8.999999999999999e-08
1729690896.654895,1672,1729690896,653078720,base_link,0.006113664265816514,0.033394977080307926,-0.6948183916913269,-0.7183834638843856,1.0,0.0,0.0,0.0,1.0,0.0,0.0,0.0,1.0,-0.11758073419332504,-0.16898797452449807,-0.721959114074707,1.2184696791468346e-07,0.0,0.0,0.0,1.2184696791468346e-07,0.0,0.0,0.0,1.2184696791468346e-07,0.08825985,-0.9708583499999988,10.0812362,8.999999999999999e-08,0.0,0.0,0.0,8.999999999999999e-08,0.0,0.0,0.0,8.999999999999999e-08
1729690896.755226,1673,1729690896,753078464,base_link,0.003069152596710594,0.04092306698858253,-0.6641133031876338,-0.7465047912905823,1.0,0.0,0.0,0.0,1.0,0.0,0.0,0.0,1.0,-0.006416697055101395,-0.19412885606288918,-0.7289895415306091,1.2184696791468346e-07,0.0,0.0,0.0,1.2184696791468346e-07,0.0,0.0,0.0,1.2184696791468346e-07,-0.0784532,0.019613300000000958,7.81590005,8.999999999999999e-08,0.0,0.0,0.0,8.999999999999999e-08,0.0,0.0,0.0,8.999999999999999e-08
1729690896.8563082,1674,1729690896,855076160,base_link,-0.0007847973827438077,0.04741900341983643,-0.6337595847983901,-0.772074873884593,1.0,0.0,0.0,0.0,1.0,0.0,0.0,0.0,1.0,0.17396855354309082,-0.21117584407329568,-0.5784785151481628,1.2184696791468346e-07,0.0,0.0,0.0,1.2184696791468346e-07,0.0,0.0,0.0,1.2184696791468346e-07,0.0392266,-0.3530393999999989,9.0025047,8.999999999999999e-08,0.0,0.0,0.0,8.999999999999999e-08,0.0,0.0,0.0,8.999999999999999e-08
1729690896.9742181,1675,1729690896,954070016,base_link,-0.003786194571807041,0.04913702365592101,-0.6041547408486209,-0.7953416038074694,1.0,0.0,0.0,0.0,1.0,0.0,0.0,0.0,1.0,0.030301321297883987,-0.0028304103761912394,-0.8191218972206116,1.2184696791468346e-07,0.0,0.0,0.0,1.2184696791468346e-07,0.0,0.0,0.0,1.2184696791468346e-07,0.36284605000000003,-0.657045549999999,8.24739265,8.999999999999999e-08,0.0,0.0,0.0,8.999999999999999e-08,0.0,0.0,0.0,8.999999999999999e-08
1729690897.0543866,1676,1729690897,53066432,base_link,-0.00883493862714436,0.05005092085695354,-0.5739915684187604,-0.817282404414164,1.0,0.0,0.0,0.0,1.0,0.0,0.0,0.0,1.0,-0.05346812307834625,-0.03215033933520327,-0.7994886040687561,1.2184696791468346e-07,0.0,0.0,0.0,1.2184696791468346e-07,0.0,0.0,0.0,1.2184696791468346e-07,-0.4118793,0.04903325000000117,9.60071035,8.999999999999999e-08,0.0,0.0,0.0,8.999999999999999e-08,0.0,0.0,0.0,8.999999999999999e-08
1729690897.158853,1677,1729690897,155066432,base_link,-0.010252440156506943,0.04579455973335309,-0.543353241107733,-0.838191506248654,1.0,0.0,0.0,0.0,1.0,0.0,0.0,0.0,1.0,0.1472773551940918,0.0630435645580291,-0.6230207085609436,1.2184696791468346e-07,0.0,0.0,0.0,1.2184696791468346e-07,0.0,0.0,0.0,1.2184696791468346e-07,0.0784532,0.19613300000000114,9.40457735,8.999999999999999e-08,0.0,0.0,0.0,8.999999999999999e-08,0.0,0.0,0.0,8.999999999999999e-08
1729690897.255003,1678,1729690897,254064896,base_link,-0.010847472416587883,0.04342786793209994,-0.5222957177337482,-0.8515888302849165,1.0,0.0,0.0,0.0,1.0,0.0,0.0,0.0,1.0,-0.1953834444284439,-0.02724526822566993,-0.5558927655220032,1.2184696791468346e-07,0.0,0.0,0.0,1.2184696791468346e-07,0.0,0.0,0.0,1.2184696791468346e-07,0.24516625,-0.5883989999999988,9.5712904,8.999999999999999e-08,0.0,0.0,0.0,8.999999999999999e-08,0.0,0.0,0.0,8.999999999999999e-08
1729690897.356644,1679,1729690897,355064896,base_link,-0.013223322813734277,0.046028356623791254,-0.501456055564011,-0.863856677035294,1.0,0.0,0.0,0.0,1.0,0.0,0.0,0.0,1.0,-0.2093113511800766,0.03713942691683762,-0.5541768670082092,1.2184696791468346e-07,0.0,0.0,0.0,1.2184696791468346e-07,0.0,0.0,0.0,1.2184696791468346e-07,-0.4314926,-0.8727918499999986,11.3953273,8.999999999999999e-08,0.0,0.0,0.0,8.999999999999999e-08,0.0,0.0,0.0,8.999999999999999e-08
1729690897.4549944,1680,1729690897,453067712,base_link,-0.012559426277256446,0.04896916060595809,-0.4883585093132188,-0.8711775068850806,1.0,0.0,0.0,0.0,1.0,0.0,0.0,0.0,1.0,-0.2051793336868286,-0.08404635637998584,-0.18078209459781647,1.2184696791468346e-07,0.0,0.0,0.0,1.2184696791468346e-07,0.0,0.0,0.0,1.2184696791468346e-07,-0.3530394,-0.06864654999999872,10.46369555,8.999999999999999e-08,0.0,0.0,0.0,8.999999999999999e-08,0.0,0.0,0.0,8.999999999999999e-08
1729690897.5567968,1681,1729690897,554065664,base_link,-0.014661555793180927,0.052360949852244904,-0.4775136169139879,-0.8769402005690098,1.0,0.0,0.0,0.0,1.0,0.0,0.0,0.0,1.0,0.14255569875240326,-0.1455225646495819,-0.007611954584717732,1.2184696791468346e-07,0.0,0.0,0.0,1.2184696791468346e-07,0.0,0.0,0.0,1.2184696791468346e-07,-0.4314926,-0.25497289999999906,7.65899365,8.999999999999999e-08,0.0,0.0,0.0,8.999999999999999e-08,0.0,0.0,0.0,8.999999999999999e-08
1729690897.6550837,1682,1729690897,654065920,base_link,-0.0199867594379444,0.05330223250921845,-0.4698638729687289,-0.8809014373558084,1.0,0.0,0.0,0.0,1.0,0.0,0.0,0.0,1.0,0.011906992644071579,-0.15050117671489716,0.05063915625214579,1.2184696791468346e-07,0.0,0.0,0.0,1.2184696791468346e-07,0.0,0.0,0.0,1.2184696791468346e-07,0.5099458,0.2843928500000009,7.3549875,8.999999999999999e-08,0.0,0.0,0.0,8.999999999999999e-08,0.0,0.0,0.0,8.999999999999999e-08
1729690897.7549517,1683,1729690897,754066688,base_link,-0.026225160610085514,0.05820732549461814,-0.461679333615968,-0.8847464840968033,1.0,0.0,0.0,0.0,1.0,0.0,0.0,0.0,1.0,0.23467803001403809,-0.11351467669010167,-0.38816630840301514,1.2184696791468346e-07,0.0,0.0,0.0,1.2184696791468346e-07,0.0,0.0,0.0,1.2184696791468346e-07,-0.0196133,-0.696272149999999,8.041453,8.999999999999999e-08,0.0,0.0,0.0,8.999999999999999e-08,0.0,0.0,0.0,8.999999999999999e-08
1729690897.8540626,1684,1729690897,853068992,base_link,-0.0301142572383554,0.062002323837713515,-0.38524799982527214,-0.9202351992726274,1.0,0.0,0.0,0.0,1.0,0.0,0.0,0.0,1.0,0.22232599556446075,-0.06098658964037897,-0.1544756293296814,1.2184696791468346e-07,0.0,0.0,0.0,1.2184696791468346e-07,0.0,0.0,0.0,1.2184696791468346e-07,0.4314926,-0.7551120499999986,11.1403544,8.999999999999999e-08,0.0,0.0,0.0,8.999999999999999e-08,0.0,0.0,0.0,8.999999999999999e-08
1729690897.9564037,1685,1729690897,955067712,base_link,-0.03949932342905836,0.06354485961000525,-0.3785913298767559,-0.9225348010822902,1.0,0.0,0.0,0.0,1.0,0.0,0.0,0.0,1.0,-0.16897651553153992,0.043087843805551515,-0.12215700000524521,1.2184696791468346e-07,0.0,0.0,0.0,1.2184696791468346e-07,0.0,0.0,0.0,1.2184696791468346e-07,0.22555295,-0.14709974999999886,9.18883105,8.999999999999999e-08,0.0,0.0,0.0,8.999999999999999e-08,0.0,0.0,0.0,8.999999999999999e-08
1729690898.0547023,1686,1729690898,53067968,base_link,-0.03987559631623073,0.06051379158628129,-0.3616621299744976,-0.9294883117008985,1.0,0.0,0.0,0.0,1.0,0.0,0.0,0.0,1.0,0.3104180097579956,0.07759968936443329,0.014529086649417869,1.2184696791468346e-07,0.0,0.0,0.0,1.2184696791468346e-07,0.0,0.0,0.0,1.2184696791468346e-07,0.06864655,0.02941995000000119,9.69877685,8.999999999999999e-08,0.0,0.0,0.0,8.999999999999999e-08,0.0,0.0,0.0,8.999999999999999e-08
1729690898.155401,1687,1729690898,154066432,base_link,-0.03497113695036239,0.054523413860551026,-0.34696950237653035,-0.9356368854112009,1.0,0.0,0.0,0.0,1.0,0.0,0.0,0.0,1.0,-0.018912939354777336,0.15815542638301847,-0.18626858294010165,1.2184696791468346e-07,0.0,0.0,0.0,1.2184696791468346e-07,0.0,0.0,0.0,1.2184696791468346e-07,1.02969825,-0.4216859499999988,9.71839015,8.999999999999999e-08,0.0,0.0,0.0,8.999999999999999e-08,0.0,0.0,0.0,8.999999999999999e-08
1729690898.2549052,1688,1729690898,253071040,base_link,-0.03016236936272608,0.04988508843164182,-0.34046523294344877,-0.9384482588738481,1.0,0.0,0.0,0.0,1.0,0.0,0.0,0.0,1.0,-0.2092299908399582,0.07099273800849913,-0.12426941841840745,1.2184696791468346e-07,0.0,0.0,0.0,1.2184696791468346e-07,0.0,0.0,0.0,1.2184696791468346e-07,0.4707192,0.058839900000001166,9.50264385,8.999999999999999e-08,0.0,0.0,0.0,8.999999999999999e-08,0.0,0.0,0.0,8.999999999999999e-08
1729690898.355677,1689,1729690898,354070528,base_link,-0.026092168952428524,0.04682174524543126,-0.3354907825380933,-0.94051733515311,1.0,0.0,0.0,0.0,1.0,0.0,0.0,0.0,1.0,-0.006383010186254978,0.2227155119180679,-0.1680497229099274,1.2184696791468346e-07,0.0,0.0,0.0,1.2184696791468346e-07,0.0,0.0,0.0,1.2184696791468346e-07,-0.1765197,-0.4118792999999986,11.60126695,8.999999999999999e-08,0.0,0.0,0.0,8.999999999999999e-08,0.0,0.0,0.0,8.999999999999999e-08
1729690898.4546924,1690,1729690898,453071040,base_link,-0.02288572953958839,0.04440061049777499,-0.3347680722815856,-0.9409756463117083,1.0,0.0,0.0,0.0,1.0,0.0,0.0,0.0,1.0,-0.129292294383049,0.011943565681576736,0.053764987736940384,1.2184696791468346e-07,0.0,0.0,0.0,1.2184696791468346e-07,0.0,0.0,0.0,1.2184696791468346e-07,0.4707192,-0.8041452999999986,11.73856005,8.999999999999999e-08,0.0,0.0,0.0,8.999999999999999e-08,0.0,0.0,0.0,8.999999999999999e-08
1729690898.5545115,1691,1729690898,553067968,base_link,-0.018749803875342037,0.04551070921189778,-0.3348960821573457,-0.940968561832608,1.0,0.0,0.0,0.0,1.0,0.0,0.0,0.0,1.0,-0.13200248777866364,0.04319903254508973,0.03719560429453849,1.2184696791468346e-07,0.0,0.0,0.0,1.2184696791468346e-07,0.0,0.0,0.0,1.2184696791468346e-07,0.40207265000000003,-0.04903324999999912,7.1980811000000005,8.999999999999999e-08,0.0,0.0,0.0,8.999999999999999e-08,0.0,0.0,0.0,8.999999999999999e-08
1729690898.6580527,1692,1729690898,654065664,base_link,-0.018851143771085405,0.04551210072513987,-0.33537063370813475,-0.9407974389380057,1.0,0.0,0.0,0.0,1.0,0.0,0.0,0.0,1.0,0.15141966938972473,-0.00756136421114208,-0.13427336513996124,1.2184696791468346e-07,0.0,0.0,0.0,1.2184696791468346e-07,0.0,0.0,0.0,1.2184696791468346e-07,0.5099458,-1.0002782999999988,10.002783,8.999999999999999e-08,0.0,0.0,0.0,8.999999999999999e-08,0.0,0.0,0.0,8.999999999999999e-08
1729690898.761002,1693,1729690898,753065664,base_link,-0.025162355854856912,0.04800638429022761,-0.338411020948825,-0.9394361201356838,1.0,0.0,0.0,0.0,1.0,0.0,0.0,0.0,1.0,-0.1260213553905487,-0.149319052696228,0.2354337126016617,1.2184696791468346e-07,0.0,0.0,0.0,1.2184696791468346e-07,0.0,0.0,0.0,1.2184696791468346e-07,0.59820565,0.08825985000000129,10.5323421,8.999999999999999e-08,0.0,0.0,0.0,8.999999999999999e-08,0.0,0.0,0.0,8.999999999999999e-08
1729690898.8567212,1694,1729690898,855066432,base_link,-0.022808693711011886,0.05348855715363723,-0.344156860024499,-0.9371098086365848,1.0,0.0,0.0,0.0,1.0,0.0,0.0,0.0,1.0,-0.12233120948076248,-0.10864371061325072,0.15311452746391296,1.2184696791468346e-07,0.0,0.0,0.0,1.2184696791468346e-07,0.0,0.0,0.0,1.2184696791468346e-07,0.3138128,-0.666852199999999,8.36507245,8.999999999999999e-08,0.0,0.0,0.0,8.999999999999999e-08,0.0,0.0,0.0,8.999999999999999e-08
1729690898.9543157,1695,1729690898,953066176,base_link,-0.022630902770892868,0.05803571991691061,-0.35793126194562785,-0.9316678105287906,1.0,0.0,0.0,0.0,1.0,0.0,0.0,0.0,1.0,0.011269776150584221,-0.04745830595493313,0.28629109263420105,1.2184696791468346e-07,0.0,0.0,0.0,1.2184696791468346e-07,0.0,0.0,0.0,1.2184696791468346e-07,0.3530394,-1.0591181999999986,10.99325465,8.999999999999999e-08,0.0,0.0,0.0,8.999999999999999e-08,0.0,0.0,0.0,8.999999999999999e-08
1729690899.0557015,1696,1729690899,53061056,base_link,-0.01778395176953141,0.05637445139604256,-0.3730859749611449,-0.9259117169452744,1.0,0.0,0.0,0.0,1.0,0.0,0.0,0.0,1.0,-0.31084200739860535,0.0695564523339272,0.2837683856487274,1.2184696791468346e-07,0.0,0.0,0.0,1.2184696791468346e-07,0.0,0.0,0.0,1.2184696791468346e-07,0.61781895,0.18632635000000097,7.9237732,8.999999999999999e-08,0.0,0.0,0.0,8.999999999999999e-08,0.0,0.0,0.0,8.999999999999999e-08
1729690899.155153,1697,1729690899,154060032,base_link,-0.012841911059934532,0.0519945034640748,-0.38895660226798384,-0.9196980039567328,1.0,0.0,0.0,0.0,1.0,0.0,0.0,0.0,1.0,0.11855616420507431,0.16036057472229007,0.3117881417274475,1.2184696791468346e-07,0.0,0.0,0.0,1.2184696791468346e-07,0.0,0.0,0.0,1.2184696791468346e-07,0.9610517000000001,-0.7354987499999986,11.01286795,8.999999999999999e-08,0.0,0.0,0.0,8.999999999999999e-08,0.0,0.0,0.0,8.999999999999999e-08
1729690899.2542796,1698,1729690899,253062080,base_link,-0.012140417989630585,0.04949143451934358,-0.40675068314639795,-0.9121168181325203,1.0,0.0,0.0,0.0,1.0,0.0,0.0,0.0,1.0,0.06211666762828827,-0.09311194717884057,0.6142219305038452,1.2184696791468346e-07,0.0,0.0,0.0,1.2184696791468346e-07,0.0,0.0,0.0,1.2184696791468346e-07,0.8237586,-0.9022117999999986,11.179581,8.999999999999999e-08,0.0,0.0,0.0,8.999999999999999e-08,0.0,0.0,0.0,8.999999999999999e-08
1729690899.356214,1699,1729690899,355059520,base_link,-0.012179069739176084,0.048260394368078614,-0.42212167196348965,-0.9051717509149707,1.0,0.0,0.0,0.0,1.0,0.0,0.0,0.0,1.0,-0.20769086480140686,0.08972068876028068,0.549445629119873,1.2184696791468346e-07,0.0,0.0,0.0,1.2184696791468346e-07,0.0,0.0,0.0,1.2184696791468346e-07,0.20593965,-0.25497289999999906,7.67860695,8.999999999999999e-08,0.0,0.0,0.0,8.999999999999999e-08,0.0,0.0,0.0,8.999999999999999e-08
1729690899.4555645,1700,1729690899,454052864,base_link,-0.006139965508536458,0.04661341142388774,-0.4370779671430632,-0.8981939330328772,1.0,0.0,0.0,0.0,1.0,0.0,0.0,0.0,1.0,-0.24947325885295868,0.2232833802700043,0.23652824759483335,1.2184696791468346e-07,0.0,0.0,0.0,1.2184696791468346e-07,0.0,0.0,0.0,1.2184696791468346e-07,0.08825985,0.24516625000000106,8.5317855,8.999999999999999e-08,0.0,0.0,0.0,8.999999999999999e-08,0.0,0.0,0.0,8.999999999999999e-08
1729690899.554249,1701,1729690899,553048768,base_link,-0.0013964109900077403,0.044159631552296824,-0.45258432759255784,-0.8906264106768361,1.0,0.0,0.0,0.0,1.0,0.0,0.0,0.0,1.0,-0.08558300882577896,0.015504072420299102,0.3945804238319397,1.2184696791468346e-07,0.0,0.0,0.0,1.2184696791468346e-07,0.0,0.0,0.0,1.2184696791468346e-07,0.2941995,-0.2157462999999986,11.611073600000001,8.999999999999999e-08,0.0,0.0,0.0,8.999999999999999e-08,0.0,0.0,0.0,8.999999999999999e-08
1729690899.6566124,1702,1729690899,655048512,base_link,0.002449368545767095,0.04092148305414449,-0.4669187238502288,-0.8833494994261615,1.0,0.0,0.0,0.0,1.0,0.0,0.0,0.0,1.0,0.05135516822338104,0.011767968535423336,0.4605633318424225,1.2184696791468346e-07,0.0,0.0,0.0,1.2184696791468346e-07,0.0,0.0,0.0,1.2184696791468346e-07,0.57859235,-0.7453053999999988,10.6107953,8.999999999999999e-08,0.0,0.0,0.0,8.999999999999999e-08,0.0,0.0,0.0,8.999999999999999e-08
1729690899.755846,1703,1729690899,754049536,base_link,0.003250438971689265,0.03977242815837154,-0.4806194873943689,-0.876020831340016,1.0,0.0,0.0,0.0,1.0,0.0,0.0,0.0,1.0,0.23446322977542877,-0.1636438071727752,0.5006588697433472,1.2184696791468346e-07,0.0,0.0,0.0,1.2184696791468346e-07,0.0,0.0,0.0,1.2184696791468346e-07,0.4314926,-0.4707191999999989,9.22805765,8.999999999999999e-08,0.0,0.0,0.0,8.999999999999999e-08,0.0,0.0,0.0,8.999999999999999e-08
1729690899.8548129,1704,1729690899,853051072,base_link,0.0017888675546212443,0.03888972138803619,-0.49319784224538155,-0.8690456132607384,1.0,0.0,0.0,0.0,1.0,0.0,0.0,0.0,1.0,0.014988172799348831,0.04496397823095324,0.19167691469192505,1.2184696791468346e-07,0.0,0.0,0.0,1.2184696791468346e-07,0.0,0.0,0.0,1.2184696791468346e-07,0.57859235,-0.6178189499999989,9.7674234,8.999999999999999e-08,0.0,0.0,0.0,8.999999999999999e-08,0.0,0.0,0.0,8.999999999999999e-08
1729690899.9568665,1705,1729690899,955050048,base_link,0.00034459702365745326,0.03728486694404391,-0.5047838067048251,-0.8624401593377026,1.0,0.0,0.0,0.0,1.0,0.0,0.0,0.0,1.0,0.016849860548973083,0.010754670947790168,0.18563133478164673,1.2184696791468346e-07,0.0,0.0,0.0,1.2184696791468346e-07,0.0,0.0,0.0,1.2184696791468346e-07,0.0,-0.13729309999999867,10.787315,8.999999999999999e-08,0.0,0.0,0.0,8.999999999999999e-08,0.0,0.0,0.0,8.999999999999999e-08
1729690900.0582702,1706,1729690900,55050048,base_link,-0.002150305712259093,0.03330895541937399,-0.5133199123361412,-0.8575479912363099,1.0,0.0,0.0,0.0,1.0,0.0,0.0,0.0,1.0,0.013744291849434376,0.09096483886241914,0.11420126259326933,1.2184696791468346e-07,0.0,0.0,0.0,1.2184696791468346e-07,0.0,0.0,0.0,1.2184696791468346e-07,0.0196133,-0.11767979999999878,9.93413645,8.999999999999999e-08,0.0,0.0,0.0,8.999999999999999e-08,0.0,0.0,0.0,8.999999999999999e-08
1729690900.1558402,1707,1729690900,154047488,base_link,-0.003161084642924973,0.028125292441326395,-0.5183463710920964,-0.8547022961503173,1.0,0.0,0.0,0.0,1.0,0.0,0.0,0.0,1.0,0.2214541882276535,0.05850234627723695,0.08547867834568022,1.2184696791468346e-07,0.0,0.0,0.0,1.2184696791468346e-07,0.0,0.0,0.0,1.2184696791468346e-07,-0.30400615,0.12748645000000128,10.591182,8.999999999999999e-08,0.0,0.0,0.0,8.999999999999999e-08,0.0,0.0,0.0,8.999999999999999e-08
1729690900.2598968,1708,1729690900,258043648,base_link,-0.0038014629737745747,0.023732856779516306,-0.522844980468079,-0.8520888608517752,1.0,0.0,0.0,0.0,1.0,0.0,0.0,0.0,1.0,0.20358605682849884,-0.028294784948229762,0.2333143949508667,1.2184696791468346e-07,0.0,0.0,0.0,1.2184696791468346e-07,0.0,0.0,0.0,1.2184696791468346e-07,0.61781895,-0.49033249999999895,8.7083052,8.999999999999999e-08,0.0,0.0,0.0,8.999999999999999e-08,0.0,0.0,0.0,8.999999999999999e-08
1729690900.3538384,1709,1729690900,353039808,base_link,-0.001281072814451172,0.02164423723180107,-0.5278342204509595,-0.8490706222500137,1.0,0.0,0.0,0.0,1.0,0.0,0.0,0.0,1.0,-0.04487225413322449,0.04826196283102039,0.2672369182109833,1.2184696791468346e-07,0.0,0.0,0.0,1.2184696791468346e-07,0.0,0.0,0.0,1.2184696791468346e-07,0.4707192,-0.33342609999999895,8.81617835,8.999999999999999e-08,0.0,0.0,0.0,8.999999999999999e-08,0.0,0.0,0.0,8.999999999999999e-08
1729690900.4559383,1710,1729690900,454037248,base_link,0.000415699793602334,0.019450979498059507,-0.5330686010725729,-0.8458483038587817,1.0,0.0,0.0,0.0,1.0,0.0,0.0,0.0,1.0,-0.14728371798992157,0.09036139398813249,0.059937253594398485,1.2184696791468346e-07,0.0,0.0,0.0,1.2184696791468346e-07,0.0,0.0,0.0,1.2184696791468346e-07,0.10787315,-0.6766588499999989,9.44380395,8.999999999999999e-08,0.0,0.0,0.0,8.999999999999999e-08,0.0,0.0,0.0,8.999999999999999e-08
1729690900.5564163,1711,1729690900,553029568,base_link,-0.00141595932654744,0.015625066985923634,-0.5388631037359821,-0.8422472367261855,1.0,0.0,0.0,0.0,1.0,0.0,0.0,0.0,1.0,0.1316407173871994,-0.04102855548262594,0.18347349762916565,1.2184696791468346e-07,0.0,0.0,0.0,1.2184696791468346e-07,0.0,0.0,0.0,1.2184696791468346e-07,-0.2157463,-0.12748644999999884,9.463417250000001,8.999999999999999e-08,0.0,0.0,0.0,8.999999999999999e-08,0.0,0.0,0.0,8.999999999999999e-08
1729690900.6550775,1712,1729690900,653029568,base_link,-0.0038404340007550577,0.013743868749277537,-0.5423571762546502,-0.8400268153479213,1.0,0.0,0.0,0.0,1.0,0.0,0.0,0.0,1.0,0.2564028799533844,-0.06752763688564298,0.1969892829656601,1.2184696791468346e-07,0.0,0.0,0.0,1.2184696791468346e-07,0.0,0.0,0.0,1.2184696791468346e-07,0.0,0.21574630000000108,8.6886919,8.999999999999999e-08,0.0,0.0,0.0,8.999999999999999e-08,0.0,0.0,0.0,8.999999999999999e-08
1729690900.7558227,1713,1729690900,755042880,base_link,-0.004196178683880573,0.011298788750431403,-0.5459328666691687,-0.837742224402954,1.0,0.0,0.0,0.0,1.0,0.0,0.0,0.0,1.0,-0.031906791031360626,0.11171349138021469,-0.054900199174880995,1.2184696791468346e-07,0.0,0.0,0.0,1.2184696791468346e-07,0.0,0.0,0.0,1.2184696791468346e-07,0.5687857000000001,-0.7256920999999988,9.2770909,8.999999999999999e-08,0.0,0.0,0.0,8.999999999999999e-08,0.0,0.0,0.0,8.999999999999999e-08
1729690900.8547745,1714,1729690900,854037248,base_link,-0.004202822750859636,0.011003714884230832,-0.5508707843759523,-0.8345074196558677,1.0,0.0,0.0,0.0,1.0,0.0,0.0,0.0,1.0,0.1629623919725418,-0.12318742275238033,0.31961095333099365,1.2184696791468346e-07,0.0,0.0,0.0,1.2184696791468346e-07,0.0,0.0,0.0,1.2184696791468346e-07,0.00980665,1.3919222055582877e-15,11.36590735,8.999999999999999e-08,0.0,0.0,0.0,8.999999999999999e-08,0.0,0.0,0.0,8.999999999999999e-08
1729690900.9589283,1715,1729690900,956037248,base_link,-0.003108388726237492,0.011664759746898588,-0.5554188949589847,-0.8314830860709762,1.0,0.0,0.0,0.0,1.0,0.0,0.0,0.0,1.0,-0.024829350411891937,0.06551629304885863,-0.0975850895047188,1.2184696791468346e-07,0.0,0.0,0.0,1.2184696791468346e-07,0.0,0.0,0.0,1.2184696791468346e-07,-0.06864655,-0.6080122999999985,11.67972015,8.999999999999999e-08,0.0,0.0,0.0,8.999999999999999e-08,0.0,0.0,0.0,8.999999999999999e-08
1729690901.0587583,1716,1729690901,55037248,base_link,-0.0038158671434654684,0.012926802865383035,-0.562485154072348,-0.8266975192740267,1.0,0.0,0.0,0.0,1.0,0.0,0.0,0.0,1.0,0.18105696141719818,-0.19723349809646604,0.29267385601997375,1.2184696791468346e-07,0.0,0.0,0.0,1.2184696791468346e-07,0.0,0.0,0.0,1.2184696791468346e-07,0.12748645,-0.11767979999999868,10.787315,8.999999999999999e-08,0.0,0.0,0.0,8.999999999999999e-08,0.0,0.0,0.0,8.999999999999999e-08
1729690901.1557608,1717,1729690901,153039808,base_link,-0.003445227670787669,0.014086259079240878,-0.5667621305614563,-0.8237538437378534,1.0,0.0,0.0,0.0,1.0,0.0,0.0,0.0,1.0,0.10715029388666153,-0.05263492465019226,0.010601024143397815,1.2184696791468346e-07,0.0,0.0,0.0,1.2184696791468346e-07,0.0,0.0,0.0,1.2184696791468346e-07,0.71588545,-0.3530393999999991,7.63938035,8.999999999999999e-08,0.0,0.0,0.0,8.999999999999999e-08,0.0,0.0,0.0,8.999999999999999e-08
1729690901.2558494,1718,1729690901,254039808,base_link,-0.005949981542807248,0.014832180441779943,-0.5705299778177066,-0.821121275180658,1.0,0.0,0.0,0.0,1.0,0.0,0.0,0.0,1.0,0.3098660111427307,-0.1993346810340881,0.2148646414279938,1.2184696791468346e-07,0.0,0.0,0.0,1.2184696791468346e-07,0.0,0.0,0.0,1.2184696791468346e-07,0.04903325,-0.09806649999999864,11.05209455,8.999999999999999e-08,0.0,0.0,0.0,8.999999999999999e-08,0.0,0.0,0.0,8.999999999999999e-08
1729690901.35406,1719,1729690901,353043136,base_link,-0.010725357663495456,0.016768849528529403,-0.5713557088215796,-0.8204611059553464,1.0,0.0,0.0,0.0,1.0,0.0,0.0,0.0,1.0,0.14730356633663177,-0.14758451282978058,-0.0064118141308426675,1.2184696791468346e-07,0.0,0.0,0.0,1.2184696791468346e-07,0.0,0.0,0.0,1.2184696791468346e-07,-0.28439285000000003,-0.5295590999999985,11.9444997,8.999999999999999e-08,0.0,0.0,0.0,8.999999999999999e-08,0.0,0.0,0.0,8.999999999999999e-08
1729690901.4629736,1720,1729690901,461041344,base_link,-0.017647910953073945,0.01806841864517706,-0.5704948652459051,-0.8209127189992318,1.0,0.0,0.0,0.0,1.0,0.0,0.0,0.0,1.0,0.26316192746162415,-0.029099155217409155,-0.171857088804245,1.2184696791468346e-07,0.0,0.0,0.0,1.2184696791468346e-07,0.0,0.0,0.0,1.2184696791468346e-07,0.3334261,-0.009806649999998735,10.32640245,8.999999999999999e-08,0.0,0.0,0.0,8.999999999999999e-08,0.0,0.0,0.0,8.999999999999999e-08
1729690901.5574348,1721,1729690901,554041088,base_link,-0.01930023197619413,0.018708345142332772,-0.5691636910263871,-0.8217847599492948,1.0,0.0,0.0,0.0,1.0,0.0,0.0,0.0,1.0,0.018024345859885216,-0.053366526961326585,0.13384902477264404,1.2184696791468346e-07,0.0,0.0,0.0,1.2184696791468346e-07,0.0,0.0,0.0,1.2184696791468346e-07,0.50013915,-0.5687856999999985,11.7875933,8.999999999999999e-08,0.0,0.0,0.0,8.999999999999999e-08,0.0,0.0,0.0,8.999999999999999e-08
1729690901.658868,1722,1729690901,655043904,base_link,-0.01805415076268142,0.018355321242685387,-0.5671069658757685,-0.8232416529048419,1.0,0.0,0.0,0.0,1.0,0.0,0.0,0.0,1.0,-0.21445795893669128,0.07123383134603498,-0.1937377005815506,1.2184696791468346e-07,0.0,0.0,0.0,1.2184696791468346e-07,0.0,0.0,0.0,1.2184696791468346e-07,0.1372931,0.1274864500000013,10.62060195,8.999999999999999e-08,0.0,0.0,0.0,8.999999999999999e-08,0.0,0.0,0.0,8.999999999999999e-08
1729690901.756497,1723,1729690901,754044928,base_link,-0.018213698154563397,0.01825988468253741,-0.564536802496079,-0.8250048705543611,1.0,0.0,0.0,0.0,1.0,0.0,0.0,0.0,1.0,0.08948379009962082,-0.011434799060225499,-0.09777979552745819,1.2184696791468346e-07,0.0,0.0,0.0,1.2184696791468346e-07,0.0,0.0,0.0,1.2184696791468346e-07,-0.10787315,0.18632635000000108,8.75733845,8.999999999999999e-08,0.0,0.0,0.0,8.999999999999999e-08,0.0,0.0,0.0,8.999999999999999e-08
1729690901.8552043,1724,1729690901,853045952,base_link,-0.018834799155677,0.020227103955245577,-0.5612855413252036,-0.8271605984968228,1.0,0.0,0.0,0.0,1.0,0.0,0.0,0.0,1.0,0.11207468807697296,-0.1262948215007782,0.00906397774815561,1.2184696791468346e-07,0.0,0.0,0.0,1.2184696791468346e-07,0.0,0.0,0.0,1.2184696791468346e-07,0.7060788,-0.07845319999999875,10.267562550000001,8.999999999999999e-08,0.0,0.0,0.0,8.999999999999999e-08,0.0,0.0,0.0,8.999999999999999e-08
1729690901.9560628,1725,1729690901,955045184,base_link,-0.017390306352818657,0.023545232707125125,-0.557503097389654,-0.8296586621392343,1.0,0.0,0.0,0.0,1.0,0.0,0.0,0.0,1.0,-0.2927120625972748,-0.08918429166078568,-0.03185302764177321,1.2184696791468346e-07,0.0,0.0,0.0,1.2184696791468346e-07,0.0,0.0,0.0,1.2184696791468346e-07,0.1765197,0.11767980000000135,10.9049948,8.999999999999999e-08,0.0,0.0,0.0,8.999999999999999e-08,0.0,0.0,0.0,8.999999999999999e-08
1729690902.0560195,1726,1729690902,54041856,base_link,-0.017631764145264208,0.02743497671369779,-0.5524075334418028,-0.8329359879021844,1.0,0.0,0.0,0.0,1.0,0.0,0.0,0.0,1.0,0.11849167943000793,-0.015803972259163863,-0.07007618993520737,1.2184696791468346e-07,0.0,0.0,0.0,1.2184696791468346e-07,0.0,0.0,0.0,1.2184696791468346e-07,-0.44129925000000003,-0.3922659999999989,9.1790244,8.999999999999999e-08,0.0,0.0,0.0,8.999999999999999e-08,0.0,0.0,0.0,8.999999999999999e-08
1729690902.1549773,1727,1729690902,153041600,base_link,-0.01657493378274463,0.029304205087710092,-0.5472082126363419,-0.8363191419294522,1.0,0.0,0.0,0.0,1.0,0.0,0.0,0.0,1.0,0.1055697351694107,-0.10324877500534058,0.005692226812243475,1.2184696791468346e-07,0.0,0.0,0.0,1.2184696791468346e-07,0.0,0.0,0.0,1.2184696791468346e-07,0.79433865,-0.12748644999999886,9.414384,8.999999999999999e-08,0.0,0.0,0.0,8.999999999999999e-08,0.0,0.0,0.0,8.999999999999999e-08
1729690902.2560942,1728,1729690902,254040832,base_link,-0.010792144965289827,0.0305188438768891,-0.5424865898254974,-0.839440545622481,1.0,0.0,0.0,0.0,1.0,0.0,0.0,0.0,1.0,-0.43826913833618164,0.0935428738594055,-0.13362516462802887,1.2184696791468346e-07,0.0,0.0,0.0,1.2184696791468346e-07,0.0,0.0,0.0,1.2184696791468346e-07,0.4903325,-0.49033249999999895,8.5121722,8.999999999999999e-08,0.0,0.0,0.0,8.999999999999999e-08,0.0,0.0,0.0,8.999999999999999e-08
1729690902.3551557,1729,1729690902,353042112,base_link,-0.009132231320286255,0.031227482417393263,-0.5365358561956516,-0.8432500944022379,1.0,0.0,0.0,0.0,1.0,0.0,0.0,0.0,1.0,0.1587328463792801,0.01619862765073775,-0.1109936535358429,1.2184696791468346e-07,0.0,0.0,0.0,1.2184696791468346e-07,0.0,0.0,0.0,1.2184696791468346e-07,-0.63743225,-0.3530393999999987,10.24794925,8.999999999999999e-08,0.0,0.0,0.0,8.999999999999999e-08,0.0,0.0,0.0,8.999999999999999e-08
1729690902.4591572,1730,1729690902,455039552,base_link,-0.008563126076617042,0.03172566943194816,-0.5295647246809994,-0.8476327961708584,1.0,0.0,0.0,0.0,1.0,0.0,0.0,0.0,1.0,0.10471927374601364,-0.11518748104572298,-0.09917123615741728,1.2184696791468346e-07,0.0,0.0,0.0,1.2184696791468346e-07,0.0,0.0,0.0,1.2184696791468346e-07,0.6864655,0.1569064000000012,9.75761675,8.999999999999999e-08,0.0,0.0,0.0,8.999999999999999e-08,0.0,0.0,0.0,8.999999999999999e-08
1729690902.5551362,1731,1729690902,554039296,base_link,-0.005855698415885629,0.03263605167414371,-0.5236271131982256,-0.8513020881278732,1.0,0.0,0.0,0.0,1.0,0.0,0.0,0.0,1.0,-0.22811119258403778,0.015649825334548912,-0.3251403570175171,1.2184696791468346e-07,0.0,0.0,0.0,1.2184696791468346e-07,0.0,0.0,0.0,1.2184696791468346e-07,0.5099458,-0.41187929999999895,8.62004535,8.999999999999999e-08,0.0,0.0,0.0,8.999999999999999e-08,0.0,0.0,0.0,8.999999999999999e-08
1729690902.6560402,1732,1729690902,653039040,base_link,-0.007892974514964717,0.035554605529755916,-0.5170428098070428,-0.8551843683123354,1.0,0.0,0.0,0.0,1.0,0.0,0.0,0.0,1.0,-0.10799039900302887,0.04688448458909985,-0.27759459614753723,1.2184696791468346e-07,0.0,0.0,0.0,1.2184696791468346e-07,0.0,0.0,0.0,1.2184696791468346e-07,-0.38245935,-0.6962721499999984,11.95430635,8.999999999999999e-08,0.0,0.0,0.0,8.999999999999999e-08,0.0,0.0,0.0,8.999999999999999e-08
