Time,header.seq,header.stamp.secs,header.stamp.nsecs,header.frame_id,twist.linear.x,twist.linear.y,twist.linear.z,twist.angular.x,twist.angular.y,twist.angular.z
1729690891.119678,1609,1729690890,370123008,base_link,1.4056509033035773,1.7570089917943534,-0.00792598620382869,-0.1890334188938141,-0.24333737790584561,0.19955988228321078
1729690891.1200507,1610,1729690890,468123008,base_link,1.4204042556267655,1.7058066555266516,-0.048549865334526245,0.2312648445367813,-0.1285464167594909,0.3853527307510376
1729690891.1202443,1611,1729690890,579123008,base_link,1.361612531815472,1.651904893844178,-0.06154731586285018,0.37443095445632935,-0.17261710762977597,0.2626557946205139
1729690891.1204991,1612,1729690890,675123008,base_link,1.3177767562875162,1.5928897095039831,-0.16115328928883715,0.060124531388282776,-0.12134063988924021,0.4372924566268921
1729690891.1206486,1613,1729690890,768123008,base_link,1.278109262129587,1.5086746672876976,-0.1817498785889625,0.16723236441612244,-0.1339936554431915,0.23576417565345767
1729690891.1212394,1614,1729690890,887123008,base_link,1.1852299207729704,1.3965715250706159,-0.16606022929975758,-0.024815384298563004,0.08220876753330233,0.2666105031967163
1729690891.1215532,1615,1729690890,978123008,base_link,1.1107773794946127,1.3295038241371073,-0.22835067277150534,-0.09942485392093658,-0.04086826741695399,0.36842837929725647
1729690891.1219447,1616,1729690891,78123008,base_link,1.0369398608075804,1.2291004737403721,-0.24888598539549517,0.1322798877954483,-0.02988651767373081,0.3487776517868042
1729690891.1726644,1617,1729690891,169123008,base_link,0.9199013408449708,1.171901800172816,-0.1798058541476682,-0.1193230152130127,0.0350957550108433,0.1813129484653473
1729690891.2717273,1618,1729690891,268123008,base_link,0.833877064168369,1.1159474267287297,-0.25548092453369264,0.24682505428791046,-0.03163173794746394,0.4167937636375427
1729690891.3822873,1619,1729690891,380123008,base_link,0.6892037363780545,1.0594951563932682,-0.2040172254788253,0.34336134791374207,0.03716236352920534,0.15665355324745178
1729690891.4699395,1620,1729690891,468123008,base_link,0.601876796876872,1.0161094789288951,-0.20214471033663134,-0.09282425045967102,0.14072687923908236,0.2613759934902191
1729690891.5774162,1621,1729690891,575123008,base_link,0.5234326851071143,0.9404606885137088,-0.2509324739368145,-0.1085696890950203,0.13401888310909274,0.14571563899517057
1729690891.6737204,1622,1729690891,671121216,base_link,0.440918199058009,0.8963200776470797,-0.17835647260241988,-0.2563888728618622,0.37216052412986755,0.2209531664848327
1729690891.7733457,1623,1729690891,771119424,base_link,0.40469814996635295,0.8957311686608767,-0.1344727825639691,-0.2493980973958969,0.2523418068885803,0.05936769396066663
1729690891.8736653,1624,1729690891,869119424,base_link,0.34605276560395554,0.8599415339488381,-0.12537934747916143,-0.17605270445346832,-0.026063673198223076,0.30094316601753235
1729690891.9693685,1625,1729690891,966115584,base_link,0.3404645971350802,0.8810257817571513,-0.11538106061604442,0.13642151653766632,-0.26995271444320673,0.43611288070678716
1729690892.0723715,1626,1729690892,69113536,base_link,0.2802186712516998,0.8873920147820783,-0.09181835916543049,0.4125381410121918,-0.11740092188119883,0.42220401763916016
1729690892.1697419,1627,1729690892,166113280,base_link,0.2238189831026888,0.8769543678409181,-0.01214033597979989,0.10688652843236923,-0.13998751342296595,0.5562796592712402
1729690892.269613,1628,1729690892,266113024,base_link,0.1945388272464543,0.8820934494720204,-0.15174295182123398,0.6186415553092957,-0.04904171824455253,0.6806796193122864
1729690892.3696027,1629,1729690892,368112768,base_link,0.12758948945895154,0.8549689303859052,-0.10914638143719507,0.45400524139404297,0.049370400607586,0.7316404581069946
1729690892.470013,1630,1729690892,466112768,base_link,0.09727105938488316,0.8299929455839212,-0.06866990662709452,-0.03887694329023361,0.210842251777649,0.6728567481040955
1729690892.5702207,1631,1729690892,568113024,base_link,0.045535670238698076,0.8021228524089944,-0.13165329613998694,0.45316773653030396,-0.02799895405769338,0.8302382826805115
1729690892.6760333,1632,1729690892,673113792,base_link,-0.012770611099462214,0.7601245331340485,-0.03117125026509789,0.34060561656951904,0.07541668415069588,0.7124131917953491
1729690892.770456,1633,1729690892,768114560,base_link,-0.038706544834611695,0.7125419930724367,0.006052324682423129,0.006735815200954676,0.1271565258502961,0.6469129323959351
1729690892.8709064,1634,1729690892,868113792,base_link,-0.07389326020844796,0.703163649422802,-0.07625193400005614,0.2384679615497589,-0.006490825675427817,0.7879000306129456
1729690892.9863305,1635,1729690892,983113280,base_link,-0.11671884948825877,0.6281169338174594,-0.0671691727043019,0.1939154863357544,0.06638453900814067,0.883057177066803
1729690893.0755036,1636,1729690893,73113280,base_link,-0.11506735274390716,0.5834509698750542,-0.0874413100949402,0.4465441107749939,0.1550346314907075,0.7939257025718689
1729690893.1674173,1637,1729690893,162113280,base_link,-0.18026036307336285,0.5496293856213053,-0.11133941200537281,-0.031336866319179535,-0.1594358086585998,0.4182864725589752
1729690893.2687137,1638,1729690893,266113280,base_link,-0.23929209657136094,0.5193631121351343,0.03632691420083859,-0.30725759267807007,0.07206360995769509,0.6957773566246033
1729690893.3683996,1639,1729690893,366113536,base_link,-0.30377043642867874,0.5640396397084153,-0.014436948528931653,-0.2850073575973511,-0.08654273301362984,0.587517499923706
1729690893.4680176,1640,1729690893,466110720,base_link,-0.3571613259571553,0.6162825050715874,0.06813282148313951,-0.5649262070655823,0.05279904976487165,0.4542357325553894
1729690893.5681214,1641,1729690893,566110464,base_link,-0.4170632685054488,0.7015240425245277,0.11096411426941127,0.27176663279533386,-0.033490054309368064,0.5617397427558899
1729690893.665423,1642,1729690893,663110208,base_link,-0.42964470243946995,0.7958934652505987,0.13438707886367604,0.28966566920280457,0.26852878928184515,0.4675941169261932
1729690893.7703166,1643,1729690893,768110464,base_link,-0.47670583661978294,0.841528833085157,0.1804115108733811,0.6182692050933838,0.17647610604763034,0.2943556308746338
1729690893.8674302,1644,1729690893,866109696,base_link,-0.47262323757468877,0.8455142735117357,0.0655414872263253,0.8521391749382019,0.13638272881507876,0.20965684950351712
1729690893.9684057,1645,1729690893,966108672,base_link,-0.5071066122230912,0.7781527376647519,-0.038961501532548216,0.6403446197509766,0.10032499581575396,0.18242330849170685
1729690894.070329,1646,1729690894,68108160,base_link,-0.5163031520971467,0.6411977158895595,-0.11739559069909919,0.8532955050468445,0.17667885124683386,0.4068930447101593
1729690894.168117,1647,1729690894,166109440,base_link,-0.554006409226714,0.5030787651535429,-0.11363472206243318,0.5086345672607422,0.04875991120934493,0.5536864399909973
1729690894.2744966,1648,1729690894,270109696,base_link,-0.5811869671113672,0.3407908234216553,0.024779394312157615,-0.6775251626968384,0.2570025622844696,0.12612298130989072
1729690894.3685462,1649,1729690894,367109440,base_link,-0.5966116343256929,0.2172579198727655,0.031489016468424405,-0.6673510074615479,0.17708934843540194,0.2989238500595093
1729690894.4695654,1650,1729690894,467107648,base_link,-0.6333398316082687,0.14098863573421513,0.0015510416359668273,-0.19479238986968994,0.047051422297954615,0.4706004559993744
1729690894.5683982,1651,1729690894,566108672,base_link,-0.6482336230260474,0.047610688070208344,0.06584546908826987,0.35301822423934937,0.1161518692970276,0.1644329726696014
1729690894.6684532,1652,1729690894,667106112,base_link,-0.6304220844698183,-0.009452394360031821,0.09683546023429478,0.16010808944702148,0.3009970784187317,0.17887082695960996
1729690894.7685483,1653,1729690894,767105600,base_link,-0.6513023437013679,-0.07919285725922376,0.16212080754161456,0.1946815550327301,0.22729386389255526,0.2009288966655731
1729690894.8702064,1654,1729690894,867105344,base_link,-0.6296183918282224,-0.16439007649137855,0.2610144530609696,-0.20121027529239655,0.18947495520114901,0.24422182142734525
1729690894.9726279,1655,1729690894,970103552,base_link,-0.6034309884455259,-0.21620890028338938,0.2706873563171504,-0.03891874849796295,0.11225212365388876,0.48221084475517273
1729690895.0676591,1656,1729690895,65103552,base_link,-0.580990434664539,-0.2759810467336306,0.37185870189904935,-0.2709985375404358,0.08995008468627934,0.2952093482017517
1729690895.1858644,1657,1729690895,183101504,base_link,-0.5591855575082423,-0.3292932368041381,0.45860470986804747,-0.22914282977581024,0.001544885337352794,0.3385009765625
1729690895.2687895,1658,1729690895,266102016,base_link,-0.5292549181795154,-0.354515971675597,0.47388146209134746,-0.09951553493738174,-0.028425870463252033,0.27569106221199036
1729690895.3657002,1659,1729690895,363101248,base_link,-0.5232807986546063,-0.3760605526477698,0.5566458338496599,0.12883971631526947,-0.13439629971981049,0.04991378262639047
1729690895.4720218,1660,1729690895,469102528,base_link,-0.4604435766792958,-0.46013513626066926,0.6024168173880701,-0.17822158336639404,-0.09055977314710621,-0.30148768424987793
1729690895.5690672,1661,1729690895,567100736,base_link,-0.40708727283010404,-0.48172396873061885,0.6617739600033229,-0.16695530712604523,0.2739020287990569,-1.0046950578689575
1729690895.6687858,1662,1729690895,666098944,base_link,-0.2730629177925454,-0.5985747562354418,0.6419372129722106,0.0036257989704608917,0.13522939383983598,-1.0957626104354858
1729690895.769231,1663,1729690895,767097408,base_link,-0.1570950040396361,-0.6249589867550653,0.6797853787720828,0.10269689559936523,-0.07738537341356289,-0.9440985918045044
1729690895.8693128,1664,1729690895,867098432,base_link,-0.039509775586920405,-0.6480060577303411,0.7695788078335807,-0.08839654922485352,-0.04480811953544631,-1.1658002138137817
1729690895.9692996,1665,1729690895,968093056,base_link,0.1202980530974187,-0.6799187306507888,0.8069799499142146,-0.1744568645954132,-0.12985832989215865,-1.1364206075668335
1729690896.0664482,1666,1729690896,65088704,base_link,0.2543718472186599,-0.6846895029029353,0.7905832728848537,0.012453831732273102,-0.14771227538585674,-0.9079808592796326
1729690896.1692083,1667,1729690896,167086144,base_link,0.3839385376498653,-0.6865247217988263,0.812845397962257,-0.01944468915462494,-0.13525448739528667,-0.9481334090232849
1729690896.2696269,1668,1729690896,268084608,base_link,0.49599269891365333,-0.6721016834783475,0.8802512558619394,-0.3506225049495697,-0.027294943109154837,-1.096343994140625
1729690896.3674467,1669,1729690896,365080512,base_link,0.6004531837491118,-0.5898286331880441,0.814842970737322,0.07190466672182083,-0.19046913087368023,-0.9290676116943359
1729690896.4670184,1670,1729690896,466080000,base_link,0.680908203973644,-0.5135100685718943,0.8691506030730309,-0.06567598134279251,-0.23301078379154216,-0.9138193130493164
1729690896.5675466,1671,1729690896,563079232,base_link,0.722075117771522,-0.4207265762068369,0.8380746873024395,0.07237962633371353,-0.1969624459743501,-0.797325849533081
1729690896.6682258,1672,1729690896,666078720,base_link,0.7464577633852877,-0.3386532754524529,0.8329637893429034,-0.11758073419332504,-0.16898797452449807,-0.721959114074707
1729690896.767542,1673,1729690896,766078464,base_link,0.7435911253223426,-0.2575006817040841,0.7854135486959581,-0.006416697055101395,-0.19412885606288918,-0.7289895415306091
1729690896.8700745,1674,1729690896,868076160,base_link,0.7348663984114853,-0.16747177536007835,0.7456050967763582,0.17396855354309082,-0.21117584407329568,-0.5784785151481628
1729690896.983989,1675,1729690896,973070016,base_link,0.6883916861153578,-0.09015722937810793,0.7597906668952535,0.030301321297883987,-0.0028304103761912394,-0.8191218972206116
1729690897.0680208,1676,1729690897,66066432,base_link,0.6564444941120142,-0.04026405930800202,0.747630609494771,-0.05346812307834625,-0.03215033933520327,-0.7994886040687561
1729690897.1693647,1677,1729690897,168066432,base_link,0.617206199495684,0.012056363191966051,0.7205416443387613,0.1472773551940918,0.0630435645580291,-0.6230207085609436
1729690897.2680476,1678,1729690897,266064896,base_link,0.5810675660650481,0.062076342271513305,0.7449219305127933,-0.1953834444284439,-0.02724526822566993,-0.5558927655220032
1729690897.376529,1679,1729690897,375064896,base_link,0.519710043319342,0.07933081356163418,0.6699225711341081,-0.2093113511800766,0.03713942691683762,-0.5541768670082092
1729690897.4675505,1680,1729690897,465067712,base_link,0.46598063648175597,0.0901552579421536,0.7200035953367581,-0.2051793336868286,-0.08404635637998584,-0.18078209459781647
1729690897.5704534,1681,1729690897,569065664,base_link,0.44173222882550384,0.12822987378210218,0.5580022032871848,0.14255569875240326,-0.1455225646495819,-0.007611954584717732
1729690897.6671185,1682,1729690897,666065920,base_link,0.38449943226155364,0.15373822824659056,0.5851303295901684,0.011906992644071579,-0.15050117671489716,0.05063915625214579
1729690897.7682953,1683,1729690897,767066688,base_link,0.32921151843177426,0.13340989079255414,0.479296454230742,0.23467803001403809,-0.11351467669010167,-0.38816630840301514
1729690897.8671443,1684,1729690897,866068992,base_link,0.22664977976755987,0.14473128329561144,0.47869093809792634,0.22232599556446075,-0.06098658964037897,-0.1544756293296814
1729690897.9707057,1685,1729690897,969067712,base_link,0.15945426611755897,0.15529849503794585,0.46251665132240255,-0.16897651553153992,0.043087843805551515,-0.12215700000524521
1729690898.0718777,1686,1729690898,70067968,base_link,0.10901958447718166,0.11032329488822167,0.39786660431393656,0.3104180097579956,0.07759968936443329,0.014529086649417869
1729690898.1677272,1687,1729690898,166066432,base_link,0.028693038374272065,0.05151540124097149,0.29468157945694323,-0.018912939354777336,0.15815542638301847,-0.18626858294010165
1729690898.2732027,1688,1729690898,271071040,base_link,-0.024074646751287756,0.034174497862871044,0.23156931181092694,-0.2092299908399582,0.07099273800849913,-0.12426941841840745
1729690898.369411,1689,1729690898,367070528,base_link,-0.01917640644273637,0.005487635695482249,0.16795429113212304,-0.006383010186254978,0.2227155119180679,-0.1680497229099274
1729690898.4677958,1690,1729690898,466071040,base_link,-0.0802639179625803,-0.0310976808333586,0.16680217623247517,-0.129292294383049,0.011943565681576736,0.053764987736940384
1729690898.5675075,1691,1729690898,565067968,base_link,-0.053124734167829195,-0.044968095885891554,0.07764464479933285,-0.13200248777866364,0.04319903254508973,0.03719560429453849
1729690898.668268,1692,1729690898,667065664,base_link,-0.09021422004987983,-0.06128525128607461,0.013780243590212033,0.15141966938972473,-0.00756136421114208,-0.13427336513996124
1729690898.767799,1693,1729690898,763065664,base_link,-0.0915538684106664,-0.07412453517783774,0.009891766740900311,-0.1260213553905487,-0.149319052696228,0.2354337126016617
1729690898.8689206,1694,1729690898,867066432,base_link,-0.11583992279588044,-0.11345900334038433,-0.03805264023068397,-0.12233120948076248,-0.10864371061325072,0.15311452746391296
1729690898.964838,1695,1729690898,963066176,base_link,-0.1700618087567233,-0.12929706040410097,-0.02424314911910591,0.011269776150584221,-0.04745830595493313,0.28629109263420105
1729690899.0684988,1696,1729690899,65061056,base_link,-0.1837577377284374,-0.11242588442767487,-0.06258227222122392,-0.31084200739860535,0.0695564523339272,0.2837683856487274
1729690899.1684911,1697,1729690899,167060032,base_link,-0.20256745451392433,-0.09330086963727699,-0.11503359944660274,0.11855616420507431,0.16036057472229007,0.3117881417274475
1729690899.2675164,1698,1729690899,266062080,base_link,-0.263856593196621,-0.08609515207979414,-0.06304263952431635,0.06211666762828827,-0.09311194717884057,0.6142219305038452
1729690899.3686056,1699,1729690899,367059520,base_link,-0.2808464629260876,-0.08566651034772038,-0.041028866168696,-0.20769086480140686,0.08972068876028068,0.549445629119873
1729690899.4684708,1700,1729690899,467052864,base_link,-0.2896010421575339,-0.0810025588625168,-0.037298886659946844,-0.24947325885295868,0.2232833802700043,0.23652824759483335
1729690899.5646532,1701,1729690899,563048768,base_link,-0.29911967496738634,-0.05632414365720621,-0.0681413818690298,-0.08558300882577896,0.015504072420299102,0.3945804238319397
1729690899.6699667,1702,1729690899,668048512,base_link,-0.31216593030208584,-0.04313869022992525,-0.045399653251027794,0.05135516822338104,0.011767968535423336,0.4605633318424225
1729690899.771019,1703,1729690899,769049536,base_link,-0.31859835168844514,-0.003957646771937341,-0.0666437202264463,0.23446322977542877,-0.1636438071727752,0.5006588697433472
1729690899.8662207,1704,1729690899,864051072,base_link,-0.3310244084070946,0.02083457008879695,-0.004110437446849045,0.014988172799348831,0.04496397823095324,0.19167691469192505
1729690899.968998,1705,1729690899,967050048,base_link,-0.3514423232599132,0.06064694209862795,0.03052351117295936,0.016849860548973083,0.010754670947790168,0.18563133478164673
1729690900.070245,1706,1729690900,68050048,base_link,-0.3524852587573334,0.06935142659516638,0.07768730600422658,0.013744291849434376,0.09096483886241914,0.11420126259326933
1729690900.165354,1707,1729690900,164047488,base_link,-0.3441130931857701,0.09478714918979357,0.024002802857417876,0.2214541882276535,0.05850234627723695,0.08547867834568022
1729690900.2714994,1708,1729690900,269043648,base_link,-0.34836856375369635,0.1180747938260031,0.10000970860949779,0.20358605682849884,-0.028294784948229762,0.2333143949508667
1729690900.3672354,1709,1729690900,365039808,base_link,-0.3266921664023315,0.11188296078573477,0.08730751252288618,-0.04487225413322449,0.04826196283102039,0.2672369182109833
1729690900.4694748,1710,1729690900,467037248,base_link,-0.31747159770264594,0.10924283126005045,0.10352533415229867,-0.14728371798992157,0.09036139398813249,0.059937253594398485
1729690900.568503,1711,1729690900,566029568,base_link,-0.30515784723359596,0.1402518896343562,0.08563260040918005,0.1316407173871994,-0.04102855548262594,0.18347349762916565
1729690900.667308,1712,1729690900,666029568,base_link,-0.25008107283033815,0.12512852407619662,0.02482675031839668,0.2564028799533844,-0.06752763688564298,0.1969892829656601
1729690900.7692187,1713,1729690900,767042880,base_link,-0.23053391215064561,0.10607841102786537,0.09050468965477414,-0.031906791031360626,0.11171349138021469,-0.054900199174880995
1729690900.8743334,1714,1729690900,872037248,base_link,-0.18394219352120217,0.08595781950148808,0.09012578260168658,0.1629623919725418,-0.12318742275238033,0.31961095333099365
1729690900.970354,1715,1729690900,968037248,base_link,-0.15433601021926982,0.07929033947944843,0.07423727988577922,-0.024829350411891937,0.06551629304885863,-0.0975850895047188
1729690901.0674236,1716,1729690901,65037248,base_link,-0.13082449752213626,0.08868718070364529,0.10726981608846936,0.18105696141719818,-0.19723349809646604,0.29267385601997375
1729690901.171326,1717,1729690901,169039808,base_link,-0.0773567279794132,0.07794939202325896,0.0736755304795282,0.10715029388666153,-0.05263492465019226,0.010601024143397815
1729690901.2754998,1718,1729690901,273039808,base_link,-0.033702279616310525,0.06907551421324938,0.10437420189572821,0.3098660111427307,-0.1993346810340881,0.2148646414279938
1729690901.3743613,1719,1729690901,372043136,base_link,-0.018463826100718814,0.08825446984238368,0.0911360398755913,0.14730356633663177,-0.14758451282978058,-0.0064118141308426675
1729690901.4766653,1720,1729690901,473041344,base_link,0.024290648950949352,0.07228988852710225,0.024711753879372213,0.26316192746162415,-0.029099155217409155,-0.171857088804245
1729690901.5755563,1721,1729690901,572041088,base_link,0.015089398328125064,0.058918443191078564,0.06552105695328185,0.018024345859885216,-0.053366526961326585,0.13384902477264404
1729690901.6768672,1722,1729690901,675043904,base_link,0.01993323195317825,0.05809676083663217,0.04801142560980505,-0.21445795893669128,0.07123383134603498,-0.1937377005815506
1729690901.7752495,1723,1729690901,773044928,base_link,0.047017798482174564,0.01900112222029819,0.10788428326610336,0.08948379009962082,-0.011434799060225499,-0.09777979552745819
1729690901.8748243,1724,1729690901,873045952,base_link,0.05166481546633135,0.021125648970053413,0.09922717192812064,0.11207468807697296,-0.1262948215007782,0.00906397774815561
1729690901.9701836,1725,1729690901,967045184,base_link,0.04454250028252129,-0.01227631297421497,0.1376105694111719,-0.2927120625972748,-0.08918429166078568,-0.03185302764177321
1729690902.0755656,1726,1729690902,73041856,base_link,0.056979016662633344,-0.04457783858899146,0.1322220246795258,0.11849167943000793,-0.015803972259163863,-0.07007618993520737
1729690902.1702724,1727,1729690902,169041600,base_link,0.05548027509503408,-0.056778427975805075,0.033799378155000045,0.1055697351694107,-0.10324877500534058,0.005692226812243475
1729690902.269867,1728,1729690902,267040832,base_link,0.05037501513336231,-0.071727834722138,0.12103067370813578,-0.43826913833618164,0.0935428738594055,-0.13362516462802887
1729690902.3676536,1729,1729690902,363042112,base_link,0.039793998416606406,-0.06921478635586115,0.05963728954622453,0.1587328463792801,0.01619862765073775,-0.1109936535358429
1729690902.4705858,1730,1729690902,467039552,base_link,0.05491517286938778,-0.07607934672225072,0.012477626183982026,0.10471927374601364,-0.11518748104572298,-0.09917123615741728
1729690902.5691845,1731,1729690902,566039296,base_link,0.05784389362234551,-0.06710724844202019,0.058218814887996906,-0.22811119258403778,0.015649825334548912,-0.3251403570175171
1729690902.6701417,1732,1729690902,668039040,base_link,0.03805651048195952,-0.0643315346978766,0.07174726987186682,-0.10799039900302887,0.04688448458909985,-0.27759459614753723
1729690902.7702703,1733,1729690902,769038272,base_link,0.005137672406740915,-0.048566793104418235,-0.023807057668967117,0.044041506946086884,-0.011600379832088963,-0.1297990083694458
1729690902.8698378,1734,1729690902,868037760,base_link,-0.005183815215239069,-0.05226604248170822,0.023132358019100855,0.019699685275554657,-0.13698390126228333,0.06287367641925813
1729690902.9690418,1735,1729690902,967036992,base_link,1.506871841166124e-06,-0.046539147581010194,0.005835162586379193,-0.024553678929805756,-0.0018812511116266227,0.01884462498128414
1729690903.0695062,1736,1729690903,68033408,base_link,-0.030929084263303395,-0.05952529484612039,-0.026394283562756894,-0.21626083552837372,-0.007607756182551358,0.21491698920726776
1729690903.168606,1737,1729690903,167034176,base_link,-0.034248038800536576,-0.0903096028076665,0.008405562220537987,-0.1397782266139984,0.07031495869159701,0.25209352374076843
1729690903.2677963,1738,1729690903,265035968,base_link,-0.03778852385773372,-0.08367966698060901,-0.0579323228578808,0.10294321924448013,-0.0037940479815006165,0.07303942739963531
1729690903.3720253,1739,1729690903,369033920,base_link,-0.07491519501666473,-0.07761587323165084,-0.032519230143919386,0.04762057214975357,-0.005384438671171647,0.15197458863258362
1729690903.465959,1740,1729690903,463035456,base_link,-0.06047214763059982,-0.07543705907529562,-0.007298159042528731,-0.18968619406223297,0.10534258931875227,-0.11801639944314958
1729690903.570398,1741,1729690903,567032640,base_link,-0.07212898138121746,-0.04370310897073363,-0.03589997121625611,0.07178594172000885,0.03998769447207453,0.15452158451080322
1729690903.6688876,1742,1729690903,666031360,base_link,-0.09444927837537155,-0.045342027267333225,0.01406321502980453,-0.022970840334892273,-0.028747349977493248,0.3111461400985718
1729690903.7697058,1743,1729690903,767028032,base_link,-0.07500106791089545,-0.06917717961997862,-0.008596909346723955,-0.11006323993206024,0.09293098747730258,0.21516606211662292
1729690903.8697948,1744,1729690903,867025216,base_link,-0.09020956507201834,-0.0629054004369571,-0.04690089508420007,0.0898609310388565,0.01971331052482126,-0.15736326575279236
1729690903.9678402,1745,1729690903,966024960,base_link,-0.097852614168267,-0.05004237645895395,-0.015332214327324897,0.13052526116371155,-0.12728227674961087,0.28213539719581604
1729690904.0679317,1746,1729690904,65023168,base_link,-0.06714250645568574,-0.04935264064248027,-0.017319146649050283,-0.21851636469364166,0.026658028364181546,0.22217682003974915
1729690904.1682935,1747,1729690904,166022912,base_link,-0.07349045538540129,-0.0710740261546414,-0.07182583204872953,-0.04188019782304764,0.09040455520153043,-0.25156545639038086
1729690904.2678595,1748,1729690904,266024192,base_link,-0.07922152199388072,-0.07911696953502746,-0.02747496362317829,-0.1831648349761963,0.1013644263148308,0.07788665592670439
1729690904.3720489,1749,1729690904,370021376,base_link,-0.08917547609908537,-0.048274876725257466,0.014508840878726064,-0.12286245822906494,0.015801347792148576,-0.10065893083810806
1729690904.4689386,1750,1729690904,466022912,base_link,-0.07381305246398975,-0.015686301634886803,-0.053410342172950674,0.007026646286249161,0.04789977893233299,-0.007675002794712788
1729690904.566802,1751,1729690904,565021888,base_link,-0.06159600248672051,-0.007302551652301851,-0.024266724217551414,-0.20349548757076263,0.07110494375228885,0.17640730738639832
1729690904.6688743,1752,1729690904,667020096,base_link,-0.06558651177164539,0.012009488103815332,-0.08600155305474075,0.12110113352537155,0.04713784158229827,-0.07498691976070404
1729690904.7697358,1753,1729690904,768020352,base_link,-0.06121820525835398,0.042999210089781456,-0.08939385050634435,0.08132590353488922,0.044286131858825684,0.002887738170102233
1729690904.872783,1754,1729690904,870017792,base_link,-0.06497690956199054,0.055796392998581995,-0.09276738987799846,0.0006561977788805962,0.11182428151369096,0.06239707022905348
1729690904.964894,1755,1729690904,963017280,base_link,-0.08795570043270205,0.07850731701696853,-0.14248973389577757,0.3229382634162903,-0.01689876243472097,0.18831153213977814
1729690905.0699537,1756,1729690905,68015744,base_link,-0.06702052379299228,0.10240876678957747,-0.22438252639318093,0.24452297389507294,-0.07633943855762479,0.17101357877254486
1729690905.1687765,1757,1729690905,166016256,base_link,-0.07233067325329189,0.10959518854055003,-0.19148401521964115,0.1374574452638626,-0.0437052547931671,0.08579203486442566
1729690905.2669122,1758,1729690905,265017792,base_link,-0.04748526239009049,0.10783419889303879,-0.18817444583738863,0.037384361028671265,0.07983269542455673,-0.02017352357506753
1729690905.3720825,1759,1729690905,369017536,base_link,-0.0449122324830034,0.11498203706013582,-0.14489879820176668,-0.013793965801596642,0.09528308361768721,-0.12999054789543152
1729690905.4697113,1760,1729690905,468017280,base_link,-0.0433982397969518,0.12866496865805338,-0.14451112606380742,-0.13571898639202118,-0.015869718044996275,-0.1203623041510582
1729690905.5659482,1761,1729690905,564014464,base_link,-0.034533114697228307,0.11149582393381982,-0.11624213123387818,0.1662447601556778,-0.09589903801679611,0.03538472950458528
1729690905.6662836,1762,1729690905,664014208,base_link,-0.01904520849041499,0.10862615932542319,-0.12531389559266273,0.17971962690353394,0.02129057794809341,-0.025543786585330967
1729690905.7692842,1763,1729690905,768015232,base_link,0.007797435142380717,0.06399260910699181,-0.08025797822564672,-0.03868073225021362,0.03389815986156463,-0.042438596487045295
1729690905.8691149,1764,1729690905,867013952,base_link,0.025888007121364052,0.06192671170018933,-0.07244947191406567,-0.02272665500640869,0.05302840471267698,-0.15161605179309845
1729690905.9685223,1765,1729690905,966014464,base_link,0.03359111564175074,0.04256271330901578,-0.08585375294840868,0.1547020822763443,-0.0166890434920788,-0.1326713114976883
1729690906.070405,1766,1729690906,68010624,base_link,0.045822717708585745,0.01711297588214052,-0.02745460652124743,0.14521516859531403,-0.010185394436121004,-0.14631399512290955
1729690906.1710334,1767,1729690906,169011136,base_link,0.050323881428287705,0.007068070352406613,0.005361208025424035,0.0016496991738677025,0.0280819274485111,-0.2053382694721222
1729690906.2712765,1768,1729690906,269018048,base_link,0.06619185090783952,-0.004593861641908542,-0.04752617450874206,0.17755289375782013,-0.024877376854419694,0.12009178102016449
1729690906.3670304,1769,1729690906,365019328,base_link,0.07640497801694705,0.0011469544825082809,0.007657273502144353,-0.13019947707653046,-0.01265145279467103,0.23848667740821838
1729690906.4687433,1770,1729690906,467016256,base_link,0.09506665944121416,-0.015193085566532125,-0.024146847859539203,0.15633782744407654,-0.03812912106513975,0.16605764627456665
1729690906.5654838,1771,1729690906,563016512,base_link,0.0876428604815193,0.003540263642636209,-0.046079366591324125,0.17197191715240479,-0.038584344089031206,0.1347687542438507
1729690906.668278,1772,1729690906,666010624,base_link,0.1100037078491685,-0.041293692988628845,0.028935503750797644,-0.08829639852046967,0.03706872090697288,-0.05588927865028382
1729690906.7676113,1773,1729690906,765006784,base_link,0.09997472384113551,-0.03916928850734563,0.07092519559538396,-0.2196844071149826,0.05080200731754303,-0.017220959067344672
1729690906.8775089,1774,1729690906,875004224,base_link,0.10957731663355334,-0.057750025471036706,0.08957498614048962,0.2076224684715271,-0.021921878680586808,0.0472591258585453
1729690906.9703972,1775,1729690906,967995520,base_link,0.10150394178261478,-0.0683750188786538,0.050821831759931095,-0.21204955875873566,-0.06139029562473295,0.16415216028690338
1729690907.067524,1776,1729690907,64995520,base_link,0.10129475038229499,-0.06876183457520758,0.07075280435035151,-0.17440223693847656,-0.048524565994739526,0.02876048162579537
1729690907.1684146,1777,1729690907,165987584,base_link,0.09304433169616433,-0.045594327122752784,0.032597225080673156,0.13562054932117462,0.005320061929523955,0.0844985693693161
1729690907.27275,1778,1729690907,269981952,base_link,0.08912009528455653,-0.084568812803839,0.10300672969654216,-0.24325542151927948,0.10188153386116026,-0.09042438864707948
1729690907.3703969,1779,1729690907,368976576,base_link,0.0656764108382023,-0.0786473352318118,0.11899142676877963,-0.07125603407621384,0.11681287735700606,-0.10561921447515489
1729690907.4752958,1780,1729690907,472973760,base_link,0.067403503685427,-0.04928294111168964,0.01793971831245083,-0.13052722811698914,0.08204483240842819,-0.004667964763939391
1729690907.5733252,1781,1729690907,571975552,base_link,0.058262616323022355,-0.055178916147823165,0.012609158585429023,-0.11816465854644775,0.006941369269043211,0.029400773346424103
1729690907.6764696,1782,1729690907,673972736,base_link,0.049926719632915874,-0.052733063685896954,0.034346099566986046,-0.05138491094112396,0.05402725189924239,-0.10279001295566559
1729690907.7776115,1783,1729690907,774974272,base_link,0.04390395098472561,-0.011799325310400394,0.01644120512364231,-0.07442206144332886,0.019765224307775508,0.09769631922245026
1729690907.8765855,1784,1729690907,874972224,base_link,0.06498386891836867,-0.025891389067437594,0.03654971679034599,-0.1632494330406189,0.03502688556909561,-0.0071778926067054315
1729690907.9736078,1785,1729690907,970972480,base_link,0.040958760860017825,-0.020204370179257122,0.09969311509260849,0.19000683724880219,-0.1746753752231598,0.07677077502012256
1729690908.071398,1786,1729690908,68966080,base_link,0.023035371268867944,-0.000795238534054667,0.07999115690471287,-0.015033903531730175,-0.011732089333236235,-0.14356696605682373
1729690908.164477,1787,1729690908,161962752,base_link,0.015299464053705629,-0.007631799314217005,0.10467735626346542,-0.0298428013920784,0.03992781043052671,-0.15465997159481049
1729690908.2747757,1788,1729690908,272960960,base_link,0.006689918522820627,-0.01398544895484176,0.15533331221590588,0.28467509150505066,-0.09298457205295561,0.11204040795564653
1729690908.3765557,1789,1729690908,374961984,base_link,-0.009448582149884883,0.007890693234597856,0.1366098489777899,0.04154690355062485,0.09428460896015166,-0.16596947610378265
1729690908.4674454,1790,1729690908,464963264,base_link,0.002032243601445877,-0.015002619777437873,0.1517836929909709,-0.30619436502456665,0.05080252885818483,0.1377563327550888
1729690908.5685194,1791,1729690908,565963008,base_link,-0.019217978745617675,-0.018332643526648526,0.13841004148541697,-0.18809659779071808,0.042455006390810006,-0.046390116214752204
1729690908.66764,1792,1729690908,664959680,base_link,-0.025738431771820655,-0.010456103657055491,0.12629750971738185,0.06545871496200562,-0.016464160755276673,0.05354822427034378
1729690908.7658706,1793,1729690908,763960448,base_link,-0.035736983656307265,-0.010079016672067776,0.14889992709037592,0.11284762620925903,-0.09592743963003157,0.1441527158021927
1729690908.8677616,1794,1729690908,865956352,base_link,-0.048044860920756376,0.026695405762275807,0.06623506634541322,0.12408971786499023,-0.07531699538230895,0.15223127603530884
1729690908.9687734,1795,1729690908,966954560,base_link,-0.040227017366808095,0.010975409178204106,0.07418965997853517,0.11412569135427475,0.08756037801504137,0.08109125494956969
1729690909.0687659,1796,1729690909,66950720,base_link,-0.04559258632671337,-0.002547125681599745,0.09417399763700475,0.04725289344787598,0.02610711380839349,0.09775573760271072
1729690909.1654184,1797,1729690909,162946112,base_link,-0.050467396214248686,0.01571829696690361,0.07366786396671599,-0.00029604602605104446,-0.02425594627857208,0.021310014650225643
1729690909.2695959,1798,1729690909,266946112,base_link,-0.061896876179653657,-0.00359365879906071,0.08236963142687624,0.04922149330377579,-0.0461590997874737,-0.14426934719085693
1729690909.3714604,1799,1729690909,368945856,base_link,-0.0645625943662706,0.0005767388175550719,0.08983013958079751,0.05918078124523163,0.03899346292018889,-0.10384964197874069
1729690909.4697194,1800,1729690909,467944064,base_link,-0.06250341741301386,-0.018192483600396193,0.07936765784076324,-0.06087936460971832,0.05709612369537353,-0.03085793554782868
1729690909.5686264,1801,1729690909,565945344,base_link,-0.05005055932087118,-0.017776856372799084,0.11557031114061242,-0.3242170512676239,0.1315699964761734,-0.05009232088923456
1729690909.6719286,1802,1729690909,667943296,base_link,-0.061564039119482314,-0.013067557558811364,0.12898459185856642,-0.27387872338294983,0.11201108247041702,-0.00029871216975153864
1729690909.7696533,1803,1729690909,766943296,base_link,-0.04047050658783817,-0.0172857042301282,0.1315388612796207,-0.21217520534992218,0.11631851643323897,-0.147970587015152
1729690909.867868,1804,1729690909,864941248,base_link,-0.02461865855676645,-0.005533063346323664,0.08343615099933392,-0.10783537477254868,0.06645476818084715,-0.13739271461963654
1729690909.9716773,1805,1729690909,968938432,base_link,-0.019768891550093495,0.014706535833564663,0.005577390637671225,0.07976339757442474,-0.12031786888837813,0.09208764880895616
1729690910.0679622,1806,1729690910,65934336,base_link,-0.0016471602159682278,0.010081243055136465,0.07623567750418452,-0.07483314722776413,-0.036128453910350786,0.10261926800012589
1729690910.1702483,1807,1729690910,166932288,base_link,0.021552410719078662,0.016926084995843766,0.049580430049148194,-0.10932488739490509,-0.03833933174610135,0.2526185214519501
1729690910.2656627,1808,1729690910,262932288,base_link,0.014675642461962667,-0.00886674066477598,0.016397741500799923,0.3022865653038025,-0.12092206627130507,0.0788514018058777
1729690910.3736296,1809,1729690910,366930240,base_link,0.036066424129595216,0.02092997765317877,-0.04953778683961328,0.2517280578613281,-0.12096007168292996,0.18188786506652835
1729690910.4711843,1810,1729690910,468930752,base_link,0.0533554860949009,-0.004227665886978683,-0.07535850227026372,0.06966930627822876,-0.06935005635023114,0.23942628502845764
1729690910.5700238,1811,1729690910,567930752,base_link,0.07302902346791086,-0.009054374669521718,-0.020625850462788753,-0.09922167658805847,-0.05201381444931029,0.10418912768363953
1729690910.6689432,1812,1729690910,666929472,base_link,0.07865398265386962,-0.016945869536506338,-0.09201442447504633,0.06138455122709274,-0.02208466455340388,-0.193180114030838
1729690910.7688127,1813,1729690910,764925376,base_link,0.08043310348351765,-0.021148421505724536,-0.07411310224649643,0.03934464231133461,0.020415002480149255,-0.11626855283975601
1729690910.8690991,1814,1729690910,866923840,base_link,0.07533315710999358,-0.03104995244403782,0.0005651605422463219,-0.334652841091156,0.012088239192962652,0.04868348687887192
1729690910.968044,1815,1729690910,964924608,base_link,0.08268234155919736,-0.012726235303198729,-0.025547075212245286,-0.15506327152252197,0.03896469250321388,-0.021212058141827587
1729690911.0701618,1816,1729690911,66922816,base_link,0.08211086693925812,-0.004450336144984402,-0.10148382790476451,0.1583925038576126,-0.04964943230152129,0.13360752165317535
1729690911.1678572,1817,1729690911,165923840,base_link,0.06684975482722139,-0.01564975220829394,-0.11202501747150546,0.22377470135688782,-0.1390544921159744,0.22233670949935916
1729690911.2687323,1818,1729690911,266924352,base_link,0.061736815135683756,-0.03765530901706985,-0.05327965533526214,-0.10983914136886597,0.13352024555206296,-0.18149647116661075
1729690911.3677332,1819,1729690911,365926144,base_link,0.03850363703389473,-0.036803577693291366,0.002892154128182463,-0.231559619307518,0.1553489565849304,-0.12887647747993472
1729690911.4647446,1820,1729690911,462926400,base_link,0.02315744078754291,-0.03392020985361165,0.011234136146666502,-0.05899132043123245,0.05345262587070465,0.028275543823838227
1729690911.5681076,1821,1729690911,565926400,base_link,0.019326838898783366,-0.016575450970029958,-0.012861728136906564,-0.01702250726521015,0.03981478884816172,0.18351173400878906
1729690911.6647625,1822,1729690911,663926656,base_link,0.0067573713879976165,0.0018212711090180938,-0.07219851844767287,0.09849964082241058,0.0895821377635002,-0.06220536679029466
1729690911.768852,1823,1729690911,766925632,base_link,-0.0006550991268503969,-0.02688518858161609,0.04389252423488725,-0.18639042973518372,0.07545693963766097,-0.12362879514694215
1729690911.8722553,1824,1729690911,869918720,base_link,-0.007617284893976914,0.014723398202239862,-0.019657913940502984,-0.11750426888465881,0.0135139124467969,0.03696846589446068
1729690911.9708753,1825,1729690911,968917952,base_link,-0.002430050686197059,0.019660226469396226,-0.04722216421808523,-0.057133596390485764,-0.01027334295213221,0.12261896580457687
1729690912.067862,1826,1729690912,65915904,base_link,-0.01035553922822501,0.021456777040252645,-0.034357577707389994,0.1571773737668991,-0.09823249280452725,0.227702796459198
1729690912.1669834,1827,1729690912,164913600,base_link,0.0024265041491696457,0.002321540895213459,-0.048727622057164126,0.04101152718067169,0.013657462783157806,-0.15205501019954681
1729690912.2691777,1828,1729690912,266911296,base_link,0.008274063653504091,-0.01850722094864832,-0.02594346315639314,-0.0073945242911577225,0.16264811158180234,-0.11751980334520341
1729690912.365859,1829,1729690912,362906688,base_link,0.03623292811573507,-0.023232133417608707,0.014586559178048358,-0.33866438269615173,0.06043731793761251,-0.1446845531463623
1729690912.4653108,1830,1729690912,462905408,base_link,0.04227215792956691,-0.013250549722033966,0.02675200604712238,-0.13344715535640717,-0.025365598499774933,0.00696287211030722
1729690912.567507,1831,1729690912,564902336,base_link,0.048857790875186415,0.0042629843388198516,-0.04699848435903407,0.0802873969078064,-0.08814096450805663,0.09144368767738344
1729690912.666466,1832,1729690912,663913344,base_link,0.06340854586456496,-0.010611536199886824,-0.04935013634808957,0.15887904167175293,-0.03767715394496917,0.04885775595903397
1729690912.7673683,1833,1729690912,764925888,base_link,0.08380607331104137,-0.03370504747016283,-0.061140212576258665,-0.03146165981888771,0.13065169751644132,-0.17500886321067813
1729690912.8694785,1834,1729690912,866918208,base_link,0.06959859602077498,-0.027573600328670074,0.028531818818979787,-0.02520599588751793,0.0017750775441527466,0.08158612251281738
1729690912.9686916,1835,1729690912,965909760,base_link,0.08709413380800887,-0.05067180018816021,-0.04285776352009925,0.055110469460487366,0.0029304437339305804,-0.06136317178606987
1729690913.070161,1836,1729690913,68903360,base_link,0.07449106799265645,-0.05740654617866892,0.04969878944578236,-0.12248478829860687,0.02954941615462301,-0.15636394917964935
1729690913.1771019,1837,1729690913,174896704,base_link,0.07428594131030482,-0.07552887250859874,0.047696478481395355,-0.2906518876552582,0.08848316222429276,0.006121720653027286
1729690913.2736168,1838,1729690913,270894656,base_link,0.08441438695488576,-0.06082369883499822,0.029396159790752115,-0.0999632477760315,0.044178798794746385,-0.09395294636487961
1729690913.3744905,1839,1729690913,371894400,base_link,0.11100256712571484,-0.05509402626909238,-0.04169569851743943,0.24294690787792206,-0.09138345718383788,0.08565185964107515
1729690913.4714656,1840,1729690913,468894144,base_link,0.10182662099128258,-0.04852472524881922,-0.061987671939013764,0.12167869508266449,-0.016537023708224307,-0.07976553589105606
1729690913.5724995,1841,1729690913,570892352,base_link,0.0807176107965662,-0.051307047019695955,-0.0061704904501023415,-0.21502500772476196,0.014349461533129215,-0.00508410017937422
1729690913.6746073,1842,1729690913,671893376,base_link,0.09162275416814435,-0.027094021635932324,-0.01380590565144583,-0.014242933131754398,0.02961577661335465,-0.26173198223114014
1729690913.7765331,1843,1729690913,773892608,base_link,0.10449545326882317,-0.02787886927276569,0.0005896655496942186,0.03608035296201706,0.03724623844027517,-0.18312503397464752
1729690913.875661,1844,1729690913,872891840,base_link,0.07643858824153169,-0.016887204367237525,-0.05357445225214616,-0.1016445979475975,-0.0017359722405671859,0.17572848498821259
1729690913.9712818,1845,1729690913,968895424,base_link,0.06865139434925753,-0.03685632290329453,0.0166708354793435,-0.08568340539932251,0.09670534729957578,-0.28061577677726746
1729690914.0756376,1846,1729690914,73889280,base_link,0.08925853347296697,-0.04158785323670648,-0.012662662666441334,0.3635703921318054,-0.08293318748474121,0.029009608551859866
1729690914.167691,1847,1729690914,165890304,base_link,0.0712967968501813,-0.06162598401814345,-0.028096858636830094,-0.11100369691848755,-0.01636996679008005,0.171556755900383
1729690914.2783217,1848,1729690914,275888256,base_link,0.05390389764846411,-0.07434863511806844,-0.07355147118875412,-0.18381263315677643,0.046764157712459564,-0.008411998860538011
1729690914.3745146,1849,1729690914,371886464,base_link,0.0428206128210283,-0.08197794609092722,0.024678247097542832,0.24109604954719543,-0.06105879694223401,0.2155386358499527
1729690914.4736183,1850,1729690914,471886976,base_link,0.033808321640296686,-0.061570816396748766,-0.09654039330738844,-0.24264687299728394,0.09608612209558488,0.1049022078514099
1729690914.571232,1851,1729690914,569885696,base_link,0.038559056938923246,-0.0987577702152059,-0.02810580311833638,-0.011700565926730633,0.03152022883296016,0.22644305229187012
1729690914.6685271,1852,1729690914,665888256,base_link,0.027844875736246714,-0.04889014925518484,-0.09445688394305575,0.06583481281995773,-0.031517680734395974,0.07498098909854889
1729690914.7676773,1853,1729690914,764889024,base_link,0.02863076171818604,-0.07137011106869802,-0.096704917830779,-0.18664976954460144,0.12285364419221878,-0.005626150406897083
1729690914.870816,1854,1729690914,865889280,base_link,0.02871599175554041,-0.02458788805357036,-0.11185454886668558,-0.18188700079917908,0.1410951018333435,0.09510495513677596
1729690914.9725866,1855,1729690914,969886464,base_link,0.05167657301567592,-0.016961550035552192,-0.14799186962826225,0.1451951563358307,-0.10117455571889876,0.16617898643016815
1729690915.071151,1856,1729690915,68885184,base_link,0.03136084564647208,0.008240988228765258,-0.07413914482945931,-0.028162237256765366,0.03556075319647787,-0.19637219607830048
1729690915.1658804,1857,1729690915,162885440,base_link,0.043006904745079295,0.02198894447706648,-0.11453954852400766,0.05469418689608574,-0.10256552696228029,-0.11586253345012663
1729690915.2674353,1858,1729690915,264882624,base_link,0.018377504176878317,0.03289754060303183,-0.028637839476763186,-0.018106279894709587,-0.05516577512025836,-0.20674951374530792
1729690915.3704872,1859,1729690915,368883392,base_link,0.03678595248891288,0.054383043890759444,-0.0900502593992134,-0.008890638127923012,0.06340670585632323,-0.12289604544639589
1729690915.4691687,1860,1729690915,465879040,base_link,0.03442157439476158,0.042158942692260434,-0.06573549092025464,0.05887697637081146,0.025448884814977632,-0.11614169925451279
1729690915.5696208,1861,1729690915,566876992,base_link,0.030159349909711874,0.0634054442467312,-0.022733248583522565,0.19518253207206726,-0.11642801016569135,0.17237102985382083
1729690915.668388,1862,1729690915,665876480,base_link,0.03395858475063597,0.05204889229714653,0.06446230939259079,-0.27528613805770874,0.02727155387401579,-0.14079836010932922
1729690915.7711473,1863,1729690915,767873664,base_link,0.05719732825730684,0.06785875323119463,-0.037291339235513116,0.13211576640605927,-0.03289788961410523,-0.08203418552875519
1729690915.868238,1864,1729690915,865871872,base_link,0.0310449540017922,0.06808229569871056,-0.02343066085495852,0.005894721485674381,0.03856292366981506,-0.04247363284230233
1729690915.9720278,1865,1729690915,967870080,base_link,0.0383145181769066,0.08432613621783305,-0.07865962230487951,0.11015831679105759,-0.18130268156528467,0.3402959108352661
1729690916.0695057,1866,1729690916,66865984,base_link,0.019374643791668887,0.09935419564084834,-0.04379516139918255,0.005587706342339516,0.06264833360910416,0.0071850894019007605
1729690916.169494,1867,1729690916,165867520,base_link,0.034690166469978204,0.08698970313865763,-0.07066761831627386,0.1312863528728485,-0.05381650850176811,0.009743037633597858
1729690916.2698708,1868,1729690916,266867776,base_link,0.024214185934061144,0.0826159288649012,0.0062996760175859316,0.08063298463821411,0.03046045079827309,0.025146795436739918
1729690916.3684034,1869,1729690916,365869312,base_link,0.004953460184103027,0.09131000632650971,0.01270036089261416,-0.01799074560403824,-0.10317776352167128,0.11591304093599321
1729690916.4694693,1870,1729690916,466874176,base_link,-0.027855873150065512,0.09589655002845615,-0.006587487953766252,0.054399795830249786,-0.09531819820404053,0.05293400213122369
1729690916.568762,1871,1729690916,566872896,base_link,-0.01766955561937887,0.05489956582803624,-0.01198083664441821,0.1358107477426529,-0.055380366742610924,0.0720185786485672
1729690916.6675515,1872,1729690916,664873920,base_link,-0.04009242562051184,0.047653840797472764,0.08561935583526409,-0.3627403676509857,0.21400484442710876,-0.03356197103857997
1729690916.7694182,1873,1729690916,766874176,base_link,-0.021778000427965544,0.049154960817560406,0.053370593324224294,-0.36464911699295044,0.06236922740936278,-0.1129983887076378
1729690916.8689585,1874,1729690916,865874688,base_link,-0.024725630353256693,0.05727823224881456,0.00749374998528278,-0.07275262475013733,0.11354187130928037,-0.178201898932457
1729690916.9638827,1875,1729690916,961871872,base_link,-0.036422588890096454,0.04508754969891592,0.06360836395236362,0.20456114411354065,-0.26133552193641657,0.3522914648056031
1729690917.068902,1876,1729690917,65870848,base_link,-0.028662618205206485,0.051035652581322914,0.03775090406312726,-0.10821089893579483,-0.052284695208072635,0.20350897312164307
1729690917.1648,1877,1729690917,162870848,base_link,-0.012715726583555388,0.052201950712806325,0.014224235097449278,0.07603400200605392,-0.025026056915521594,0.22770333290100098
1729690917.2717037,1878,1729690917,268869056,base_link,-0.036482985521239734,0.0335824667536548,-0.02842028383556567,-0.12348280102014542,-0.05055938661098479,0.11892625689506531
1729690917.3677282,1879,1729690917,365867520,base_link,-0.017919178268386928,-0.0016713344006344544,-0.026063887253449807,-0.2319689244031906,0.12634041905403137,-0.07021199166774751
1729690917.4717107,1880,1729690917,469865216,base_link,-0.04287345210975056,-0.023638431850633978,-0.056442516727114804,0.007226509973406792,-0.0711351931095123,0.19548067450523376
1729690917.5679672,1881,1729690917,565864448,base_link,-0.04136815083816317,-0.006127264479523894,-0.07559852336277255,0.11177696287631989,-0.1844580769538879,0.2025050073862076
1729690917.6699276,1882,1729690917,667864448,base_link,-0.032507374120714826,-0.022048249374100458,-0.06189120659872313,-0.025204172357916832,0.0888257324695587,-0.08560791611671449
1729690917.7690225,1883,1729690917,766865216,base_link,-0.03506625617003359,-0.04370495330877698,-0.035453267515535694,-0.20141537487506866,0.09561790525913236,-0.24309827387332916
1729690917.867919,1884,1729690917,865868800,base_link,-0.019237306383708956,-0.042877084467084346,-0.08544883998933536,-0.035085245966911316,0.02893133088946343,0.06753312051296234
1729690917.9688733,1885,1729690917,966869056,base_link,-0.025695562066585416,-0.03020180175846144,-0.11498719300354124,0.22564788162708282,-0.2088104039430618,0.20031778514385226
1729690918.0709443,1886,1729690918,67861632,base_link,-0.02462853763605588,-0.003729878143959511,-0.0782871927223977,-0.012577470391988754,0.08891186118125914,-0.08172848075628282
1729690918.1688764,1887,1729690918,166859328,base_link,-0.006735438152867644,-0.01453844695638185,-0.1176322728123404,0.0470874197781086,0.015573382377624505,-0.06020907685160637
1729690918.270847,1888,1729690918,268859072,base_link,-0.010561736299985143,0.014903376823370493,-0.08911029921431703,0.03708113357424736,0.09339027106761932,-0.009739195927977574
1729690918.3667176,1889,1729690918,364860352,base_link,0.00265889102798808,0.0032739674173089986,-0.08064605108699523,0.11857859790325165,-0.16304042935371396,0.23623962700366977
1729690918.4669404,1890,1729690918,464861120,base_link,-0.004905117290761331,0.03351311623738191,-0.08624565276016077,0.15283937752246857,-0.08537231385707854,0.13817714154720306
1729690918.5680177,1891,1729690918,565860352,base_link,0.006100278718944011,0.014986007481854406,-0.014725061854904487,-0.08397580683231354,0.07762354612350462,-0.1289767175912857
1729690918.6709058,1892,1729690918,668859840,base_link,0.014503338028226405,0.03724927406253645,-0.04744746863186327,0.10530166327953339,-0.02441135421395302,-0.021240070462226864
1729690918.7670076,1893,1729690918,764862912,base_link,0.021958766202315527,0.053749462628186834,-0.046120004647179,0.30159467458724976,-0.13951089978218076,0.12836070358753207
1729690918.872039,1894,1729690918,869867264,base_link,0.030991456205700124,0.07571082323857095,-0.037793384262994834,0.3110712766647339,-0.09356147795915604,0.02211989276111127
1729690918.9690588,1895,1729690918,966866240,base_link,0.04044000101320038,0.0764329416897919,0.01786988942845034,0.07765374332666397,-0.07995667308568953,0.1401839256286621
1729690919.0711524,1896,1729690919,67863936,base_link,0.03471109648011111,0.0691172741515404,0.10285264251813207,-0.12256976962089539,-0.0433070883154869,0.06516962498426437
1729690919.1722913,1897,1729690919,169858816,base_link,0.055671533371460184,0.1089315090121082,0.049263462040595916,-0.054592978209257126,0.04072993248701098,0.18168318271636963
1729690919.2731736,1898,1729690919,270856256,base_link,0.05645847816239666,0.09465042254802364,-0.011549232827122044,0.30784255266189575,0.004651892930269217,-0.19738633930683136
1729690919.3754292,1899,1729690919,372855488,base_link,0.019019453790365758,0.11801872853463487,0.015863080944880488,0.06440410017967224,-0.04262480139732361,0.022342534735798843
1729690919.472032,1900,1729690919,469856256,base_link,0.010025728683155283,0.0936987291902263,0.10250258204358742,-0.06277235597372055,0.07899940758943555,-0.24335558712482452
1729690919.5750885,1901,1729690919,572852928,base_link,0.0002937025876438512,0.09733871358312818,0.03607667855081567,-0.08091432601213455,-0.02363554760813711,0.1656583845615387
1729690919.6749074,1902,1729690919,671852160,base_link,-0.01969042491325096,0.06411355559871727,-0.07129386798518492,0.3142555058002472,0.00243496615439654,0.049985371530056
1729690919.7764041,1903,1729690919,773848576,base_link,-0.04062589483200698,0.031737847057359436,-0.040116411121375144,0.021055608987808228,-0.05011333897709844,0.20509552955627441
1729690919.8756273,1904,1729690919,872849856,base_link,-0.022957275469432645,0.01578862395206309,-0.00628252717603207,0.30452120304107666,0.023811772465705875,0.027093876153230664
1729690919.9781172,1905,1729690919,975848064,base_link,-0.055954885972977465,-0.004360404167718144,-0.00472766173896713,0.15880346298217773,-0.02179939299821853,0.06402885168790817
1729690920.0743546,1906,1729690920,71850624,base_link,-0.036638521183294775,-0.009381934140764223,-0.06879590696075026,-0.12443922460079193,0.09430898725986481,0.013802620582282531
1729690920.177243,1907,1729690920,174850624,base_link,-0.016744326521117847,-0.04584814840186553,-0.05717422405508171,-0.18181884288787842,0.1054231524467468,-0.2179664820432663
1729690920.2732272,1908,1729690920,270847808,base_link,0.015009070667404239,-0.05283376485221906,-0.05358589151693824,0.33188870549201965,-0.04303159192204474,0.10419779270887375
1729690920.3771274,1909,1729690920,374847296,base_link,0.013099600765230198,-0.05302602524826008,-0.04807120136909062,-0.23598656058311462,-0.0038005551323294514,0.10285452008247375
1729690920.4762468,1910,1729690920,473843968,base_link,0.04459322663183236,-0.09836171016090355,-0.01282267555337714,-0.03854486346244812,0.05505351349711418,0.008887142874300473
1729690920.5750668,1911,1729690920,572842176,base_link,0.06266301299893128,-0.09078907434336762,0.009322661032002187,0.10708647966384888,-0.11793329566717144,0.36564433574676514
1729690920.6681678,1912,1729690920,665841152,base_link,0.0815264469861714,-0.09149753597476558,0.04903417870843511,-0.21377858519554138,-0.05164544284343716,0.29925164580345154
1729690920.7699587,1913,1729690920,767840384,base_link,0.10851764137710616,-0.09923054140805955,0.03040744246150695,-0.14065653085708618,0.051844220608472824,-0.008624102920293815
1729690920.8680148,1914,1729690920,866840128,base_link,0.1372260549117719,-0.10116917379713933,-0.028588212018741115,0.0007343078032135963,-0.11981223523616788,0.25145381689071655
1729690920.965346,1915,1729690920,962838592,base_link,0.11311807908956112,-0.0955048136976411,-0.03865494150003554,-0.09054701030254364,-0.13543853163719177,0.07406500726938249
1729690921.0731843,1916,1729690921,69836544,base_link,0.1060164167066745,-0.08490524418377697,-0.056530158499697725,0.05261378362774849,-0.001319918781518953,-0.13864129781723022
1729690921.1693978,1917,1729690921,165836032,base_link,0.08207015625115374,-0.0782084569795256,-0.027269131029075994,-0.12215275317430496,-0.06837255507707597,-0.11690498888492583
1729690921.2677622,1918,1729690921,265836032,base_link,0.08701251181562426,-0.054561252797398145,-0.04125996035005591,0.11234340071678162,0.11788848042488097,-0.060316223651170744
1729690921.370076,1919,1729690921,366837056,base_link,0.09487445528260668,-0.04300212522371086,-0.011917861473135987,0.18323495984077454,0.079215370118618,-0.11255433410406114
1729690921.4695518,1920,1729690921,465835264,base_link,0.09451363770386907,-0.03336664166836032,0.04862480968023915,-0.06057173013687134,0.12760420143604276,-0.19129091501235965
1729690921.5691948,1921,1729690921,562833472,base_link,0.09688998066361305,-0.0005093380131907478,0.06150292223706305,0.3230322003364563,-0.07927066832780837,0.16651274263858795
1729690921.6705132,1922,1729690921,667831424,base_link,0.1136051869802314,0.0030655515786257538,0.08356796662345264,0.07591550797224045,-0.06299810111522675,0.01271092705428601
1729690921.768353,1923,1729690921,765830400,base_link,0.15097433587230433,0.00814715093852157,0.035062488643494476,0.17390026152133942,-0.23219059407711026,0.2714602947235108
1729690921.8673403,1924,1729690921,865829632,base_link,0.13901078930526042,0.0030020957288648406,0.10519313393672772,-0.029484840109944344,0.01261397916823625,-0.042797356843948364
1729690921.97143,1925,1729690921,968830400,base_link,0.12882929239551,0.010157764344249793,0.09855611108106224,0.02818974107503891,-0.007954903878271576,0.022626014426350594
1729690922.0695224,1926,1729690922,65827072,base_link,0.12302015384270756,0.009886012000964905,0.09693089918380275,0.11802773177623749,0.04178154468536377,-0.004678608849644666
1729690922.1696274,1927,1729690922,164824000,base_link,0.07717080347609068,0.010496774172269279,0.18271064389455086,0.0026025911793112755,-0.02717035636305808,0.07332251220941544
1729690922.2717698,1928,1729690922,266825024,base_link,0.07636319214459947,0.017781163708602284,0.09782945899357746,0.11738616973161697,-0.026069238781929,0.1437433958053589
1729690922.3704498,1929,1729690922,365823744,base_link,0.07011766480731883,-0.004189318042666635,0.14218254961301421,-0.0463230237364769,0.0682225301861763,-0.04057969525456429
1729690922.4694874,1930,1729690922,466823488,base_link,0.06277782052024515,0.031042143636711327,0.09783813328861228,0.11531277745962143,-0.0871956795454025,0.21583420038223267
1729690922.5704892,1931,1729690922,568825280,base_link,0.05840687998674618,0.0012061384965874255,0.17695472144353896,-0.08919396251440048,0.09224256128072736,-0.1879224330186844
1729690922.6725292,1932,1729690922,669823744,base_link,0.06760699587272376,0.022996580235856958,0.0876015146922792,0.13895240426063538,-0.06730072945356368,0.16693107783794403
1729690922.7674105,1933,1729690922,765825024,base_link,0.0538397165894782,-0.0007242148621511707,0.14528174706864633,0.07017741352319717,-0.008163042366504695,-0.21170273423194885
1729690922.871945,1934,1729690922,869825280,base_link,0.04233911337539981,0.003659720747060771,0.0882232525784106,0.16436775028705597,-0.1432531177997589,0.10906699299812318
1729690922.967726,1935,1729690922,965824256,base_link,0.018686123311668267,-0.009276050038663766,0.09514666731460866,0.07741620391607285,-0.006568641401827341,-0.05299511179327965
1729690923.070051,1936,1729690923,66822464,base_link,0.004098526696355322,-0.027437145516644876,0.1873623674632375,-0.22304099798202515,0.2092081010341644,-0.1683398932218552
1729690923.1686327,1937,1729690923,165821696,base_link,-0.015532582070996425,-0.03868626885688247,0.21052545809701048,-0.11226755380630493,0.0972420573234558,-0.14654503762722015
1729690923.2676132,1938,1729690923,265818112,base_link,-0.015649006919801388,-0.039179175297556865,0.206903718454703,-0.07694169878959656,0.11627343297004698,-0.1526209115982056
1729690923.3710444,1939,1729690923,368815552,base_link,-0.048383458376096915,-0.04096005171742218,0.22462712858180914,-0.1572011560201645,0.10174077749252317,-0.18706555664539337
1729690923.4687536,1940,1729690923,465810944,base_link,-0.043648506232567566,-0.04862922654439535,0.21803226404352213,-0.15466338396072388,0.04992750287055966,-0.26218381524086
1729690923.5701778,1941,1729690923,566808896,base_link,-0.04814808170701447,-0.05360158237611317,0.2271190228846657,-0.16031323373317719,0.11225089430809018,-0.198603555560112
1729690923.668866,1942,1729690923,666808640,base_link,-0.054730215248962225,-0.035395622532968775,0.18906598526072052,0.0745040699839592,0.14147157967090607,-0.029037775471806544
1729690923.7675822,1943,1729690923,765805312,base_link,-0.0812866878050852,-0.04854781724692725,0.2018922260388135,-0.019176490604877472,0.03680757433176041,0.06634742766618729
1729690923.8723211,1944,1729690923,868802496,base_link,-0.06019291078264898,-0.04097759721973311,0.13765159699503748,-0.017903566360473633,-0.0778391361236572,0.201708123087883
1729690923.9649258,1945,1729690923,962800960,base_link,-0.04364935632862794,-0.08287952902382466,0.22945983937554265,-0.1717318445444107,-0.02032369002699851,0.07371219247579575
