Time,header.seq,header.stamp.secs,header.stamp.nsecs,header.frame_id,pose.position.x,pose.position.y,pose.position.z,pose.orientation.x,pose.orientation.y,pose.orientation.z,pose.orientation.w
1729690891.1258492,0,1729690890,267123008,map,2.008777618408203,1.087041974067688,-0.013170398771762848,0.04294006889709004,0.07401044162235461,-0.2815948215472719,-0.9557107101480746
1729690891.1260033,1,1729690890,370123008,map,2.0885231494903564,1.3084754943847656,-0.009142166003584862,0.028866310481304242,0.08299161341106533,-0.2883411795775387,-0.9534875418076834
1729690891.1283386,2,1729690890,468123008,map,2.154989242553711,1.5203148126602173,-2.7849364414578304e-05,0.01715233998180796,0.09077966221331014,-0.29902101503188194,-0.9497638036537761
1729690891.1288512,3,1729690890,579123008,map,2.228564500808716,1.7460757493972778,0.013829526491463184,0.005919395208326868,0.09279875615327797,-0.31418444519880995,-0.944797060755318
1729690891.1289454,4,1729690890,675123008,map,2.292168617248535,1.942730188369751,0.024654269218444824,0.0015568040688115597,0.10035267438633313,-0.33076260617095204,-0.9383618787352787
1729690891.1291702,5,1729690890,768123008,map,2.345571517944336,2.1301629543304443,0.03474762663245201,-0.004062901641041646,0.10453641272954381,-0.3507628086786405,-0.9306025377634455
1729690891.1294017,6,1729690890,887123008,map,2.4002296924591064,2.36076021194458,0.04647955670952797,-0.006919675582052866,0.10945643348305426,-0.3720841009909098,-0.9216967120744195
1729690891.1296115,7,1729690890,978123008,map,2.4292099475860596,2.526705265045166,0.05564761161804199,-0.01458278252981489,0.10916592545109485,-0.3924858318001268,-0.9131401946088327
1729690891.1298218,8,1729690891,78123008,map,2.457076072692871,2.7018094062805176,0.07358518987894058,-0.020474514798582304,0.11047796540730655,-0.4085655872147913,-0.9057867157046725
1729690891.1726198,9,1729690891,169123008,map,2.4658913612365723,2.8489017486572266,0.09070274233818054,-0.025085048663812178,0.10949531392431644,-0.4208807568884264,-0.9001338261854039
1729690891.2716417,10,1729690891,268123008,map,2.466801404953003,3.007985830307007,0.10835983604192734,-0.02877012229232108,0.1069007349796122,-0.4315080155990523,-0.8952906485593779
1729690891.3821464,11,1729690891,380123008,map,2.458483934402466,3.1822595596313477,0.12694671750068665,-0.03226065367918189,0.09990064261002979,-0.4404063083607234,-0.8916397228625329
1729690891.4698904,12,1729690891,468123008,map,2.4386165142059326,3.3091964721679688,0.13689547777175903,-0.03536340906551312,0.0982751394137164,-0.44997598751231854,-0.8869120795968412
1729690891.577166,13,1729690891,575123008,map,2.4054036140441895,3.453089475631714,0.14203032851219177,-0.039914597531617566,0.09211717839397138,-0.4582526934818075,-0.8831340324465424
1729690891.6729789,14,1729690891,671121216,map,2.370366334915161,3.569387674331665,0.14134563505649567,-0.035710148441534986,0.0819751914751563,-0.4669666272367693,-0.879742588674671
1729690891.7729406,15,1729690891,771119424,map,2.3320086002349854,3.6938209533691406,0.13822747766971588,-0.017293726701751163,0.07601610131519325,-0.47579906578504105,-0.8760923058420761
1729690891.8733454,16,1729690891,869119424,map,2.2834973335266113,3.804091453552246,0.13181455433368683,-0.0010915443835232757,0.08016948178276162,-0.4878402865590792,-0.869243071603966
1729690891.9691246,17,1729690891,966115584,map,2.224933385848999,3.910597562789917,0.1213473305106163,-0.0015416635080250857,0.09007267746119191,-0.5036142612052297,-0.8592189546089579
1729690892.0720756,18,1729690892,69113536,map,2.1529603004455566,4.013713836669922,0.11894248425960541,-0.012492602138110563,0.09315596457096363,-0.5240981192801917,-0.8464555880397023
1729690892.1696386,19,1729690892,166113280,map,2.0735092163085938,4.106839179992676,0.12350571900606155,-0.023964606524397362,0.09441570090551696,-0.5493495581199539,-0.8298954368172305
1729690892.269517,20,1729690892,266113024,map,1.9844775199890137,4.189682483673096,0.12563399970531464,-0.03518102742043509,0.09052811638447712,-0.5764694421937551,-0.8113260366032525
1729690892.3694606,21,1729690892,368112768,map,1.8886064291000366,4.2622294425964355,0.11837396770715714,-0.04382884790044006,0.08184952784548331,-0.6042078977189238,-0.7913990796161376
1729690892.4698584,22,1729690892,466112768,map,1.79355788230896,4.318589687347412,0.10122207552194595,-0.045478946675613,0.07045656970317207,-0.6350902270069534,-0.7678723466535274
1729690892.5701227,23,1729690892,568113024,map,1.6907528638839722,4.363962173461914,0.08655044436454773,-0.05225675044440812,0.06330357026834588,-0.6628193339395102,-0.7442663639989755
1729690892.6754582,24,1729690892,673113792,map,1.5885770320892334,4.396242618560791,0.0685836523771286,-0.0555278448095576,0.05566762391651593,-0.6906970220128289,-0.7188570079514456
1729690892.7703075,25,1729690892,768114560,map,1.4949294328689575,4.4190778732299805,0.04585416987538338,-0.05540787462585412,0.048733137226521735,-0.7186516407049068,-0.6914440455146401
1729690892.870583,26,1729690892,868113792,map,1.4028065204620361,4.429294586181641,0.023542076349258423,-0.06016149354146045,0.04402187953854036,-0.7448509833535432,-0.6630533020911777
1729690892.9859893,27,1729690892,983113280,map,1.3032770156860352,4.429312229156494,0.010523770935833454,-0.06109389241489711,0.0388451509769108,-0.7717953248942602,-0.6317361530152771
1729690893.075116,28,1729690893,73113280,map,1.2285337448120117,4.423266887664795,0.006743061821907759,-0.06194334407738001,0.01936608139903125,-0.7977619125968523,-0.5994696888296934
1729690893.1667595,29,1729690893,162113280,map,1.1624211072921753,4.406944274902344,0.0017755167791619897,-0.06456892841176604,0.023070798984499253,-0.8159181140349279,-0.5740872955462951
1729690893.268502,30,1729690893,266113280,map,1.091977596282959,4.380558967590332,-0.007071705535054207,-0.06253178263070852,0.0354098087708313,-0.8330643054100371,-0.5484886367606271
1729690893.3681955,31,1729690893,366113536,map,1.0286742448806763,4.343470096588135,-0.012119096703827381,-0.053455447193108706,0.04799108071778692,-0.8482737485858305,-0.5246627667340871
1729690893.46782,32,1729690893,466110720,map,0.964676558971405,4.296144962310791,-0.012584769167006016,-0.04119447031181557,0.0741135404207787,-0.8599953380983848,-0.5032079263992879
1729690893.5679114,33,1729690893,566110464,map,0.8991423845291138,4.236860275268555,-0.013968657702207565,-0.033251632197873554,0.08526039929462231,-0.8742600032183151,-0.47675406662241576
1729690893.665054,34,1729690893,663110208,map,0.8352715969085693,4.163347244262695,-0.02143889293074608,-0.03145918015344725,0.06775707833309857,-0.888991977712953,-0.45178818253895003
1729690893.7701068,35,1729690893,768110464,map,0.7584963440895081,4.070862293243408,-0.023737173527479172,-0.039972768849350755,0.03520373988176957,-0.9017760330263709,-0.428908918895463
1729690893.86709,36,1729690893,866109696,map,0.6947166919708252,3.9804437160491943,-0.02826138399541378,-0.05422457160042761,-0.001884528325039672,-0.9117749149538816,-0.4070904676464239
1729690893.968118,37,1729690893,966108672,map,0.6399682760238647,3.8888068199157715,-0.033873338252305984,-0.06480183498461049,-0.03351732018267857,-0.9184565235148257,-0.38873503295105755
1729690894.0700352,38,1729690894,68108160,map,0.5968980193138123,3.798825979232788,-0.04203829541802406,-0.07216710820349155,-0.06161985591555871,-0.9249426311720602,-0.36807068735637893
1729690894.1678393,39,1729690894,166109440,map,0.5696740746498108,3.722233772277832,-0.04907452315092087,-0.07301700560520713,-0.08449754744447152,-0.930505995711354,-0.34883702973385716
1729690894.2743452,40,1729690894,270109696,map,0.5582762360572815,3.6492254734039307,-0.05765609070658684,-0.0653131075078399,-0.07804494717382718,-0.9370900500726699,-0.33392427624104354
1729690894.3683665,41,1729690894,367109440,map,0.565700888633728,3.589573860168457,-0.06453876197338104,-0.053954104110325245,-0.058335385758584886,-0.9433347717396348,-0.32218852531550635
1729690894.469178,42,1729690894,467107648,map,0.5855967998504639,3.5277717113494873,-0.07246769219636917,-0.042440485921507766,-0.04104005326490299,-0.949403091993148,-0.30846116140708935
1729690894.5681884,43,1729690894,566108672,map,0.6142406463623047,3.4677298069000244,-0.08257986605167389,-0.03795197559631077,-0.03430863119557229,-0.9535516621216832,-0.29685315062973233
1729690894.6681285,44,1729690894,667106112,map,0.6518322229385376,3.4109950065612793,-0.09483130276203156,-0.031023298736925334,-0.044884020662325615,-0.9567245749482418,-0.2858339855838864
1729690894.7682288,45,1729690894,767105600,map,0.6980661749839783,3.3592615127563477,-0.10174543410539627,-0.022569171855834857,-0.053496188860977116,-0.9604282779661257,-0.27240835732795515
1729690894.8699365,46,1729690894,867105344,map,0.7477322220802307,3.319833993911743,-0.09917262196540833,-0.013555334993107368,-0.059614472127846034,-0.9644756707536675,-0.2570000936389053
1729690894.972421,47,1729690894,970103552,map,0.8027006387710571,3.2899861335754395,-0.0980786383152008,-0.009214279440810356,-0.057573919359432436,-0.9686761896411361,-0.24138512896678216
1729690895.0674784,48,1729690895,65103552,map,0.8550611138343811,3.2748682498931885,-0.08720874786376953,-0.004836030505107057,-0.05017580513450685,-0.9731989725853178,-0.22437192593312416
1729690895.185496,49,1729690895,183101504,map,0.918913722038269,3.266818046569824,-0.07867328077554703,-0.0003939869254378869,-0.042558324112128225,-0.977172123980284,-0.20814243666040377
1729690895.2685215,50,1729690895,266102016,map,0.9662555456161499,3.2641680240631104,-0.06956741213798523,-0.0008911034946462886,-0.036041769261430774,-0.9800334228856182,-0.19553691935326883
1729690895.3654964,51,1729690895,363101248,map,1.024868369102478,3.2685227394104004,-0.05163835734128952,0.0010064864032301977,-0.03641524404658473,-0.9806299235295758,-0.19245225398660853
1729690895.4715858,52,1729690895,469102528,map,1.0908122062683105,3.272900104522705,-0.02608867920935154,0.0026671666725922895,-0.031305395280810146,-0.9783251466374098,-0.2046772237088033
1729690895.5687346,53,1729690895,567100736,map,1.1513867378234863,3.2794883251190186,0.003234823700040579,0.007705410088634536,-0.02604897751914889,-0.9710496231503838,-0.23732826802778983
1729690895.6685998,54,1729690895,666098944,map,1.2097969055175781,3.296950340270996,0.0394732840359211,0.0139864320891973,-0.028744954052081034,-0.9580300939892374,-0.2848797050422005
1729690895.7688286,55,1729690895,767097408,map,1.2632434368133545,3.323551893234253,0.07710302621126175,0.01864848405945615,-0.03982989020582853,-0.9401033586913619,-0.3380406615567079
1729690895.869143,56,1729690895,867098432,map,1.316341757774353,3.3609390258789062,0.1250741183757782,0.01941754181134292,-0.0394796747883217,-0.9189653044678846,-0.3918763625594959
1729690895.9690473,57,1729690895,968093056,map,1.36918306350708,3.4089646339416504,0.17485979199409485,0.017696946315411036,-0.03445595081850279,-0.8956721872227356,-0.44302476068493435
1729690896.0663397,58,1729690896,65088704,map,1.4247634410858154,3.460224151611328,0.227287158370018,0.017183186485356442,-0.025176548623794752,-0.8721684451903845,-0.48825514100292927
1729690896.1690512,59,1729690896,167086144,map,1.4850187301635742,3.518954038619995,0.2853667140007019,0.017554636784624926,-0.01631025471128295,-0.8451267362289596,-0.5340286603072903
1729690896.269486,60,1729690896,268084608,map,1.5408858060836792,3.5837795734405518,0.33912405371665955,0.019140749765321645,-0.00738232667719945,-0.8166628835727217,-0.5767502644524231
1729690896.3673398,61,1729690896,365080512,map,1.5899661779403687,3.6533069610595703,0.40302813053131104,0.018160491062905616,0.00011646524365646579,-0.7873199874400942,-0.61627706462072
1729690896.4669282,62,1729690896,466080000,map,1.6376253366470337,3.7231783866882324,0.4686070680618286,0.01387115362126077,0.011397515147097559,-0.7566195662859367,-0.6536088430085442
1729690896.5674374,63,1729690896,563079232,map,1.6812678575515747,3.789130687713623,0.5306391716003418,0.00975014658215602,0.02328485805580263,-0.7256923172342633,-0.6875561146074646
1729690896.6678355,64,1729690896,666078720,map,1.7275755405426025,3.8550610542297363,0.6019828915596008,0.006113664265816514,0.033394977080307926,-0.6948183916913269,-0.7183834638843856
1729690896.7673738,65,1729690896,766078464,map,1.7719205617904663,3.9145851135253906,0.6738932728767395,0.003069152596710594,0.04092306698858253,-0.6641133031876338,-0.7465047912905823
1729690896.8698273,66,1729690896,868076160,map,1.8125656843185425,3.9715187549591064,0.7421859502792358,-0.0007847973827438077,0.04741900341983643,-0.6337595847983901,-0.772074873884593
1729690896.9838545,67,1729690896,973070016,map,1.852832317352295,4.025915622711182,0.8123964071273804,-0.003786194571807041,0.04913702365592101,-0.6041547408486209,-0.7953416038074694
1729690897.0678108,68,1729690897,66066432,map,1.8820115327835083,4.074321269989014,0.8822725415229797,-0.00883493862714436,0.05005092085695354,-0.5739915684187604,-0.817282404414164
1729690897.169248,69,1729690897,168066432,map,1.909626841545105,4.126604080200195,0.959848165512085,-0.010252440156506943,0.04579455973335309,-0.543353241107733,-0.838191506248654
1729690897.2679844,70,1729690897,266064896,map,1.93291437625885,4.1733717918396,1.0296351909637451,-0.010847472416587883,0.04342786793209994,-0.5222957177337482,-0.8515888302849165
1729690897.3763788,71,1729690897,375064896,map,1.9569098949432373,4.2208662033081055,1.1040232181549072,-0.013223322813734277,0.046028356623791254,-0.501456055564011,-0.863856677035294
1729690897.4673007,72,1729690897,465067712,map,1.9723706245422363,4.2592339515686035,1.1564745903015137,-0.012559426277256446,0.04896916060595809,-0.4883585093132188,-0.8711775068850806
1729690897.5703528,73,1729690897,569065664,map,1.9837579727172852,4.302703380584717,1.2161827087402344,-0.014661555793180927,0.052360949852244904,-0.4775136169139879,-0.8769402005690098
1729690897.6670938,74,1729690897,666065920,map,1.992205023765564,4.339242935180664,1.2595840692520142,-0.0199867594379444,0.05330223250921845,-0.4698638729687289,-0.8809014373558084
1729690897.768065,75,1729690897,767066688,map,1.9979547262191772,4.371843338012695,1.2994438409805298,-0.026225160610085514,0.05820732549461814,-0.461679333615968,-0.8847464840968033
1729690897.8671272,76,1729690897,866068992,map,2.0015358924865723,4.394500732421875,1.3380157947540283,-0.0301142572383554,0.062002323837713515,-0.38524799982527214,-0.9202351992726274
1729690897.9703999,77,1729690897,969067712,map,2.0030627250671387,4.405677318572998,1.3737825155258179,-0.03949932342905836,0.06354485961000525,-0.3785913298767559,-0.9225348010822902
1729690898.0715468,78,1729690898,70067968,map,2.0016868114471436,4.413515567779541,1.4031349420547485,-0.03987559631623073,0.06051379158628129,-0.3616621299744976,-0.9294883117008985
1729690898.1674373,79,1729690898,166066432,map,1.9987331628799438,4.416963577270508,1.426631212234497,-0.03497113695036239,0.054523413860551026,-0.34696950237653035,-0.9356368854112009
1729690898.2727127,80,1729690898,271071040,map,1.9955779314041138,4.41711950302124,1.4436228275299072,-0.03016236936272608,0.04988508843164182,-0.34046523294344877,-0.9384482588738481
1729690898.3689485,81,1729690898,367070528,map,1.9957714080810547,4.416496753692627,1.4486889839172363,-0.026092168952428524,0.04682174524543126,-0.3354907825380933,-0.94051733515311
1729690898.4676106,82,1729690898,466071040,map,1.9949284791946411,4.412421226501465,1.4492368698120117,-0.02288572953958839,0.04440061049777499,-0.3347680722815856,-0.9409756463117083
1729690898.5670857,83,1729690898,565067968,map,1.99293851852417,4.406382083892822,1.4456425905227661,-0.018749803875342037,0.04551070921189778,-0.3348960821573457,-0.940968561832608
1729690898.6680741,84,1729690898,667065664,map,1.9916858673095703,4.396346092224121,1.4419506788253784,-0.018851143771085405,0.04551210072513987,-0.33537063370813475,-0.9407974389380057
1729690898.7674534,85,1729690898,763065664,map,1.9913899898529053,4.3833136558532715,1.4359467029571533,-0.025162355854856912,0.04800638429022761,-0.338411020948825,-0.9394361201356838
1729690898.8686197,86,1729690898,867066432,map,1.9896061420440674,4.367806434631348,1.4296705722808838,-0.022808693711011886,0.05348855715363723,-0.344156860024499,-0.9371098086365848
1729690898.964564,87,1729690898,963066176,map,1.9854236841201782,4.352715969085693,1.4224756956100464,-0.022630902770892868,0.05803571991691061,-0.35793126194562785,-0.9316678105287906
1729690899.0683396,88,1729690899,65061056,map,1.9786688089370728,4.334815979003906,1.4129871129989624,-0.01778395176953141,0.05637445139604256,-0.3730859749611449,-0.9259117169452744
1729690899.1683497,89,1729690899,167060032,map,1.9688267707824707,4.316114902496338,1.4045352935791016,-0.012841911059934532,0.0519945034640748,-0.38895660226798384,-0.9196980039567328
1729690899.2673662,90,1729690899,266062080,map,1.9585204124450684,4.294223785400391,1.3957277536392212,-0.012140417989630585,0.04949143451934358,-0.40675068314639795,-0.9121168181325203
1729690899.3684695,91,1729690899,367059520,map,1.947702169418335,4.26787805557251,1.384846806526184,-0.012179069739176084,0.048260394368078614,-0.42212167196348965,-0.9051717509149707
1729690899.4683006,92,1729690899,467052864,map,1.9363272190093994,4.239952087402344,1.374868631362915,-0.006139965508536458,0.04661341142388774,-0.4370779671430632,-0.8981939330328772
1729690899.5645127,93,1729690899,563048768,map,1.9250282049179077,4.211298942565918,1.367840051651001,-0.0013964109900077403,0.044159631552296824,-0.45258432759255784,-0.8906264106768361
1729690899.6696994,94,1729690899,668048512,map,1.9105796813964844,4.179727554321289,1.3627123832702637,0.002449368545767095,0.04092148305414449,-0.4669187238502288,-0.8833494994261615
1729690899.7708147,95,1729690899,769049536,map,1.8939933776855469,4.150550842285156,1.3592956066131592,0.003250438971689265,0.03977242815837154,-0.4806194873943689,-0.876020831340016
1729690899.8660066,96,1729690899,864051072,map,1.8763715028762817,4.123757362365723,1.356289029121399,0.0017888675546212443,0.03888972138803619,-0.49319784224538155,-0.8690456132607384
1729690899.9686646,97,1729690899,967050048,map,1.85490882396698,4.094633102416992,1.3545218706130981,0.00034459702365745326,0.03728486694404391,-0.5047838067048251,-0.8624401593377026
1729690900.069902,98,1729690900,68050048,map,1.832576036453247,4.067980766296387,1.3538657426834106,-0.002150305712259093,0.03330895541937399,-0.5133199123361412,-0.8575479912363099
1729690900.165035,99,1729690900,164047488,map,1.8092941045761108,4.044005393981934,1.3562198877334595,-0.003161084642924973,0.028125292441326395,-0.5183463710920964,-0.8547022961503173
1729690900.271043,100,1729690900,269043648,map,1.7838482856750488,4.018928527832031,1.3617037534713745,-0.0038014629737745747,0.023732856779516306,-0.522844980468079,-0.8520888608517752
1729690900.3669057,101,1729690900,365039808,map,1.7599250078201294,3.996624708175659,1.3659260272979736,-0.001281072814451172,0.02164423723180107,-0.5278342204509595,-0.8490706222500137
1729690900.4692025,102,1729690900,467037248,map,1.735925555229187,3.9768781661987305,1.3717081546783447,0.000415699793602334,0.019450979498059507,-0.5330686010725729,-0.8458483038587817
1729690900.5681963,103,1729690900,566029568,map,1.7138465642929077,3.961884021759033,1.3804782629013062,-0.00141595932654744,0.015625066985923634,-0.5388631037359821,-0.8422472367261855
1729690900.6668758,104,1729690900,666029568,map,1.693826675415039,3.9462392330169678,1.3872965574264526,-0.0038404340007550577,0.013743868749277537,-0.5423571762546502,-0.8400268153479213
1729690900.7689965,105,1729690900,767042880,map,1.677903413772583,3.9297049045562744,1.3859723806381226,-0.004196178683880573,0.011298788750431403,-0.5459328666691687,-0.837742224402954
1729690900.8740757,106,1729690900,872037248,map,1.6632273197174072,3.915189266204834,1.3851896524429321,-0.004202822750859636,0.011003714884230832,-0.5508707843759523,-0.8345074196558677
1729690900.9700341,107,1729690900,968037248,map,1.651065707206726,3.9058103561401367,1.3859796524047852,-0.003108388726237492,0.011664759746898588,-0.5554188949589847,-0.8314830860709762
1729690901.0671763,108,1729690901,65037248,map,1.638664722442627,3.9002187252044678,1.3821848630905151,-0.0038158671434654684,0.012926802865383035,-0.562485154072348,-0.8266975192740267
1729690901.1710517,109,1729690901,169039808,map,1.625220775604248,3.898056983947754,1.3878672122955322,-0.003445227670787669,0.014086259079240878,-0.5667621305614563,-0.8237538437378534
1729690901.2752428,110,1729690901,273039808,map,1.6125260591506958,3.9012649059295654,1.3843297958374023,-0.005949981542807248,0.014832180441779943,-0.5705299778177066,-0.821121275180658
1729690901.3741295,111,1729690901,372043136,map,1.6010702848434448,3.907820463180542,1.3796555995941162,-0.010725357663495456,0.016768849528529403,-0.5713557088215796,-0.8204611059553464
1729690901.4762053,112,1729690901,473041344,map,1.592142105102539,3.915496349334717,1.3697667121887207,-0.017647910953073945,0.01806841864517706,-0.5704948652459051,-0.8209127189992318
1729690901.5747738,113,1729690901,572041088,map,1.5855021476745605,3.9236838817596436,1.365837574005127,-0.01930023197619413,0.018708345142332772,-0.5691636910263871,-0.8217847599492948
1729690901.6765869,114,1729690901,675043904,map,1.5813803672790527,3.931387186050415,1.3678559064865112,-0.01805415076268142,0.018355321242685387,-0.5671069658757685,-0.8232416529048419
1729690901.7748723,115,1729690901,773044928,map,1.580451488494873,3.9391143321990967,1.372900366783142,-0.018213698154563397,0.01825988468253741,-0.564536802496079,-0.8250048705543611
1729690901.8743947,116,1729690901,873045952,map,1.581702709197998,3.9459455013275146,1.3813462257385254,-0.018834799155677,0.020227103955245577,-0.5612855413252036,-0.8271605984968228
1729690901.9700058,117,1729690901,967045184,map,1.5851036310195923,3.9522042274475098,1.3891021013259888,-0.017390306352818657,0.023545232707125125,-0.557503097389654,-0.8296586621392343
1729690902.0752404,118,1729690902,73041856,map,1.5913718938827515,3.958512544631958,1.401923418045044,-0.017631764145264208,0.02743497671369779,-0.5524075334418028,-0.8329359879021844
1729690902.170048,119,1729690902,169041600,map,1.599353313446045,3.9633078575134277,1.412378191947937,-0.01657493378274463,0.029304205087710092,-0.5472082126363419,-0.8363191419294522
1729690902.269523,120,1729690902,267040832,map,1.6079102754592896,3.969099283218384,1.4255450963974,-0.010792144965289827,0.0305188438768891,-0.5424865898254974,-0.839440545622481
1729690902.3671844,121,1729690902,363042112,map,1.6161872148513794,3.975303888320923,1.4409351348876953,-0.009132231320286255,0.031227482417393263,-0.5365358561956516,-0.8432500944022379
1729690902.4701269,122,1729690902,467039552,map,1.625413179397583,3.9805920124053955,1.4544832706451416,-0.008563126076617042,0.03172566943194816,-0.5295647246809994,-0.8476327961708584
1729690902.5689943,123,1729690902,566039296,map,1.6334953308105469,3.9855918884277344,1.4656624794006348,-0.005855698415885629,0.03263605167414371,-0.5236271131982256,-0.8513020881278732
1729690902.6693242,124,1729690902,668039040,map,1.6415756940841675,3.9914000034332275,1.4736865758895874,-0.007892974514964717,0.035554605529755916,-0.5170428098070428,-0.8551843683123354
1729690902.7700891,125,1729690902,769038272,map,1.648911952972412,3.9984350204467773,1.4770609140396118,-0.012003180326665227,0.03466453941906009,-0.5146809325549071,-0.856596655978367
1729690902.869671,126,1729690902,868037760,map,1.6565372943878174,4.002758026123047,1.4730859994888306,-0.016409619387981078,0.036112049751957156,-0.5127829957753847,-0.8576014479336399
1729690902.9688556,127,1729690902,967036992,map,1.664885401725769,4.00471305847168,1.4628794193267822,-0.016945920937336996,0.035604097437457446,-0.512513312092542,-0.8577734484916061
1729690903.0691805,128,1729690903,68033408,map,1.674145221710205,4.002480983734131,1.4578016996383667,-0.013276885867433953,0.03449291276651497,-0.5155545394991536,-0.8560592736909989
1729690903.168252,129,1729690903,167034176,map,1.683880090713501,3.9971566200256348,1.4569038152694702,-0.008296802886759953,0.030888656736304917,-0.5169968343222864,-0.8553895763028792
1729690903.2674608,130,1729690903,265035968,map,1.691782832145691,3.9906668663024902,1.4564712047576904,-0.005529379681394182,0.02997375734552545,-0.5213585145609746,-0.8527932335130859
1729690903.371824,131,1729690903,369033920,map,1.698499321937561,3.983412981033325,1.4572515487670898,-0.004793350043484269,0.030849940795195926,-0.5271226883911793,-0.8492155064125649
1729690903.4657054,132,1729690903,463035456,map,1.7034968137741089,3.9754581451416016,1.456629991531372,-0.004911009230125748,0.03130530229556262,-0.5327863411408511,-0.8456562982265726
1729690903.569983,133,1729690903,567032640,map,1.7079659700393677,3.965914487838745,1.455674171447754,-0.004788168189700518,0.02997797557125375,-0.5392958654779589,-0.8415689893908967
1729690903.6684446,134,1729690903,666031360,map,1.7092070579528809,3.957348346710205,1.458016276359558,-0.004645902931375568,0.02828315701900155,-0.5466651562965952,-0.8368606129494983
1729690903.7695372,135,1729690903,767028032,map,1.7087475061416626,3.9493191242218018,1.471327543258667,-0.0027329396908601566,0.024762686464061566,-0.5500929383047335,-0.8347317530961627
1729690903.8696415,136,1729690903,867025216,map,1.7092877626419067,3.9394047260284424,1.4851653575897217,-0.005389039594500384,0.023573810698136,-0.5534484213430071,-0.8325323288703873
1729690903.9674048,137,1729690903,966024960,map,1.7109006643295288,3.928722620010376,1.4966115951538086,-0.004268414647785645,0.025502969572667518,-0.5559630577092683,-0.8308047048746963
1729690904.0676322,138,1729690904,65023168,map,1.7153759002685547,3.917365789413452,1.5149614810943604,0.00048220104074765934,0.024881751680372995,-0.5573464130690081,-0.8299070078958144
1729690904.1679204,139,1729690904,166022912,map,1.7229738235473633,3.9047493934631348,1.5329698324203491,0.003937998660747367,0.026039335945495547,-0.5574240715314027,-0.8298101286604179
1729690904.2676098,140,1729690904,266024192,map,1.7293956279754639,3.893902540206909,1.549391746520996,0.005258922428089418,0.02679166160133883,-0.5595131549870735,-0.8283716436479134
1729690904.3716483,141,1729690904,370021376,map,1.7351025342941284,3.884219169616699,1.5589277744293213,0.004936347629812381,0.027274857035129014,-0.561703270265796,-0.8268743258914868
1729690904.4687576,142,1729690904,466022912,map,1.7375438213348389,3.877683162689209,1.5627291202545166,0.008115538842184262,0.0287586496818683,-0.5623633273020923,-0.8263501474577808
1729690904.56659,143,1729690904,565021888,map,1.7376525402069092,3.8728978633880615,1.5676616430282593,0.009010159538384362,0.027119368686234258,-0.5674677903827816,-0.8228995465700758
1729690904.668639,144,1729690904,667020096,map,1.7344945669174194,3.8684959411621094,1.572962760925293,0.008184044141396216,0.025057293583831144,-0.570524198506236,-0.8208576565876462
1729690904.769536,145,1729690904,768020352,map,1.728654384613037,3.8644325733184814,1.5801877975463867,0.0042250477527812,0.021451229050069576,-0.5741142499744036,-0.8184832446177847
1729690904.8721554,146,1729690904,870017792,map,1.7218289375305176,3.8614091873168945,1.586888313293457,0.005752192725536825,0.019238924059498463,-0.5786890625874225,-0.8153010149150872
1729690904.9644976,147,1729690904,963017280,map,1.7153303623199463,3.858896255493164,1.5870585441589355,0.006223773005529221,0.01666569275367002,-0.5846829619080843,-0.8110667995849696
1729690905.0697474,148,1729690905,68015744,map,1.7064344882965088,3.856388807296753,1.5771396160125732,0.0027747278757848247,0.01548561912730856,-0.5900047713243215,-0.8072464718411562
1729690905.1684854,149,1729690905,166016256,map,1.6963199377059937,3.8549587726593018,1.5599652528762817,0.00169795709899181,0.01456802573726059,-0.5952613620810703,-0.8033982825356284
1729690905.2665837,150,1729690905,265017792,map,1.685526967048645,3.8536996841430664,1.5412306785583496,0.00025916241849270117,0.013433678770016224,-0.5991811471902995,-0.8005007320179424
1729690905.371179,151,1729690905,369017536,map,1.6747304201126099,3.853058099746704,1.5204823017120361,0.0005126180339654985,0.008664363067587496,-0.6034215636831697,-0.7973751203276552
1729690905.4695084,152,1729690905,468017280,map,1.6643911600112915,3.852618932723999,1.502192735671997,-0.001100094465220493,0.009664130756335309,-0.6061133870731643,-0.7953187765792963
1729690905.5655954,153,1729690905,564014464,map,1.6561291217803955,3.8525705337524414,1.485386610031128,-0.005768090913864192,0.00875407868454564,-0.6060828370891261,-0.795332439813434
1729690905.665966,154,1729690905,664014208,map,1.64859938621521,3.8538763523101807,1.4705146551132202,-0.006656697939158177,0.006898819203244362,-0.6029764649860988,-0.7977013710274139
1729690905.7692013,155,1729690905,768015232,map,1.6427332162857056,3.856560468673706,1.459891676902771,-0.005957123433452729,0.005074686167722514,-0.598817108302419,-0.800847570418383
1729690905.8688753,156,1729690905,867013952,map,1.6376216411590576,3.8592445850372314,1.4521292448043823,-0.004074829406738422,0.004800212831379101,-0.5955864249099526,-0.8032665586124328
1729690905.968205,157,1729690905,966014464,map,1.6331896781921387,3.8619272708892822,1.4450973272323608,-0.0037424813145455755,0.005885419990076358,-0.5923369427772991,-0.805660165259766
1729690906.0700877,158,1729690906,68010624,map,1.6293458938598633,3.86541485786438,1.4373964071273804,-0.0052838666222813505,0.007284556011364348,-0.589323041708078,-0.8078473670868613
1729690906.1706922,159,1729690906,169011136,map,1.6253329515457153,3.8694725036621094,1.4259670972824097,-0.003735632486329137,0.009950600270271356,-0.5878323322710574,-0.8089129617832548
1729690906.270793,160,1729690906,269018048,map,1.6235615015029907,3.874171495437622,1.4201096296310425,-0.0028795165215799875,0.010823882763540823,-0.5891573937687484,-0.8079406644761352
1729690906.3668716,161,1729690906,365019328,map,1.623189091682434,3.8797850608825684,1.4194694757461548,-0.00011163942401549621,0.01289189826232036,-0.5924931101574784,-0.8054723464599831
1729690906.4685276,162,1729690906,467016256,map,1.6245110034942627,3.8871359825134277,1.4147621393203735,-0.0003308501741262822,0.013506273924754978,-0.5975657069616669,-0.8017061163333078
1729690906.5650778,163,1729690906,563016512,map,1.6260404586791992,3.8965020179748535,1.404378056526184,-0.0017687354545065904,0.014837023557780061,-0.6031907271961181,-0.7974570088296021
1729690906.6678433,164,1729690906,666010624,map,1.6298832893371582,3.908451557159424,1.391050100326538,-0.003856494090191571,0.016129675986826006,-0.6079625573201766,-0.7937924728180554
1729690906.7673595,165,1729690906,765006784,map,1.6354693174362183,3.9208199977874756,1.3825863599777222,-0.004778556460499647,0.01803387647056166,-0.6121877712880694,-0.7904923006474792
1729690906.8770766,166,1729690906,875004224,map,1.6440320014953613,3.9348649978637695,1.3764598369598389,-0.0070194980847131825,0.017710788878479353,-0.6143698219359448,-0.7887881695983631
1729690906.9699602,167,1729690906,967995520,map,1.6536307334899902,3.9470601081848145,1.3743404150009155,-0.006247218287438442,0.020070602087907976,-0.6173549501405062,-0.7864038458276456
1729690907.0671093,168,1729690907,64995520,map,1.663770318031311,3.9577078819274902,1.3745167255401611,-0.0075070824119393064,0.027346557366251845,-0.6204746802676114,-0.7837135833074989
1729690907.1679716,169,1729690907,165987584,map,1.673831820487976,3.966700792312622,1.3767940998077393,-0.008539761072358844,0.02819054150120969,-0.622331371453554,-0.7821994822009499
1729690907.272331,170,1729690907,269981952,map,1.6826599836349487,3.9721884727478027,1.3780701160430908,-0.006665199669226743,0.028351968642541674,-0.6229878893722769,-0.7816890882460477
1729690907.369962,171,1729690907,368976576,map,1.6893765926361084,3.9745476245880127,1.378567099571228,-0.004096239919352975,0.026827293559892777,-0.6241396522452372,-0.7808413485683049
1729690907.4750354,172,1729690907,472973760,map,1.6965219974517822,3.9771578311920166,1.377747654914856,-0.003910562624806529,0.02575461347978303,-0.6263122454933365,-0.7791369446570732
1729690907.5730186,173,1729690907,571975552,map,1.7030054330825806,3.9798288345336914,1.372684359550476,-0.0018159171833145636,0.026086425700190107,-0.6283810602203869,-0.777466040412875
1729690907.67602,174,1729690907,673972736,map,1.7100721597671509,3.983095407485962,1.362907886505127,-0.0016908015237689126,0.02581971300218151,-0.6309290946609866,-0.7754088993047217
1729690907.7771525,175,1729690907,774974272,map,1.716705083847046,3.9872374534606934,1.3556312322616577,0.0004135633229755909,0.026223451042728597,-0.6342850909123245,-0.7726542454598512
1729690907.8761241,176,1729690907,874972224,map,1.7202997207641602,3.991868257522583,1.3504323959350586,0.00024763850628118825,0.026319406168715833,-0.6362022101364176,-0.771073261987234
1729690907.9731119,177,1729690907,970972480,map,1.7206982374191284,3.99666428565979,1.3438698053359985,-0.0017378775529921927,0.02840946592595676,-0.6363971978443247,-0.770836226836352
1729690908.0709527,178,1729690908,68966080,map,1.7197245359420776,4.000216484069824,1.3399810791015625,-0.006011548544506928,0.03008649739185335,-0.6346188303170155,-0.772216034646944
1729690908.164218,179,1729690908,161962752,map,1.7172491550445557,4.001889705657959,1.339243769645691,-0.010459462127915079,0.026636912697193132,-0.6323900897146839,-0.7741213399491134
1729690908.2744517,180,1729690908,272960960,map,1.7148654460906982,4.002986431121826,1.3409255743026733,-0.012860132186403554,0.023595292262362816,-0.6307447061593466,-0.7755249801490351
1729690908.3761296,181,1729690908,374961984,map,1.7135006189346313,4.003374099731445,1.3443846702575684,-0.009838739068423938,0.022105228915749127,-0.628667328293135,-0.7772978505083475
1729690908.4671028,182,1729690908,464963264,map,1.7118347883224487,4.003283500671387,1.3440196514129639,-0.005445640296176326,0.023920696645418692,-0.6313457705877022,-0.7751133228340119
1729690908.5682073,183,1729690908,565963008,map,1.7097687721252441,4.002166748046875,1.3454567193984985,-0.0021170312073588667,0.025779352109533072,-0.6334514915128209,-0.7733499538267667
1729690908.6673188,184,1729690908,664959680,map,1.7081255912780762,3.999027967453003,1.3523776531219482,-0.002355913220135774,0.02380544972900975,-0.6357563073098574,-0.7715190651901176
1729690908.7655745,185,1729690908,763960448,map,1.7066855430603027,3.9939966201782227,1.3588693141937256,-0.004639508314024658,0.02245663058892858,-0.6378287312691552,-0.7698367906723973
1729690908.8673441,186,1729690908,865956352,map,1.7049410343170166,3.98746919631958,1.3565025329589844,-0.005534892938610275,0.02292300273371801,-0.6384251588423943,-0.7693225704884081
1729690908.9683673,187,1729690908,966954560,map,1.7029436826705933,3.9793927669525146,1.3539823293685913,-0.0026632875315932337,0.022732813957121897,-0.6395366366380089,-0.7684198178514516
1729690909.0684636,188,1729690909,66950720,map,1.6997594833374023,3.9721031188964844,1.351751685142517,-0.00015021115600999938,0.020336542471032188,-0.6414432831192833,-0.7669008521432791
1729690909.1650693,189,1729690909,162946112,map,1.6947318315505981,3.965667247772217,1.3538930416107178,-0.0014849804006147086,0.020081314131575715,-0.6429893912108734,-0.7656103306814956
1729690909.269319,190,1729690909,266946112,map,1.6908514499664307,3.9592795372009277,1.3607765436172485,-0.004602055744151037,0.019382310120509245,-0.642402019950789,-0.7661088642617746
1729690909.3713188,191,1729690909,368945856,map,1.6889569759368896,3.95367431640625,1.36983060836792,-0.00667837675941502,0.01730849618793374,-0.6412251433278569,-0.767128496933689
1729690909.4692285,192,1729690909,467944064,map,1.6890650987625122,3.945523500442505,1.377572774887085,-0.006599352042585427,0.0164322594583607,-0.6407203163807083,-0.7675701307233863
1729690909.5683103,193,1729690909,565945344,map,1.6906321048736572,3.935842752456665,1.3880258798599243,-0.002113957363920798,0.016036917985782526,-0.6408860324705623,-0.767465596512262
1729690909.671571,194,1729690909,667943296,map,1.6920400857925415,3.924423933029175,1.4007285833358765,0.0005614289465182942,0.015664838524759504,-0.6406283682415882,-0.767691078126906
1729690909.7690768,195,1729690909,766943296,map,1.6924418210983276,3.9135000705718994,1.4130940437316895,0.0038900001931703233,0.014850719370902727,-0.6398287429190281,-0.768364173922314
1729690909.8676808,196,1729690909,864941248,map,1.6929506063461304,3.9049270153045654,1.4248430728912354,0.002714798372405124,0.013650288994679228,-0.6382213933662294,-0.7697270636594686
1729690909.9714131,197,1729690909,968938432,map,1.6938999891281128,3.896864891052246,1.4408162832260132,0.0014331701297647108,0.014253062084000968,-0.6383274511546313,-0.7696316400376485
1729690910.0678575,198,1729690910,65934336,map,1.694811463356018,3.892190933227539,1.4591742753982544,0.0016419356658890266,0.015791045420789827,-0.6389104493188813,-0.7691172762868695
1729690910.1696858,199,1729690910,166932288,map,1.695605993270874,3.8890984058380127,1.4728139638900757,0.0019008843233495347,0.016416806381272502,-0.6401045882908861,-0.7681100124044629
1729690910.2654042,200,1729690910,262932288,map,1.6960822343826294,3.888143539428711,1.480782151222229,-0.001093520547573803,0.017031409788827615,-0.6423627810544628,-0.7662106712969962
1729690910.3727956,201,1729690910,366930240,map,1.696300745010376,3.8892385959625244,1.4852852821350098,-0.0030740495121739657,0.017674634471738834,-0.643751899394848,-0.7650239535736203
1729690910.4708135,202,1729690910,468930752,map,1.696323037147522,3.8920300006866455,1.4855188131332397,-0.0009176620768588594,0.01729013396850706,-0.643808458695743,-0.7649907696668474
1729690910.569695,203,1729690910,567930752,map,1.6970857381820679,3.8959569931030273,1.4880647659301758,0.0004251772128240504,0.018617270705747445,-0.6440662711705567,-0.7647429991809417
1729690910.668601,204,1729690910,666929472,map,1.6993662118911743,3.9001357555389404,1.4876803159713745,-0.0015825805312695495,0.019932522583572265,-0.6433872650653871,-0.7652796986291998
1729690910.7683468,205,1729690910,764925376,map,1.70294189453125,3.9048094749450684,1.4880393743515015,-0.003600521334542334,0.022648614421287263,-0.6431661606742193,-0.765383149980779
1729690910.868806,206,1729690910,866923840,map,1.7072323560714722,3.9105870723724365,1.48704993724823,-0.003133456449872344,0.023478367316813905,-0.6448654823230376,-0.7639289609820337
1729690910.9677596,207,1729690910,964924608,map,1.7112873792648315,3.9161486625671387,1.4772237539291382,-0.0037279000291266275,0.024877628654226453,-0.6452611744331423,-0.7635477870592495
1729690911.0697021,208,1729690911,66922816,map,1.715690016746521,3.9195351600646973,1.4641469717025757,-0.003661150711324715,0.026733015832092293,-0.6484211607796107,-0.7608034832288901
1729690911.1675498,209,1729690911,165923840,map,1.720141053199768,3.921403646469116,1.453363299369812,-0.004384027969874738,0.027426968655635577,-0.6517061690505562,-0.757962803118049
1729690911.2685146,210,1729690911,266924352,map,1.7245694398880005,3.922074317932129,1.4461095333099365,-0.0024825499777012105,0.02762733435528545,-0.652866616055979,-0.7569648267797153
1729690911.3675165,211,1729690911,365926144,map,1.7291964292526245,3.920105218887329,1.4484436511993408,-0.003296490252256262,0.02667543908737261,-0.6541623908736665,-0.7558763923208353
1729690911.4645536,212,1729690911,462926400,map,1.7325142621994019,3.9166791439056396,1.4528083801269531,-0.0038385035893991025,0.02544189036783103,-0.6554329390104233,-0.7548149697540876
1729690911.567812,213,1729690911,565926400,map,1.7345136404037476,3.910992383956909,1.453849196434021,-0.0012409680530449578,0.023626490494426146,-0.6564970580432693,-0.7539574667882403
1729690911.6645665,214,1729690911,663926656,map,1.7356560230255127,3.90582537651062,1.4515419006347656,0.0007001817516711343,0.022156841995806573,-0.6571683611442469,-0.753417765392662
1729690911.7686474,215,1729690911,766925632,map,1.735552191734314,3.90045166015625,1.4485822916030884,0.004203989397765456,0.023060860661736612,-0.657833020263447,-0.7527989377182692
1729690911.871915,216,1729690911,869918720,map,1.7350138425827026,3.894932270050049,1.4426602125167847,0.0031378619506599917,0.02265952309684954,-0.6585309095428455,-0.7522059166292662
1729690911.9705365,217,1729690911,968917952,map,1.734178900718689,3.88976788520813,1.438065528869629,0.0022766114835400925,0.022815811185583998,-0.6590085971476465,-0.7517858236795821
1729690912.0675197,218,1729690912,65915904,map,1.7324308156967163,3.8851242065429688,1.4351824522018433,0.003337614294396206,0.021342815222840122,-0.6587571288896912,-0.7520454705044081
1729690912.166677,219,1729690912,164913600,map,1.7297769784927368,3.8800604343414307,1.43478524684906,0.0025405667679588833,0.021594749797754696,-0.6557231249797397,-0.7546882771505562
1729690912.2687483,220,1729690912,266911296,map,1.7267663478851318,3.876786708831787,1.4340782165527344,0.003463458632362828,0.01801483634896346,-0.652500690038328,-0.7575660496782626
1729690912.3650656,221,1729690912,362906688,map,1.7238420248031616,3.8754003047943115,1.4316598176956177,0.008140685585894477,0.017815600454576194,-0.6512131346623459,-0.758642067685332
1729690912.4650617,222,1729690912,462905408,map,1.721306562423706,3.8770639896392822,1.429963231086731,0.0075075002631714485,0.01941561457854523,-0.6506919260822688,-0.7590564463079693
1729690912.567063,223,1729690912,564902336,map,1.7156950235366821,3.881662130355835,1.4279370307922363,0.00580591045558116,0.024401780332073034,-0.6526424460901405,-0.7572507392415574
1729690912.6660712,224,1729690912,663913344,map,1.713033676147461,3.8862998485565186,1.4258601665496826,0.003153066666947122,0.02519278536124516,-0.6553752558592629,-0.7548765831205398
1729690912.7670968,225,1729690912,764925888,map,1.7114636898040771,3.8883309364318848,1.4285186529159546,0.0030835701111239905,0.02487879727195169,-0.6569149643104445,-0.7535477866112261
1729690912.8692944,226,1729690912,866918208,map,1.714242696762085,3.8914005756378174,1.4357243776321411,0.000923432433963601,0.02472201772234096,-0.6591540682088473,-0.7516008804385493
1729690912.9683535,227,1729690912,965909760,map,1.7198493480682373,3.8952014446258545,1.4480433464050293,0.002499036379622479,0.025610895109034738,-0.6599711203519245,-0.7508501562697532
1729690913.0697563,228,1729690913,68903360,map,1.7263215780258179,3.89984130859375,1.4573160409927368,0.0012463802035074002,0.027748950160498796,-0.6617687195506009,-0.7491933022429771
1729690913.176774,229,1729690913,174896704,map,1.7335255146026611,3.9065051078796387,1.4650590419769287,0.00537423957087489,0.029107892455382124,-0.6647129734849107,-0.7465122309960427
1729690913.27328,230,1729690913,270894656,map,1.7398831844329834,3.9115960597991943,1.4719585180282593,0.005259405856476197,0.029954849075174296,-0.666642362864583,-0.7447570111796503
1729690913.3742523,231,1729690913,371894400,map,1.7456331253051758,3.9176435470581055,1.4773403406143188,0.007542311255622224,0.03250323845962859,-0.6672899266912938,-0.7440502716664297
1729690913.4711692,232,1729690913,468894144,map,1.7507168054580688,3.924553394317627,1.4826793670654297,0.007532050703474834,0.0345774148208097,-0.6663981711702653,-0.7447557640310248
1729690913.572171,233,1729690913,570892352,map,1.7559274435043335,3.9326627254486084,1.4874540567398071,0.004332233800154342,0.035087874192296135,-0.6659860847089978,-0.7451259006429357
1729690913.6744368,234,1729690913,671893376,map,1.7603977918624878,3.941709041595459,1.4898964166641235,0.00331892214979893,0.03585367214849369,-0.6638839413850698,-0.74696827999605
1729690913.7760434,235,1729690913,773892608,map,1.7642848491668701,3.951371908187866,1.4914072751998901,0.0021683566976143116,0.03831055813231861,-0.6628347534288888,-0.7477818458692927
1729690913.8754146,236,1729690913,872891840,map,1.7676647901535034,3.956559419631958,1.4880768060684204,0.0014483242411630606,0.038672339437576225,-0.6632269384341255,-0.7474171396580451
1729690913.971032,237,1729690913,968895424,map,1.771227478981018,3.9587924480438232,1.4799306392669678,0.0022661655666075167,0.039790290010892904,-0.661174129328833,-0.7491731228632892
1729690914.075212,238,1729690914,73889280,map,1.7747917175292969,3.9615674018859863,1.4737530946731567,0.002810191667342367,0.039858591255285084,-0.6602554141640691,-0.7499774553898071
1729690914.1672885,239,1729690914,165890304,map,1.7781108617782593,3.9646177291870117,1.4722777605056763,0.0019393072192832297,0.04080600807346575,-0.6605918817660915,-0.7496328931799565
1729690914.2780247,240,1729690914,275888256,map,1.7828289270401,3.9651038646698,1.4771310091018677,0.0028975553793143243,0.042013308308853525,-0.6624179150618099,-0.7479498592171364
1729690914.3743174,241,1729690914,371886464,map,1.7874174118041992,3.9634082317352295,1.4848017692565918,0.004591015191080685,0.04402898084399935,-0.6655972011776539,-0.744997139061505
1729690914.473124,242,1729690914,471886976,map,1.7935290336608887,3.9588770866394043,1.4875156879425049,0.008158953150213229,0.04440632616046887,-0.6693164634500723,-0.7416043294339041
1729690914.5710135,243,1729690914,569885696,map,1.8002358675003052,3.95320987701416,1.4951971769332886,0.011720544561160468,0.042118997715340695,-0.6757252990471332,-0.7358559227826514
1729690914.6681056,244,1729690914,665888256,map,1.807667851448059,3.9500839710235596,1.5007107257843018,0.00982143286770507,0.0421168880110746,-0.6819753091795235,-0.7300954628472779
1729690914.7672641,245,1729690914,764889024,map,1.814396619796753,3.9504504203796387,1.5021798610687256,0.01666897172118435,0.0452796633410941,-0.6879976759201595,-0.7241071021595731
1729690914.868365,246,1729690914,865889280,map,1.8204768896102905,3.9499118328094482,1.5033925771713257,0.01956449147060185,0.045800961542524075,-0.6935778115281199,-0.7186580006867943
1729690914.9722307,247,1729690914,969886464,map,1.8248800039291382,3.947796583175659,1.5020220279693604,0.022903515051438207,0.044860778535900855,-0.6960237482940304,-0.7162498735484492
1729690915.0709324,248,1729690915,68885184,map,1.8270328044891357,3.946031332015991,1.4947043657302856,0.018609479877488757,0.04413459649053724,-0.6946473363888126,-0.7177540683961564
1729690915.1657,249,1729690915,162885440,map,1.8271126747131348,3.9432899951934814,1.4883499145507812,0.011618885550442454,0.04437869616212885,-0.6920310956033823,-0.7204085615423361
1729690915.2672222,250,1729690915,264882624,map,1.8267221450805664,3.9399828910827637,1.48533296585083,0.005840085105915731,0.04369850795477809,-0.6882898761804503,-0.7240948695826964
1729690915.3701844,251,1729690915,368883392,map,1.825575351715088,3.937260150909424,1.4825334548950195,0.004374750183384035,0.042935641162443736,-0.6834902152879988,-0.7286827278619743
1729690915.468602,252,1729690915,465879040,map,1.8240725994110107,3.935887336730957,1.4773504734039307,0.006812130604186407,0.04289611271972867,-0.6785786811282186,-0.7332424509727019
1729690915.5694704,253,1729690915,566876992,map,1.823020100593567,3.9358489513397217,1.4695779085159302,0.0074488110339285245,0.04073751839287957,-0.6769094959807461,-0.7349003361412096
1729690915.668093,254,1729690915,665876480,map,1.8203638792037964,3.9386777877807617,1.4684484004974365,0.00899979926848028,0.04215722625326876,-0.6761995930803596,-0.7354562408503404
1729690915.7708364,255,1729690915,767873664,map,1.8163397312164307,3.9434728622436523,1.4698084592819214,0.00993016024343765,0.04449840109541468,-0.6773832600544538,-0.7342160466889096
1729690915.8680453,256,1729690915,865871872,map,1.8117996454238892,3.9483935832977295,1.468490481376648,0.008273420272880376,0.04666597699822712,-0.6798817125092818,-0.7317886949818476
1729690915.9718666,257,1729690915,967870080,map,1.8052657842636108,3.9531211853027344,1.4635288715362549,0.006479781932743356,0.0471211031348112,-0.6845970111158899,-0.7273682330406331
1729690916.0691702,258,1729690916,66865984,map,1.799118995666504,3.9576940536499023,1.4577388763427734,0.00622468201631054,0.045274353493458055,-0.6879537964423088,-0.7243141999230439
1729690916.1689568,259,1729690916,165867520,map,1.7929575443267822,3.961467981338501,1.4491032361984253,0.007107114361889549,0.04564532550373169,-0.6908317578552687,-0.7215382703112182
1729690916.2693994,260,1729690916,266867776,map,1.7845443487167358,3.965770721435547,1.4432708024978638,-0.0016238426944018439,0.03959316342183199,-0.6925830591298152,-0.7202488811178694
1729690916.3681946,261,1729690916,365869312,map,1.7732237577438354,3.9710533618927,1.4433507919311523,0.00010109505763017553,0.042396820049927245,-0.6925556056133152,-0.7201175130234077
1729690916.4692814,262,1729690916,466874176,map,1.7635011672973633,3.973893880844116,1.44720458984375,-0.00199727083432401,0.04373552530392945,-0.6921764724122812,-0.7203991572555416
1729690916.5682702,263,1729690916,566872896,map,1.7544407844543457,3.973952293395996,1.4505360126495361,-0.0012330328781409736,0.04240535353690373,-0.6902536417884151,-0.722322764156829
1729690916.667145,264,1729690916,664873920,map,1.7471895217895508,3.9731388092041016,1.4575352668762207,0.0016405738877241453,0.03875148562757395,-0.6882967253455003,-0.7243916404526184
1729690916.7692125,265,1729690916,766874176,map,1.7414255142211914,3.9717512130737305,1.4639533758163452,0.005879208574889416,0.03839349530392761,-0.6859418768921602,-0.7266189620086587
1729690916.8685408,266,1729690916,865874688,map,1.7353148460388184,3.9707987308502197,1.4667140245437622,0.008870070058142452,0.039555576507953855,-0.6854514686377383,-0.7269889699071472
1729690916.963425,267,1729690916,961871872,map,1.729742169380188,3.9706690311431885,1.4668183326721191,0.006957487170140374,0.03899374479382619,-0.6890712272695021,-0.7236103405760129
1729690917.068578,268,1729690917,65870848,map,1.7218635082244873,3.9702939987182617,1.4658111333847046,0.005599295255406303,0.041322628830521374,-0.6915140425610303,-0.7211583856408239
1729690917.16466,269,1729690917,162870848,map,1.71387779712677,3.9689459800720215,1.4681055545806885,0.0032997420781856585,0.04027864905770684,-0.6939746407992365,-0.7188643405120843
1729690917.2714243,270,1729690917,268869056,map,1.7081903219223022,3.9653804302215576,1.4753316640853882,0.002438672426311664,0.039569110761522586,-0.696658577619109,-0.7163066135252832
1729690917.36741,271,1729690917,365867520,map,1.7058324813842773,3.959507942199707,1.4842849969863892,0.003823529589540327,0.03968248271464088,-0.698448261036075,-0.7145493039971162
1729690917.4713945,272,1729690917,469865216,map,1.7048434019088745,3.9527854919433594,1.4912621974945068,0.00514597289520584,0.03950289638007155,-0.701885993276115,-0.7111744459577752
1729690917.567535,273,1729690917,565864448,map,1.7045226097106934,3.946406602859497,1.4945048093795776,0.007365579191292089,0.04220612921967404,-0.7037620748876419,-0.7091426745368735
1729690917.6695938,274,1729690917,667864448,map,1.7046018838882446,3.940297842025757,1.49876868724823,0.008605926487472304,0.0429648610610399,-0.7036255488996725,-0.7092186162805741
1729690917.7686915,275,1729690917,766865216,map,1.7044652700424194,3.9359216690063477,1.4997411966323853,0.009734779495940428,0.04338067723115044,-0.7017393919455402,-0.7110451298638052
1729690917.867482,276,1729690917,865868800,map,1.705499291419983,3.9321632385253906,1.4993234872817993,0.010697126624963105,0.043483366325308276,-0.6994555249583113,-0.7132718534614146
1729690917.968585,277,1729690917,966869056,map,1.7082409858703613,3.928687334060669,1.4978877305984497,0.009962467306010832,0.04406995834479979,-0.6974864646556279,-0.7151721608388137
1729690918.070606,278,1729690918,67861632,map,1.7102125883102417,3.9253602027893066,1.495069980621338,0.011668516453180665,0.042314827598269045,-0.6959544045237277,-0.7167431673292282
1729690918.1685703,279,1729690918,166859328,map,1.7111328840255737,3.9216790199279785,1.4928662776947021,0.013569327232751907,0.042113870865501564,-0.6956007594638681,-0.7170647660235887
1729690918.2706044,280,1729690918,268859072,map,1.7121247053146362,3.9179389476776123,1.4899696111679077,0.014372752313212228,0.04068700668751572,-0.6968406586935177,-0.7159267335903428
1729690918.3665159,281,1729690918,364860352,map,1.712484359741211,3.914099931716919,1.487330436706543,0.013987245016616164,0.03980816536956973,-0.6990821393617401,-0.7137953693966965
1729690918.4666297,282,1729690918,464861120,map,1.7118821144104004,3.911761999130249,1.480330228805542,0.012012451424238993,0.039983382768213116,-0.7011149203148035,-0.711825047764658
1729690918.5677102,283,1729690918,565860352,map,1.7095826864242554,3.909031867980957,1.4707781076431274,0.008665392329867178,0.041675108523539645,-0.7016861428608582,-0.7112135074802588
1729690918.6705983,284,1729690918,668859840,map,1.705798625946045,3.908601760864258,1.4586942195892334,0.008033952728781598,0.0386140602331315,-0.7006278665145481,-0.7124359638726392
1729690918.7666638,285,1729690918,764862912,map,1.6999335289001465,3.9087107181549072,1.4517569541931152,0.007374763969038766,0.03613783726115658,-0.6989584080516668,-0.7142106225675775
1729690918.8717654,286,1729690918,869867264,map,1.6928977966308594,3.909046173095703,1.4489874839782715,0.002575952837407164,0.033609791551899915,-0.697663143494805,-0.7156325066595037
1729690918.9686153,287,1729690918,966866240,map,1.685146450996399,3.908979654312134,1.4495584964752197,0.003226286760871848,0.032289680241176996,-0.6960062916211834,-0.7173020351618888
1729690919.0706472,288,1729690919,67863936,map,1.6746882200241089,3.909348726272583,1.4533610343933105,0.002177907912709763,0.03449077945509876,-0.6951918070857611,-0.71799303214623
1729690919.1720927,289,1729690919,169858816,map,1.6629890203475952,3.911193609237671,1.4568911790847778,0.0009386375601611439,0.033364207663224996,-0.6955601019994166,-0.71769219942333
1729690919.2727764,290,1729690919,270856256,map,1.650418996810913,3.91337513923645,1.461742877960205,-0.0032775731879854755,0.02981843179924719,-0.6958677610674298,-0.7175431539259735
1729690919.375028,291,1729690919,372855488,map,1.6367356777191162,3.9155776500701904,1.4672523736953735,-0.0077308911427148765,0.0280052333941992,-0.6950650827860396,-0.718359569377559
1729690919.4717214,292,1729690919,469856256,map,1.6235225200653076,3.9172749519348145,1.470444679260254,-0.010373764256853631,0.02883024364389146,-0.6940424316990355,-0.7192817980929774
1729690919.574871,293,1729690919,572852928,map,1.6102001667022705,3.917734146118164,1.468989372253418,-0.01083850656911949,0.02603497588747754,-0.6935794519029993,-0.7198279313168006
1729690919.674503,294,1729690919,671852160,map,1.598363995552063,3.91558837890625,1.4648493528366089,-0.010511427034378441,0.023448994223609364,-0.6930154393500148,-0.7204646107853655
1729690919.775965,295,1729690919,773848576,map,1.586207389831543,3.9107511043548584,1.460685133934021,-0.007731612028269894,0.023297738298879184,-0.6932705467626262,-0.7202592495463356
1729690919.875335,296,1729690919,872849856,map,1.576457142829895,3.9040589332580566,1.457007646560669,-0.00631973199691083,0.02225824615382435,-0.6938799063945856,-0.7197189083020428
1729690919.977679,297,1729690919,975848064,map,1.5685287714004517,3.8958821296691895,1.4529836177825928,-0.0037167788008160684,0.021726271250162736,-0.6923125793683433,-0.7212610117989612
1729690920.0739262,298,1729690920,71850624,map,1.5641529560089111,3.8881442546844482,1.4493815898895264,-0.0016698375595510066,0.02080081162151772,-0.691081474493305,-0.7224755590956486
1729690920.1768932,299,1729690920,174850624,map,1.5625793933868408,3.8803579807281494,1.4452667236328125,0.0028029914160299894,0.019911049142927694,-0.6898814242670644,-0.7236430845467923
1729690920.2729268,300,1729690920,270847808,map,1.5634455680847168,3.8734538555145264,1.440562129020691,0.005027885721424528,0.019188310468174957,-0.6894704280122169,-0.7240421659014062
1729690920.377006,301,1729690920,374847296,map,1.5667126178741455,3.865372896194458,1.4373193979263306,0.0032550196370171626,0.02144457778375399,-0.6892568890324628,-0.7241922920413683
1729690920.4759045,302,1729690920,473843968,map,1.5723645687103271,3.85933518409729,1.4352654218673706,0.0045337814716896255,0.021811764018551866,-0.6913757493008328,-0.7221518296415775
1729690920.574831,303,1729690920,572842176,map,1.579447627067566,3.854891300201416,1.433303713798523,0.007279259369433758,0.0233026078972927,-0.6956916503428252,-0.7179255730864403
1729690920.667957,304,1729690920,665841152,map,1.5862021446228027,3.851994037628174,1.434498906135559,0.00866847087959102,0.024874647997554244,-0.7023034949375886,-0.7113901253869469
1729690920.7698803,305,1729690920,767840384,map,1.593754529953003,3.852130174636841,1.4316948652267456,0.00744889507532482,0.028566027669694363,-0.7081680894964335,-0.7054264334743222
1729690920.8678591,306,1729690920,866840128,map,1.6010960340499878,3.8551011085510254,1.4256088733673096,0.005002756385884599,0.034568135451720855,-0.7150442850954205,-0.6982060489513924
1729690920.9651127,307,1729690920,962838592,map,1.6082487106323242,3.8590312004089355,1.4178956747055054,0.0030089739855050663,0.04040892816742968,-0.7185072633381377,-0.6943380856112201
1729690921.0726373,308,1729690921,69836544,map,1.6158995628356934,3.8662891387939453,1.3985148668289185,0.0007716359600922848,0.03939727941101852,-0.717147483879976,-0.6958065430258435
1729690921.1689348,309,1729690921,165836032,map,1.6221965551376343,3.8739027976989746,1.3810471296310425,-0.0015421042507295629,0.04101519404252942,-0.7135009237106875,-0.6994510759417912
1729690921.2673604,310,1729690921,265836032,map,1.627819299697876,3.8795006275177,1.3604344129562378,0.0014137101432418109,0.03938418247473888,-0.7080310554901444,-0.7050807840637408
1729690921.369887,311,1729690921,366837056,map,1.6326987743377686,3.8794054985046387,1.3475686311721802,0.004527125895483111,0.0329286172475151,-0.7024249223323435,-0.710981321684117
1729690921.4690232,312,1729690921,465835264,map,1.6353460550308228,3.8804469108581543,1.3394060134887695,0.005757443287146545,0.028803206505882237,-0.6997774256908723,-0.7137568084685639
1729690921.5687323,313,1729690921,562833472,map,1.63594651222229,3.882497549057007,1.3349615335464478,0.004150744039176795,0.026913089518668824,-0.7003551288459722,-0.7132749472928536
1729690921.6698112,314,1729690921,667831424,map,1.6348119974136353,3.8901870250701904,1.3323521614074707,0.004419075516695953,0.02703526617463471,-0.7040321059703997,-0.7096395986113855
1729690921.76815,315,1729690921,765830400,map,1.632198452949524,3.901045083999634,1.324676752090454,-0.0018906842522663121,0.031149548949235672,-0.7094985092786141,-0.7040156221595807
1729690921.8671257,316,1729690921,865829632,map,1.6283739805221558,3.9118194580078125,1.3154939413070679,-0.007276131625356435,0.03238916383293451,-0.7139262828004653,-0.6994335298664797
1729690921.9712303,317,1729690921,968830400,map,1.622094750404358,3.9177610874176025,1.3067750930786133,-0.015217443529883126,0.03305747216263984,-0.7152384817434135,-0.6979323371072641
1729690922.0692036,318,1729690922,65827072,map,1.6174523830413818,3.9224917888641357,1.304701328277588,-0.01603857771744898,0.030007230168005522,-0.7138985604441349,-0.6994220296489362
1729690922.169335,319,1729690922,164824000,map,1.6142611503601074,3.925058364868164,1.301867127418518,-0.012743762951781786,0.029264359579809038,-0.7122247953762199,-0.7012253807553703
1729690922.271343,320,1729690922,266825024,map,1.610527753829956,3.927483558654785,1.297270655632019,-0.008429794342136825,0.02874037394362628,-0.7106657933323995,-0.7028919260171944
1729690922.370013,321,1729690922,365823744,map,1.606963038444519,3.9295496940612793,1.2931818962097168,-0.007777639409175334,0.02754301312929688,-0.7103650555726493,-0.7032512911998433
