Time,header.seq,header.stamp.secs,header.stamp.nsecs,header.frame_id,airspeed,groundspeed,heading,throttle,altitude,climb
1729690891.1627598,1617,1729690891,161159489,,1.541319489479065,1.5391215085983276,39,0.1899999976158142,536.5199584960938,-0.08228126168251038
1729690891.2563562,1618,1729690891,255894970,,1.4334490299224854,1.428324580192566,38,0.1899999976158142,536.5399780273438,-0.12109821289777756
1729690891.3723416,1619,1729690891,371046174,,1.3075125217437744,1.2997210025787354,37,0.18000000715255737,536.5599975585938,-0.14252932369709015
1729690891.4620504,1620,1729690891,459300711,,1.2102341651916504,1.2054345607757568,35,0.1899999976158142,536.5700073242188,-0.10767532885074615
1729690891.5628335,1621,1729690891,561286451,,1.1177183389663696,1.1076695919036865,34,0.18000000715255737,536.5800170898438,-0.14953996241092682
1729690891.6606364,1622,1729690891,659045433,,1.0363712310791016,1.0262690782546997,33,0.18000000715255737,536.5800170898438,-0.14435052871704102
1729690891.7614453,1623,1729690891,758956396,,0.9788846969604492,0.9753825068473816,32,0.1899999976158142,536.5700073242188,-0.08272892981767654
1729690891.860265,1624,1729690891,858878951,,0.9708260297775269,0.9598090648651123,30,0.18000000715255737,536.5700073242188,-0.14584112167358398
1729690891.9575903,1625,1729690891,955885692,,0.9272896647453308,0.9230604767799377,28,0.17000000178813934,536.5599975585938,-0.0884624719619751
1729690892.058115,1626,1729690892,56958303,,0.928361713886261,0.9256426692008972,26,0.17000000178813934,536.5499877929688,-0.07100095599889755
1729690892.1577704,1627,1729690892,155943136,,0.9201745986938477,0.9155610203742981,22,0.17000000178813934,536.5599975585938,-0.09202896058559418
1729690892.257456,1628,1729690892,256946395,,0.8973183035850525,0.8956174850463867,18,0.1599999964237213,536.5599975585938,-0.05522116273641586
1729690892.3575492,1629,1729690892,356917969,,0.8698834776878357,0.8656297922134399,15,0.1599999964237213,536.5599975585938,-0.08591990172863007
1729690892.457366,1630,1729690892,456890784,,0.8167434334754944,0.8160274624824524,10,0.1599999964237213,536.5399780273438,-0.03419051319360733
1729690892.5572019,1631,1729690892,556043303,,0.8021118640899658,0.7973948121070862,6,0.1599999964237213,536.5199584960938,-0.08686180412769318
1729690892.6642869,1632,1729690892,661110932,,0.7652310132980347,0.7646105885505676,2,0.1599999964237213,536.510009765625,-0.030808301642537117
1729690892.758845,1633,1729690892,756049432,,0.7166438102722168,0.716541051864624,357,0.1599999964237213,536.47998046875,-0.012137392535805702
1729690892.8582215,1634,1729690892,857313080,,0.6814307570457458,0.6797441244125366,353,0.1599999964237213,536.4599609375,-0.04791421815752983
1729690892.9752522,1635,1729690892,957872376,,0.6479401588439941,0.6403616070747375,348,0.1599999964237213,536.4500122070312,-0.09881052374839783
1729690893.0640333,1636,1729690893,58685802,,0.6151833534240723,0.6100601553916931,343,0.1599999964237213,536.4400024414062,-0.07922831177711487
1729690893.1592252,1637,1729690893,156360339,,0.5792689919471741,0.5789651870727539,340,0.17000000178813934,536.4400024414062,0.018756631761789322
1729690893.2579246,1638,1729690893,256153376,,0.5870002508163452,0.5820763111114502,336,0.18000000715255737,536.4299926757812,-0.07587182521820068
1729690893.358306,1639,1729690893,357185969,,0.6116396188735962,0.6116394400596619,333,0.18000000715255737,536.4199829101562,-0.00037018186412751675
1729690893.45806,1640,1729690893,457101154,,0.7165964841842651,0.7159742712974548,330,0.18000000715255737,536.4199829101562,0.02985576167702675
1729690893.557915,1641,1729690893,557221283,,0.8083456158638,0.808109700679779,326,0.17000000178813934,536.4199829101562,0.019527748227119446
1729690893.65846,1642,1729690893,657230024,,0.926173210144043,0.9246397614479065,323,0.17000000178813934,536.4099731445312,0.05327402427792549
1729690893.757356,1643,1729690893,756304820,,0.9944566488265991,0.9916802048683167,320,0.1599999964237213,536.4099731445312,0.07425844669342041
1729690893.8585472,1644,1729690893,857389950,,0.9878414273262024,0.9809491038322449,318,0.15000000596046448,536.4099731445312,0.11648806929588318
1729690893.9589527,1645,1729690893,957317450,,0.9464322328567505,0.9435157775878906,316,0.1599999964237213,536.3999633789062,0.07424147427082062
1729690894.0587716,1646,1729690894,57858709,,0.8404361605644226,0.8404028415679932,313,0.18000000715255737,536.3900146484375,0.007486950606107712
1729690894.1585214,1647,1729690894,157353765,,0.7497991919517517,0.7473633885383606,311,0.1899999976158142,536.3900146484375,-0.06038893014192581
1729690894.2613232,1648,1729690894,260252283,,0.7097125053405762,0.7080059051513672,309,0.1899999976158142,536.3800048828125,-0.0491892471909523
1729690894.3581994,1649,1729690894,357499264,,0.6544098258018494,0.6541410088539124,307,0.20000000298023224,536.3699951171875,-0.018755804747343063
1729690894.4602935,1650,1729690894,458350653,,0.6366368532180786,0.6365419030189514,306,0.20000000298023224,536.3599853515625,-0.01099572516977787
1729690894.560892,1651,1729690894,560309135,,0.6505712270736694,0.6499270796775818,304,0.20999999344348907,536.3499755859375,0.028942083939909935
1729690894.6585157,1652,1729690894,657553153,,0.6611180305480957,0.6529526114463806,303,0.20999999344348907,536.3399658203125,0.10358548164367676
1729690894.7584212,1653,1729690894,757551838,,0.6606541872024536,0.6494250893592834,301,0.2199999988079071,536.3300170898438,0.12128902971744537
1729690894.859806,1654,1729690894,858469653,,0.6975541114807129,0.6691606640815735,299,0.2199999988079071,536.3399658203125,0.19699139893054962
1729690894.9596155,1655,1729690894,958420894,,0.7057100534439087,0.6512051820755005,297,0.23000000417232513,536.3399658203125,0.27195292711257935
1729690895.0596209,1656,1729690895,57142208,,0.7520186305046082,0.6661660671234131,295,0.23000000417232513,536.3499755859375,0.34893354773521423
1729690895.164297,1657,1729690895,163502116,,0.7901910543441772,0.668310284614563,294,0.2199999988079071,536.3599853515625,0.42161962389945984
1729690895.2588341,1658,1729690895,257043819,,0.815537691116333,0.6702808737754822,292,0.23000000417232513,536.3699951171875,0.46456995606422424
1729690895.3618534,1659,1729690895,357379116,,0.8156828880310059,0.6585509181022644,292,0.23999999463558197,536.3800048828125,0.4812995493412018
1729690895.4603207,1660,1729690895,459364819,,0.873801052570343,0.6620609164237976,293,0.2199999988079071,536.4099731445312,0.5702662467956543
1729690895.560741,1661,1729690895,557528782,,0.8843955397605896,0.6233251094818115,297,0.20999999344348907,536.4400024414062,0.6273923516273499
1729690895.6587663,1662,1729690895,657697412,,0.9486632347106934,0.6776996850967407,303,0.23000000417232513,536.469970703125,0.663841187953949
1729690895.7604852,1663,1729690895,758158430,,0.9486124515533447,0.6792173385620117,309,0.23999999463558197,536.510009765625,0.6622154712677002
1729690895.864858,1664,1729690895,858376689,,0.9886338710784912,0.676334798336029,316,0.23000000417232513,536.5599975585938,0.7210882306098938
1729690895.960781,1665,1729690895,959457560,,1.0448839664459229,0.7313564419746399,322,0.23000000417232513,536.5999755859375,0.7462574243545532
1729690896.0575192,1666,1729690896,56494097,,1.1032483577728271,0.7712759971618652,328,0.23000000417232513,536.6599731445312,0.7888537049293518
1729690896.1592855,1667,1729690896,158584337,,1.1634222269058228,0.822277307510376,334,0.2199999988079071,536.7099609375,0.8230499625205994
1729690896.2597363,1668,1729690896,258896541,,1.1684752702713013,0.8251856565475464,340,0.23000000417232513,536.7699584960938,0.8272864818572998
1729690896.359165,1669,1729690896,358183004,,1.218628168106079,0.8579806089401245,346,0.2199999988079071,536.8300170898438,0.8654038906097412
1729690896.458958,1670,1729690896,458279208,,1.2253495454788208,0.8358669281005859,351,0.2199999988079071,536.8999633789062,0.8959954977035522
1729690896.5575366,1671,1729690896,556512541,,1.228335976600647,0.8370596170425415,357,0.20999999344348907,536.9599609375,0.8989663124084473
1729690896.6587968,1672,1729690896,657680133,,1.152822732925415,0.7995461821556091,2,0.20999999344348907,537.0299682617188,0.8304976224899292
1729690896.7583544,1673,1729690896,757634467,,1.1303811073303223,0.7517725825309753,6,0.20999999344348907,537.0999755859375,0.8441561460494995
1729690896.863114,1674,1729690896,860961096,,1.089673638343811,0.7119004726409912,11,0.20999999344348907,537.1699829101562,0.8249765634536743
1729690896.9748006,1675,1729690896,963864522,,1.0108184814453125,0.638446569442749,15,0.2199999988079071,537.239990234375,0.7836708426475525
1729690897.0606658,1676,1729690897,59613078,,0.9928163886070251,0.5981031060218811,19,0.20999999344348907,537.3099975585938,0.7924373745918274
1729690897.1612303,1677,1729690897,159886411,,0.9761965274810791,0.5495832562446594,24,0.20000000298023224,537.3900146484375,0.8067948222160339
1729690897.258168,1678,1729690897,257657966,,0.9548413753509521,0.48881757259368896,26,0.18000000715255737,537.4599609375,0.8202313184738159
1729690897.361101,1679,1729690897,359880152,,0.904890775680542,0.4581192135810852,29,0.17000000178813934,537.5299682617188,0.7803550362586975
1729690897.456463,1680,1729690897,455693077,,0.7841822504997253,0.43643704056739807,31,0.17000000178813934,537.5899658203125,0.6515094041824341
1729690897.5605688,1681,1729690897,559632263,,0.7742564678192139,0.4076709449291229,32,0.1599999964237213,537.6499633789062,0.6582381725311279
1729690897.6584117,1682,1729690897,657713374,,0.6660935878753662,0.34880250692367554,33,0.1599999964237213,537.6900024414062,0.5674658417701721
1729690897.759066,1683,1729690897,758668577,,0.6886837482452393,0.28574734926223755,34,0.15000000596046448,537.72998046875,0.6266049146652222
1729690897.8583272,1684,1729690897,857698244,,0.5714913010597229,0.251882404088974,44,0.14000000059604645,537.7699584960938,0.512988805770874
1729690897.9588852,1685,1729690897,958015003,,0.49213847517967224,0.17417988181114197,45,0.14000000059604645,537.7999877929688,0.4602843225002289
1729690898.0595248,1686,1729690898,55901318,,0.4300060272216797,0.11374224722385406,47,0.12999999523162842,537.8300170898438,0.4146901071071625
1729690898.1577275,1687,1729690898,156997670,,0.34210923314094543,0.07164158672094345,49,0.12999999523162842,537.8599853515625,0.3345238268375397
1729690898.2590468,1688,1729690898,258224299,,0.25995782017707825,0.06805435568094254,50,0.12999999523162842,537.8800048828125,0.2508917450904846
1729690898.3593993,1689,1729690898,357994892,,0.2722027003765106,0.07295288890600204,50,0.12999999523162842,537.8800048828125,0.2622445225715637
1729690898.4580522,1690,1729690898,456949614,,0.10024562478065491,0.06274468451738358,50,0.12999999523162842,537.8800048828125,0.07818112522363663
1729690898.5574079,1691,1729690898,555857799,,0.1475290060043335,0.10351379960775375,50,0.14000000059604645,537.8800048828125,0.105117566883564
1729690898.6602404,1692,1729690898,657977651,,0.107773557305336,0.10443955659866333,50,0.17000000178813934,537.8800048828125,0.026599209755659103
1729690898.761126,1693,1729690898,757078928,,0.15885476768016815,0.14232538640499115,50,0.18000000715255737,537.8699951171875,-0.07055721431970596
1729690898.8588207,1694,1729690898,857897799,,0.18114691972732544,0.1792728304862976,49,0.17000000178813934,537.8699951171875,-0.02598961815237999
1729690898.9575531,1695,1729690898,956906058,,0.20860733091831207,0.17288045585155487,47,0.18000000715255737,537.8599853515625,-0.11674486100673676
1729690899.0671496,1696,1729690899,56945984,,0.24947187304496765,0.23282372951507568,46,0.1899999976158142,537.8499755859375,-0.08960647881031036
1729690899.1584177,1697,1729690899,157989262,,0.24314501881599426,0.2365477979183197,44,0.1899999976158142,537.8399658203125,-0.056255143135786057
1729690899.2573838,1698,1729690899,256979039,,0.29775476455688477,0.24372920393943787,41,0.20000000298023224,537.8300170898438,-0.1710379421710968
1729690899.358374,1699,1729690899,357950428,,0.3109501004219055,0.273917019367218,39,0.20999999344348907,537.8200073242188,-0.14717140793800354
1729690899.4585748,1700,1729690899,458032113,,0.3079392910003662,0.2983604967594147,37,0.2199999988079071,537.8099975585938,-0.07620777934789658
1729690899.5567439,1701,1729690899,555985706,,0.3257856070995331,0.31471776962280273,36,0.2199999988079071,537.7999877929688,-0.08419619500637054
1729690899.6599627,1702,1729690899,659068280,,0.3175276815891266,0.3101769983768463,34,0.2199999988079071,537.7999877929688,-0.06792689859867096
1729690899.7610545,1703,1729690899,760027743,,0.3176366984844208,0.316228449344635,32,0.2199999988079071,537.7899780273438,-0.02987721562385559
1729690899.8587291,1704,1729690899,857316076,,0.3446522057056427,0.34464043378829956,30,0.23000000417232513,537.7899780273438,0.002845731331035495
1729690899.960172,1705,1729690899,959141020,,0.3541920483112335,0.35417449474334717,29,0.2199999988079071,537.7899780273438,-0.003521981881931424
1729690900.060368,1706,1729690900,59215705,,0.38100266456604004,0.3790505826473236,28,0.2199999988079071,537.7899780273438,0.03851858898997307
1729690900.1588688,1707,1729690900,157120428,,0.3605492115020752,0.3559803068637848,27,0.2199999988079071,537.7899780273438,0.05721679702401161
1729690900.263196,1708,1729690900,262177020,,0.3547143042087555,0.35092028975486755,26,0.20999999344348907,537.7999877929688,0.05174143239855766
1729690900.3563137,1709,1729690900,355189205,,0.3582683503627777,0.3532573878765106,26,0.20999999344348907,537.7999877929688,0.059711046516895294
1729690900.4597826,1710,1729690900,458256761,,0.35785016417503357,0.35437294840812683,25,0.20999999344348907,537.8099975585938,0.04976501315832138
1729690900.55835,1711,1729690900,557381316,,0.32041874527931213,0.31751787662506104,24,0.20999999344348907,537.8099975585938,0.043018121272325516
1729690900.659058,1712,1729690900,657398576,,0.29817670583724976,0.28114038705825806,24,0.20999999344348907,537.8200073242188,0.09934496134519577
1729690900.7593896,1713,1729690900,758260946,,0.29671287536621094,0.268429696559906,23,0.20999999344348907,537.8200073242188,0.12642797827720642
1729690900.861358,1714,1729690900,860281798,,0.23932965099811554,0.20823387801647186,23,0.20000000298023224,537.8200073242188,0.1179717481136322
1729690900.9606512,1715,1729690900,959200335,,0.215131476521492,0.18985606729984283,22,0.20999999344348907,537.8200073242188,0.1011742576956749
1729690901.0599723,1716,1729690901,58405909,,0.13210751116275787,0.13001355528831482,21,0.20999999344348907,537.8200073242188,0.02342790551483631
1729690901.1571665,1717,1729690901,156354797,,0.14377851784229279,0.11757539212703705,20,0.20999999344348907,537.8200073242188,0.08275440335273743
1729690901.26557,1718,1729690901,264364297,,0.15132850408554077,0.1015152633190155,20,0.20000000298023224,537.8200073242188,0.11222730576992035
1729690901.3631918,1719,1729690901,362311631,,0.1102522760629654,0.08358407020568848,20,0.20000000298023224,537.8200073242188,0.07189762592315674
1729690901.4667745,1720,1729690901,464327779,,0.14724405109882355,0.05515697970986366,20,0.20000000298023224,537.8099975585938,0.13652296364307404
1729690901.5610702,1721,1729690901,560376501,,0.09124518930912018,0.059582021087408066,20,0.20000000298023224,537.7999877929688,0.06910620629787445
1729690901.6600661,1722,1729690901,658463538,,0.1029961109161377,0.05170165002346039,20,0.20000000298023224,537.7999877929688,0.08907939493656158
1729690901.7584832,1723,1729690901,757338760,,0.10795636475086212,0.056086525321006775,21,0.20000000298023224,537.8099975585938,0.09224358201026917
1729690901.8579116,1724,1729690901,856510112,,0.09310740232467651,0.04746196046471596,21,0.20000000298023224,537.8099975585938,0.08010213077068329
1729690901.96079,1725,1729690901,958446001,,0.06488090008497238,0.03258099779486656,22,0.20000000298023224,537.8200073242188,0.05610712617635727
1729690902.0582454,1726,1729690902,57489186,,0.13629859685897827,0.06964966654777527,22,0.20000000298023224,537.8300170898438,0.11715899407863617
1729690902.157674,1727,1729690902,156595741,,0.09748877584934235,0.07802140712738037,23,0.20000000298023224,537.8499755859375,0.05845273286104202
1729690902.2598672,1728,1729690902,258551315,,0.09684481471776962,0.06586166471242905,24,0.20000000298023224,537.8599853515625,0.07100111246109009
1729690902.3588912,1729,1729690902,356564241,,0.12125114351511002,0.08878600597381592,25,0.1899999976158142,537.8699951171875,0.08257654309272766
1729690902.4624343,1730,1729690902,458886815,,0.0978160873055458,0.0873565822839737,26,0.1899999976158142,537.8900146484375,0.0440092496573925
1729690902.5609212,1731,1729690902,559837185,,0.12361796945333481,0.07769616693258286,26,0.1899999976158142,537.8999633789062,0.09614939987659454
1729690902.6577818,1732,1729690902,656526037,,0.10482299327850342,0.06969234347343445,27,0.1899999976158142,537.9099731445312,0.07829966396093369
1729690902.7582548,1733,1729690902,757649019,,0.04259411618113518,0.04202854260802269,27,0.1899999976158142,537.9099731445312,-0.006918128114193678
1729690902.8595796,1734,1729690902,858538222,,0.0957915186882019,0.06509838998317719,28,0.1899999976158142,537.9099731445312,-0.07027243822813034
1729690902.958786,1735,1729690902,957620593,,0.07373303920030594,0.07334019988775253,28,0.1899999976158142,537.8999633789062,-0.007601045072078705
1729690903.0578876,1736,1729690903,56634796,,0.09855040907859802,0.07335718721151352,27,0.18000000715255737,537.8900146484375,-0.06580962240695953
1729690903.1588905,1737,1729690903,157738148,,0.10643476247787476,0.1038886085152626,27,0.18000000715255737,537.8900146484375,-0.023141244426369667
1729690903.257743,1738,1729690903,256587833,,0.11231458932161331,0.10970855504274368,27,0.18000000715255737,537.8900146484375,0.02405407652258873
1729690903.359135,1739,1729690903,357687481,,0.09029428660869598,0.08056362718343735,26,0.18000000715255737,537.8900146484375,-0.040774501860141754
1729690903.4590864,1740,1729690903,457650944,,0.09044045954942703,0.09024351835250854,25,0.18000000715255737,537.8900146484375,0.0059653171338140965
1729690903.5593634,1741,1729690903,558623722,,0.08892807364463806,0.08892735838890076,24,0.1899999976158142,537.8900146484375,0.0003554150462150574
1729690903.6581852,1742,1729690903,656787389,,0.12427214533090591,0.08941683918237686,23,0.1899999976158142,537.8900146484375,-0.08630292117595673
1729690903.7611287,1743,1729690903,758681518,,0.12413791567087173,0.12036560475826263,23,0.1899999976158142,537.9099731445312,-0.030370105057954788
1729690903.8591356,1744,1729690903,858019462,,0.10948038846254349,0.10526592284440994,22,0.1899999976158142,537.9199829101562,0.030083877965807915
1729690903.9609015,1745,1729690903,956737907,,0.13543228805065155,0.09485000371932983,22,0.1899999976158142,537.9299926757812,-0.09667152911424637
1729690904.0569878,1746,1729690904,55748370,,0.12054739147424698,0.11580835282802582,22,0.18000000715255737,537.9500122070312,-0.033467862755060196
1729690904.1616201,1747,1729690904,157741222,,0.11053809523582458,0.10934502631425858,22,0.18000000715255737,537.969970703125,0.016196787357330322
1729690904.2576349,1748,1729690904,256725833,,0.11833765357732773,0.09856639802455902,21,0.18000000715255737,537.97998046875,-0.0654863715171814
1729690904.3623493,1749,1729690904,360767573,,0.12356096506118774,0.0897241160273552,21,0.17000000178813934,537.989990234375,-0.08495230227708817
1729690904.4590623,1750,1729690904,457816240,,0.07428466528654099,0.06889759004116058,21,0.1599999964237213,538.0,-0.02777286246418953
1729690904.558524,1751,1729690904,557815703,,0.12441567331552505,0.08685046434402466,20,0.17000000178813934,538.0,-0.0890856608748436
1729690904.657862,1752,1729690904,656936758,,0.08559120446443558,0.07509788870811462,20,0.17000000178813934,538.010009765625,-0.04106289520859718
1729690904.759844,1753,1729690904,758763814,,0.10927942395210266,0.08701521158218384,19,0.17000000178813934,538.010009765625,-0.0661085918545723
1729690904.8589764,1754,1729690904,857902554,,0.10489378869533539,0.08488438278436661,19,0.17000000178813934,538.0199584960938,-0.061622630804777145
1729690904.9581368,1755,1729690904,956840925,,0.16280148923397064,0.0856502577662468,18,0.18000000715255737,538.0199584960938,-0.13844984769821167
1729690905.0601525,1756,1729690905,58870054,,0.18115492165088654,0.09716010093688965,17,0.1899999976158142,538.010009765625,-0.15289545059204102
1729690905.1587882,1757,1729690905,156964536,,0.21356603503227234,0.11554306745529175,16,0.1899999976158142,538.0,-0.17961138486862183
1729690905.2587903,1758,1729690905,256980221,,0.2127392292022705,0.12507842481136322,16,0.20000000298023224,537.97998046875,-0.17208535969257355
1729690905.3642583,1759,1729690905,359883906,,0.24225768446922302,0.1423434615135193,15,0.20999999344348907,537.9599609375,-0.19602838158607483
1729690905.4579203,1760,1729690905,457029295,,0.23223690688610077,0.14122043550014496,15,0.20999999344348907,537.9400024414062,-0.18436585366725922
1729690905.559133,1761,1729690905,557991795,,0.2111460119485855,0.10600561648607254,15,0.20999999344348907,537.9199829101562,-0.18260735273361206
1729690905.658115,1762,1729690905,656950998,,0.1387363076210022,0.08815618604421616,15,0.20999999344348907,537.9099731445312,-0.10712725669145584
1729690905.7594275,1763,1729690905,757942776,,0.12284530699253082,0.07981447130441666,16,0.20999999344348907,537.8999633789062,-0.0933842584490776
1729690905.8600407,1764,1729690905,858160646,,0.06709066778421402,0.05643173307180405,16,0.20999999344348907,537.8900146484375,-0.036285221576690674
1729690905.9580498,1765,1729690905,957007424,,0.04089736565947533,0.03922788053750992,17,0.20999999344348907,537.8800048828125,-0.011565804481506348
1729690906.058242,1766,1729690906,57012443,,0.03919514641165733,0.03681476414203644,17,0.20999999344348907,537.8699951171875,0.01345112919807434
1729690906.1599395,1767,1729690906,158500331,,0.05121321231126785,0.044090837240219116,17,0.20999999344348907,537.8599853515625,0.026053616777062416
1729690906.2581434,1768,1729690906,257185665,,0.061470333486795425,0.060821209102869034,17,0.20999999344348907,537.8599853515625,0.008909698575735092
1729690906.3573105,1769,1729690906,356080183,,0.07483027875423431,0.07208433747291565,17,0.20999999344348907,537.8499755859375,-0.020085284486413002
1729690906.4590812,1770,1729690906,458052776,,0.09637340903282166,0.09124567359685898,16,0.20999999344348907,537.8499755859375,0.031017117202281952
1729690906.5584984,1771,1729690906,557063924,,0.1100822165608406,0.10297661274671555,15,0.20999999344348907,537.8399658203125,0.038909006863832474
1729690906.658836,1772,1729690906,657212646,,0.10295427590608597,0.09298843145370483,15,0.2199999988079071,537.8300170898438,0.044189754873514175
1729690906.7574894,1773,1729690906,755051387,,0.09764796495437622,0.09560912102460861,14,0.20999999344348907,537.8200073242188,0.0198499895632267
1729690906.8643043,1774,1729690906,863042368,,0.1520688682794571,0.11444380134344101,14,0.20999999344348907,537.8099975585938,0.10013768821954727
1729690906.96067,1775,1729690906,959097090,,0.11518850922584534,0.11109859496355057,13,0.20999999344348907,537.8099975585938,0.030421968549489975
1729690907.0579076,1776,1729690907,56345924,,0.11743064224720001,0.1120135709643364,13,0.20999999344348907,537.8099975585938,0.035255029797554016
1729690907.1598394,1777,1729690907,158231516,,0.14514614641666412,0.13504338264465332,12,0.20999999344348907,537.8099975585938,0.05320423096418381
1729690907.26283,1778,1729690907,261370072,,0.11698513478040695,0.09059512615203857,12,0.20999999344348907,537.8099975585938,0.0740138366818428
1729690907.361614,1779,1729690907,360180146,,0.08886836469173431,0.07234759628772736,12,0.20999999344348907,537.8099975585938,0.05160823464393616
1729690907.4624455,1780,1729690907,461212164,,0.08766333013772964,0.08752262592315674,12,0.20999999344348907,537.8099975585938,0.0049647316336631775
1729690907.564709,1781,1729690907,563174701,,0.10162077099084854,0.08121536672115326,12,0.20999999344348907,537.8099975585938,0.06108064949512482
1729690907.6655395,1782,1729690907,664208701,,0.09399482607841492,0.05775059014558792,11,0.20999999344348907,537.7999877929688,0.07416129112243652
1729690907.7610004,1783,1729690907,760206812,,0.05609133467078209,0.04545719176530838,11,0.2199999988079071,537.7899780273438,0.032861560583114624
1729690907.8602724,1784,1729690907,859368812,,0.06675595045089722,0.06435220688581467,10,0.2199999988079071,537.7899780273438,0.01775248721241951
1729690907.959574,1785,1729690907,957254627,,0.10845533013343811,0.04734781011939049,10,0.2199999988079071,537.7799682617188,0.09757430851459503
1729690908.0586371,1786,1729690908,57504904,,0.08327856659889221,0.022977298125624657,11,0.2199999988079071,537.7799682617188,0.08004600554704666
1729690908.158162,1787,1729690908,156295904,,0.06991222500801086,0.0342993400990963,11,0.20999999344348907,537.7699584960938,0.06092023104429245
1729690908.2598565,1788,1729690908,258382330,,0.10418915748596191,0.01627735048532486,11,0.20999999344348907,537.7799682617188,0.10290981084108353
1729690908.3597786,1789,1729690908,358509404,,0.16122308373451233,0.013724802061915398,11,0.20000000298023224,537.7799682617188,0.16063782572746277
1729690908.4594648,1790,1729690908,458339163,,0.0865299329161644,0.029415253549814224,11,0.20999999344348907,537.7799682617188,0.08137673139572144
1729690908.558904,1791,1729690908,557549312,,0.100469209253788,0.03509612753987312,11,0.20999999344348907,537.7799682617188,0.09413991868495941
1729690908.6600614,1792,1729690908,658454108,,0.07787737250328064,0.039201997220516205,10,0.20999999344348907,537.7899780273438,0.06729106605052948
1729690908.7606072,1793,1729690908,757713941,,0.06865476071834564,0.037812087684869766,10,0.20999999344348907,537.7899780273438,0.0573037751019001
1729690908.859757,1794,1729690908,858160960,,0.0724523738026619,0.028079461306333542,10,0.20999999344348907,537.7899780273438,0.0667898952960968
1729690908.9593575,1795,1729690908,958487830,,0.12436122447252274,0.04704055190086365,10,0.20999999344348907,537.7899780273438,0.11512123793363571
1729690909.0582669,1796,1729690909,57442793,,0.12015993893146515,0.056236181408166885,10,0.20999999344348907,537.7899780273438,0.10618805140256882
1729690909.1579227,1797,1729690909,156489015,,0.11786574870347977,0.06459100544452667,9,0.20999999344348907,537.7899780273438,0.09859176725149155
1729690909.2598276,1798,1729690909,258537830,,0.11685068160295486,0.06804611533880234,9,0.20999999344348907,537.7999877929688,0.0949937254190445
1729690909.3590765,1799,1729690909,357688144,,0.11334506422281265,0.06447658687829971,10,0.20999999344348907,537.7999877929688,0.09321948885917664
1729690909.460748,1800,1729690909,458570718,,0.09118260443210602,0.07148747146129608,10,0.20999999344348907,537.8099975585938,0.05660219117999077
1729690909.5578482,1801,1729690909,556670422,,0.12411723285913467,0.07543262839317322,10,0.20999999344348907,537.8200073242188,0.09856472909450531
1729690909.6596882,1802,1729690909,658557626,,0.07881933450698853,0.06593116372823715,10,0.20000000298023224,537.8300170898438,0.04319223016500473
1729690909.7597342,1803,1729690909,757628107,,0.12116081267595291,0.060517456382513046,10,0.20000000298023224,537.8499755859375,0.10496465861797333
1729690909.860786,1804,1729690909,859570014,,0.06744233518838882,0.027364719659090042,10,0.20000000298023224,537.8599853515625,0.06164122745394707
1729690909.9608328,1805,1729690909,959617477,,0.07521558552980423,0.00813034176826477,10,0.1899999976158142,537.8699951171875,0.07477487623691559
1729690910.0586805,1806,1729690910,57560237,,0.017916081473231316,0.01645604334771633,10,0.1899999976158142,537.8900146484375,-0.007084108889102936
1729690910.1594515,1807,1729690910,157839699,,0.025761248543858528,0.02564798668026924,10,0.1899999976158142,537.9099731445312,0.002413051202893257
1729690910.2578382,1808,1729690910,256631940,,0.04967676103115082,0.04808075726032257,10,0.1899999976158142,537.9099731445312,0.012490857392549515
1729690910.359454,1809,1729690910,357810236,,0.068315289914608,0.05445409193634987,9,0.1899999976158142,537.9199829101562,-0.04125204309821129
1729690910.4586182,1810,1729690910,457715088,,0.08354321867227554,0.06004280969500542,9,0.1899999976158142,537.9199829101562,-0.058088988065719604
1729690910.5596557,1811,1729690910,558684218,,0.0670195072889328,0.053398579359054565,9,0.20000000298023224,537.9199829101562,-0.04049946367740631
1729690910.6590197,1812,1729690910,657767384,,0.06938223540782928,0.0686805322766304,9,0.20000000298023224,537.9199829101562,0.0098427077755332
1729690910.7585583,1813,1729690910,756733699,,0.09702301770448685,0.08355194330215454,9,0.20000000298023224,537.9199829101562,-0.049320779740810394
1729690910.8597565,1814,1729690910,857838181,,0.12113957107067108,0.0707579106092453,9,0.20000000298023224,537.9199829101562,-0.09832656383514404
1729690910.9581635,1815,1729690910,956877051,,0.12313520163297653,0.09499625116586685,9,0.20000000298023224,537.9099731445312,-0.07834532111883163
1729690911.058677,1816,1729690911,57758403,,0.10508133471012115,0.09919960051774979,9,0.20999999344348907,537.8999633789062,-0.03466305881738663
1729690911.1580865,1817,1729690911,156805366,,0.10828007757663727,0.08917823433876038,8,0.20999999344348907,537.8900146484375,-0.06141512468457222
1729690911.2611554,1818,1729690911,259642921,,0.058016058057546616,0.043716177344322205,8,0.20999999344348907,537.8800048828125,-0.03814130276441574
1729690911.3579628,1819,1729690911,356937365,,0.0335531160235405,0.032161567360162735,8,0.20999999344348907,537.8800048828125,-0.009562689810991287
1729690911.4566998,1820,1729690911,455751088,,0.042593080550432205,0.02433680184185505,7,0.20999999344348907,537.8900146484375,-0.034955549985170364
1729690911.55902,1821,1729690911,557837458,,0.05203595384955406,0.04046860337257385,7,0.20000000298023224,537.8900146484375,-0.03271135315299034
1729690911.6579525,1822,1729690911,656814458,,0.0453837588429451,0.03040093183517456,7,0.20999999344348907,537.8900146484375,0.03369671851396561
1729690911.7590094,1823,1729690911,757936273,,0.014159983955323696,0.009899703785777092,7,0.20999999344348907,537.8800048828125,0.01012427732348442
1729690911.8589208,1824,1729690911,858001550,,0.05417327210307121,0.00937342643737793,7,0.20999999344348907,537.8800048828125,-0.05335618555545807
1729690911.9580646,1825,1729690911,957017643,,0.06015666946768761,0.011093806475400925,7,0.20999999344348907,537.8699951171875,-0.059124890714883804
1729690912.0577495,1826,1729690912,56898272,,0.07130229473114014,0.008760768920183182,7,0.2199999988079071,537.8699951171875,-0.07076204568147659
1729690912.1590152,1827,1729690912,157916180,,0.012766257859766483,0.008765759877860546,8,0.20999999344348907,537.8699951171875,0.0092810969799757
1729690912.2591174,1828,1729690912,258089995,,0.01284206472337246,0.009960712864995003,8,0.20999999344348907,537.8699951171875,0.008105728775262833
1729690912.3576443,1829,1729690912,356867198,,0.020484905689954758,0.006887565366923809,8,0.20999999344348907,537.8699951171875,0.019292298704385757
1729690912.4579303,1830,1729690912,456108735,,0.04629259556531906,0.04437870904803276,8,0.20999999344348907,537.8699951171875,-0.013173258863389492
1729690912.5595696,1831,1729690912,557935346,,0.07364311814308167,0.06797201931476593,8,0.2199999988079071,537.8599853515625,0.028339264914393425
1729690912.6584737,1832,1729690912,656995291,,0.08337224274873734,0.07883100211620331,8,0.20999999344348907,537.8599853515625,0.027140451595187187
1729690912.757189,1833,1729690912,755974735,,0.08585193008184433,0.07714540511369705,7,0.2199999988079071,537.8599853515625,0.03767148405313492
1729690912.860247,1834,1729690912,858986253,,0.0789133608341217,0.07890196889638901,7,0.20999999344348907,537.8699951171875,-0.0013401450123637915
1729690912.9595625,1835,1729690912,958096161,,0.11065105348825455,0.09928862005472183,7,0.20999999344348907,537.8800048828125,0.04884081333875656
1729690913.0602257,1836,1729690913,59133476,,0.09019174426794052,0.07586226612329483,6,0.20000000298023224,537.8900146484375,0.04877978190779686
1729690913.1666934,1837,1729690913,165945605,,0.08306392282247543,0.07951610535383224,6,0.20999999344348907,537.8999633789062,-0.024016758427023888
1729690913.263636,1838,1729690913,262037661,,0.10050021857023239,0.09300444275140762,6,0.20000000298023224,537.9099731445312,0.03808499127626419
1729690913.362613,1839,1729690913,361157549,,0.12215801328420639,0.12109511345624924,6,0.20000000298023224,537.9099731445312,0.016079679131507874
1729690913.4613883,1840,1729690913,460132716,,0.11437539011240005,0.11338027566671371,6,0.20000000298023224,537.9199829101562,0.015054704621434212
1729690913.5587876,1841,1729690913,558101290,,0.10196639597415924,0.10121909528970718,6,0.20000000298023224,537.9199829101562,-0.012322427704930305
1729690913.6641717,1842,1729690913,663261308,,0.12334678322076797,0.11279221624135971,6,0.20000000298023224,537.9199829101562,-0.04992339760065079
1729690913.7653399,1843,1729690913,764273049,,0.08492361009120941,0.08317984640598297,6,0.20000000298023224,537.9299926757812,0.01712113246321678
1729690913.8611188,1844,1729690913,860184845,,0.09570765495300293,0.09053254872560501,6,0.20000000298023224,537.9299926757812,-0.0310453362762928
1729690913.9573526,1845,1729690913,956165994,,0.0843374952673912,0.07967659085988998,7,0.20000000298023224,537.9199829101562,0.027648769319057465
1729690914.0625293,1846,1729690914,61205845,,0.09670904278755188,0.09594762325286865,7,0.20000000298023224,537.9099731445312,0.012111678719520569
1729690914.1592383,1847,1729690914,157199234,,0.1014690175652504,0.09070464968681335,7,0.20000000298023224,537.9099731445312,-0.04548218846321106
1729690914.2614844,1848,1729690914,260191864,,0.12391260266304016,0.0996146872639656,6,0.20000000298023224,537.9099731445312,-0.07369698584079742
1729690914.3582122,1849,1729690914,357271160,,0.10693930834531784,0.0967026874423027,6,0.20000000298023224,537.9199829101562,-0.04565749689936638
1729690914.4572613,1850,1729690914,456241845,,0.10075224190950394,0.08490574359893799,5,0.20000000298023224,537.9199829101562,-0.054240476340055466
1729690914.5598571,1851,1729690914,557255160,,0.11569897830486298,0.10562517493963242,4,0.20000000298023224,537.9299926757812,-0.04721839725971222
1729690914.6585624,1852,1729690914,657271549,,0.09008987247943878,0.08202222734689713,3,0.20999999344348907,537.9400024414062,-0.037263114005327225
1729690914.7581189,1853,1729690914,755229215,,0.08544053137302399,0.06993229687213898,2,0.2199999988079071,537.9400024414062,-0.04908723756670952
1729690914.8592012,1854,1729690914,857305919,,0.144541934132576,0.04956897348165512,1,0.23000000417232513,537.9400024414062,-0.1357766091823578
1729690914.959276,1855,1729690914,958471956,,0.16203893721103668,0.06900433450937271,1,0.23000000417232513,537.9400024414062,-0.1466117948293686
1729690915.0594122,1856,1729690915,57994863,,0.09724358469247818,0.039377592504024506,1,0.23000000417232513,537.9299926757812,-0.08891411125659943
1729690915.1595068,1857,1729690915,158632085,,0.09078386425971985,0.044923149049282074,2,0.23000000417232513,537.9199829101562,-0.07888993620872498
1729690915.2570868,1858,1729690915,256378345,,0.10066184401512146,0.04805921018123627,2,0.2199999988079071,537.9199829101562,-0.0884484052658081
1729690915.3580155,1859,1729690915,357327715,,0.09492652118206024,0.06126829981803894,3,0.2199999988079071,537.9199829101562,-0.07250683009624481
1729690915.4587693,1860,1729690915,457410270,,0.05507028475403786,0.0548531673848629,4,0.20999999344348907,537.9099731445312,-0.004885297268629074
1729690915.5619626,1861,1729690915,558380363,,0.11081290990114212,0.07453442364931107,4,0.20999999344348907,537.9099731445312,-0.082000732421875
1729690915.6592507,1862,1729690915,657430437,,0.07443563640117645,0.07277576625347137,4,0.20000000298023224,537.8999633789062,0.015631765127182007
1729690915.7595527,1863,1729690915,758527770,,0.08894091099500656,0.06743112951517105,4,0.20000000298023224,537.8999633789062,0.057995934039354324
1729690915.8586235,1864,1729690915,857456733,,0.09839044511318207,0.09833937138319016,4,0.20999999344348907,537.8999633789062,0.003169640898704529
1729690915.9572546,1865,1729690915,956386844,,0.12613147497177124,0.08437293767929077,3,0.20999999344348907,537.8999633789062,-0.09375690668821335
1729690916.0595636,1866,1729690916,57459418,,0.1138610690832138,0.10913150012493134,2,0.2199999988079071,537.8900146484375,-0.03247552365064621
1729690916.1590338,1867,1729690916,156639103,,0.0849170833826065,0.08367931842803955,2,0.2199999988079071,537.8900146484375,-0.014445893466472626
1729690916.260687,1868,1729690916,258451400,,0.09694789350032806,0.0938141793012619,2,0.2199999988079071,537.8800048828125,-0.02444981411099434
1729690916.3590376,1869,1729690916,357402177,,0.08027815073728561,0.07950417697429657,2,0.20000000298023224,537.8800048828125,-0.011120574548840523
1729690916.4613829,1870,1729690916,458478233,,0.08239538222551346,0.06811985373497009,2,0.20999999344348907,537.8800048828125,-0.04635389894247055
1729690916.5590496,1871,1729690916,557629344,,0.06149819865822792,0.05987821891903877,2,0.20999999344348907,537.8900146484375,0.014022395014762878
1729690916.6587899,1872,1729690916,657507566,,0.08955750614404678,0.08720652014017105,2,0.20000000298023224,537.8900146484375,-0.020385518670082092
1729690916.7589817,1873,1729690916,757642196,,0.08790721744298935,0.06581732630729675,3,0.20000000298023224,537.8999633789062,0.05827314034104347
1729690916.8579662,1874,1729690916,856682733,,0.08310096710920334,0.0755956768989563,3,0.20000000298023224,537.8999633789062,0.03451180085539818
1729690916.957485,1875,1729690916,956640825,,0.095969557762146,0.04618135094642639,2,0.20000000298023224,537.8999633789062,-0.0841275155544281
1729690917.058475,1876,1729690917,57589306,,0.09387602657079697,0.08314976841211319,2,0.20999999344348907,537.8999633789062,-0.043575502932071686
1729690917.1578052,1877,1729690917,156648566,,0.0529886931180954,0.03597141057252884,1,0.20000000298023224,537.8999633789062,-0.03890834003686905
1729690917.2588227,1878,1729690917,257754954,,0.06281039863824844,0.03109770268201828,1,0.20999999344348907,537.9099731445312,-0.05457177758216858
1729690917.3573706,1879,1729690917,356638788,,0.03693937510251999,0.034417107701301575,1,0.20999999344348907,537.9199829101562,-0.013415663503110409
1729690917.4585016,1880,1729690917,457727140,,0.08517730236053467,0.03641550987958908,0,0.20999999344348907,537.9299926757812,-0.07700054347515106
1729690917.5579438,1881,1729690917,556837028,,0.121290422976017,0.03964930400252342,0,0.20999999344348907,537.9299926757812,-0.11462678015232086
1729690917.6597984,1882,1729690917,658821121,,0.06680198013782501,0.04179110750555992,0,0.2199999988079071,537.9299926757812,-0.05211533606052399
1729690917.7603037,1883,1729690917,759616880,,0.116913340985775,0.04794913902878761,0,0.2199999988079071,537.9299926757812,-0.10662837326526642
1729690917.8581076,1884,1729690917,856846473,,0.10319429636001587,0.04591688513755798,1,0.2199999988079071,537.9299926757812,-0.09241592139005661
1729690917.9590087,1885,1729690917,957894417,,0.12345878034830093,0.042417261749506,1,0.2199999988079071,537.9299926757812,-0.1159432902932167
1729690918.057681,1886,1729690918,56765639,,0.07366208732128143,0.02692822925746441,1,0.2199999988079071,537.9299926757812,-0.06856364756822586
1729690918.15858,1887,1729690918,157746658,,0.05767779424786568,0.024407096207141876,1,0.20999999344348907,537.9299926757812,-0.0522591769695282
1729690918.2576892,1888,1729690918,256778584,,0.06275523453950882,0.008529657498002052,1,0.20999999344348907,537.9299926757812,-0.06217285990715027
1729690918.3568623,1889,1729690918,355916824,,0.08687179535627365,0.015097703784704208,1,0.2199999988079071,537.9199829101562,-0.08554980903863907
1729690918.4586983,1890,1729690918,457752639,,0.059382230043411255,0.02334682270884514,0,0.2199999988079071,537.9199829101562,-0.05460013821721077
1729690918.557944,1891,1729690918,556938565,,0.0679120123386383,0.04009854048490524,0,0.2199999988079071,537.9099731445312,-0.05481011047959328
1729690918.6588712,1892,1729690918,657997509,,0.051398053765296936,0.03542174771428108,0,0.2199999988079071,537.8999633789062,-0.03724324703216553
1729690918.7576108,1893,1729690918,756865287,,0.0912422239780426,0.062064286321401596,1,0.20999999344348907,537.8900146484375,-0.06688173860311508
1729690918.861568,1894,1729690918,860870898,,0.06824003905057907,0.06671299040317535,1,0.20999999344348907,537.8800048828125,0.014355451799929142
1729690918.9592822,1895,1729690918,956933472,,0.08572163432836533,0.07935837656259537,1,0.20000000298023224,537.8800048828125,-0.032410599291324615
1729690919.0622916,1896,1729690919,58870157,,0.09787683188915253,0.09781457483768463,1,0.1899999976158142,537.8900146484375,0.003490407019853592
1729690919.1617014,1897,1729690919,159929009,,0.09982934594154358,0.09809291362762451,1,0.20000000298023224,537.8900146484375,0.01853855326771736
1729690919.2632241,1898,1729690919,261987138,,0.14933830499649048,0.09456144273281097,1,0.1899999976158142,537.8999633789062,0.11558572947978973
1729690919.3620253,1899,1729690919,360979361,,0.12827548384666443,0.12773630023002625,1,0.18000000715255737,537.8999633789062,0.011748883873224258
1729690919.4584002,1900,1729690919,456935749,,0.1431187242269516,0.10120942443609238,1,0.17000000178813934,537.9099731445312,0.10119102150201797
1729690919.5653417,1901,1729690919,563990675,,0.07226134836673737,0.07155536115169525,2,0.18000000715255737,537.8999633789062,-0.010076310485601425
1729690919.6644673,1902,1729690919,663114194,,0.06269354373216629,0.05982290953397751,2,0.1899999976158142,537.8999633789062,-0.018753662705421448
1729690919.7625434,1903,1729690919,761001712,,0.06427692621946335,0.044864948838949203,2,0.1899999976158142,537.8999633789062,-0.04602889344096184
1729690919.858087,1904,1729690919,857038379,,0.03971133753657341,0.03170456364750862,2,0.20000000298023224,537.8900146484375,-0.023912571370601654
1729690919.9592137,1905,1729690919,957994305,,0.06990267336368561,0.038406211882829666,2,0.20000000298023224,537.8900146484375,-0.058406729251146317
1729690920.061369,1906,1729690920,60202768,,0.0675697848200798,0.03272832930088043,2,0.20999999344348907,537.8800048828125,-0.059114571660757065
1729690920.1591465,1907,1729690920,157976101,,0.04768925532698631,0.04538017138838768,2,0.20000000298023224,537.8800048828125,-0.014659639447927475
1729690920.2588522,1908,1729690920,258076508,,0.06193138659000397,0.05629294738173485,2,0.20000000298023224,537.8800048828125,-0.025818612426519394
1729690920.3580453,1909,1729690920,357076879,,0.08635538071393967,0.08581630140542984,2,0.1899999976158142,537.8699951171875,-0.009634032845497131
1729690920.464215,1910,1729690920,458971675,,0.08411945402622223,0.08386482298374176,2,0.20000000298023224,537.8699951171875,0.006540197879076004
1729690920.559215,1911,1729690920,558162193,,0.12012875825166702,0.117132768034935,1,0.20000000298023224,537.8699951171875,-0.026661466807127
1729690920.6583068,1912,1729690920,657137952,,0.12398753315210342,0.11754605174064636,0,0.20000000298023224,537.8699951171875,-0.03944403678178787
1729690920.7569165,1913,1729690920,756084915,,0.1517781764268875,0.14261259138584137,359,0.20999999344348907,537.8699951171875,0.051944807171821594
1729690920.8579645,1914,1729690920,857103471,,0.1640312522649765,0.16303953528404236,358,0.20999999344348907,537.8599853515625,-0.018010105937719345
1729690920.9573584,1915,1729690920,956157026,,0.16203056275844574,0.15060870349407196,357,0.2199999988079071,537.8499755859375,-0.05975722149014473
1729690921.0592036,1916,1729690921,58192767,,0.15515077114105225,0.1484222561120987,358,0.2199999988079071,537.8399658203125,-0.045195095241069794
1729690921.1584656,1917,1729690921,157217508,,0.11581536382436752,0.10241429507732391,358,0.23000000417232513,537.8200073242188,-0.05407873913645744
1729690921.2585518,1918,1729690921,257239582,,0.1243380531668663,0.11947371810674667,359,0.23999999463558197,537.7999877929688,-0.03443808853626251
1729690921.3606899,1919,1729690921,358233989,,0.12311992794275284,0.11562375724315643,0,0.2199999988079071,537.7799682617188,0.042304445058107376
1729690921.4594924,1920,1729690921,457230933,,0.12877582013607025,0.0885353684425354,1,0.2199999988079071,537.7799682617188,0.0935131087899208
1729690921.5616605,1921,1729690921,556112711,,0.1438387930393219,0.12100028991699219,1,0.20999999344348907,537.7699584960938,0.07777226716279984
1729690921.6626396,1922,1729690921,658244619,,0.16577906906604767,0.12732946872711182,0,0.20999999344348907,537.7699584960938,0.10615980625152588
1729690921.7584794,1923,1729690921,757296193,,0.17045404016971588,0.14852964878082275,359,0.2199999988079071,537.760009765625,0.08362728357315063
1729690921.8575513,1924,1729690921,856270396,,0.1782722771167755,0.11960601061582565,358,0.2199999988079071,537.75,0.13219457864761353
1729690921.9589295,1925,1729690921,957526674,,0.16265670955181122,0.12070346623659134,358,0.2199999988079071,537.739990234375,0.10903153568506241
1729690922.0576217,1926,1729690922,56474266,,0.1845933049917221,0.10750912874937057,358,0.20999999344348907,537.739990234375,0.1500549018383026
1729690922.159908,1927,1729690922,158355211,,0.12816110253334045,0.09524740278720856,359,0.20999999344348907,537.739990234375,0.08575080335140228
1729690922.2583861,1928,1729690922,257459785,,0.1456812620162964,0.0787782147526741,359,0.2199999988079071,537.72998046875,0.12254396826028824
1729690922.3574057,1929,1729690922,356508248,,0.140045166015625,0.0639035627245903,359,0.2199999988079071,537.72998046875,0.12461533397436142
1729690922.458992,1930,1729690922,458331896,,0.12577931582927704,0.07840613275766373,359,0.2199999988079071,537.719970703125,0.09835098683834076
1729690922.557679,1931,1729690922,556516433,,0.17786797881126404,0.05211741104722023,359,0.2199999988079071,537.719970703125,0.1700611561536789
1729690922.662424,1932,1729690922,661300988,,0.13964684307575226,0.06940925866365433,358,0.2199999988079071,537.7099609375,0.12117590010166168
1729690922.7594686,1933,1729690922,757501692,,0.18580849468708038,0.025694938376545906,359,0.2199999988079071,537.7099609375,0.18402327597141266
1729690922.8595014,1934,1729690922,858420229,,0.10355731844902039,0.03758089616894722,359,0.2199999988079071,537.7099609375,0.09649764001369476
1729690922.9589682,1935,1729690922,957505618,,0.18657825887203217,0.01831998862326145,0,0.2199999988079071,537.7099609375,0.1856766641139984
1729690923.0594618,1936,1729690923,58474247,,0.2143353670835495,0.03343770280480385,0,0.2199999988079071,537.7099609375,0.2117110639810562
1729690923.1591156,1937,1729690923,157618821,,0.19425047934055328,0.04472950100898743,0,0.20999999344348907,537.719970703125,0.1890304833650589
1729690923.2580593,1938,1729690923,256472192,,0.20720919966697693,0.05382201075553894,1,0.2199999988079071,537.719970703125,0.20009708404541016
1729690923.3609507,1939,1729690923,359487229,,0.14285729825496674,0.04911743104457855,1,0.20999999344348907,537.719970703125,0.1341480016708374
1729690923.4572687,1940,1729690923,456541784,,0.2286696434020996,0.07888142019510269,1,0.20999999344348907,537.719970703125,0.21463346481323242
1729690923.5593743,1941,1729690923,558605636,,0.23608484864234924,0.08816136419773102,2,0.20000000298023224,537.719970703125,0.2190060168504715
1729690923.6586926,1942,1729690923,657599617,,0.2540910542011261,0.09022229164838791,2,0.20000000298023224,537.739990234375,0.2375335544347763
1729690923.757698,1943,1729690923,756599136,,0.16127103567123413,0.07372335344552994,2,0.1899999976158142,537.75,0.14343364536762238
1729690923.858798,1944,1729690923,857755025,,0.14331313967704773,0.07483617216348648,2,0.1899999976158142,537.760009765625,0.122221939265728
1729690923.9577546,1945,1729690923,955551247,,0.16119037568569183,0.07170449942350388,2,0.1899999976158142,537.760009765625,0.1443634331226349
1729690924.0602512,1946,1729690924,59175154,,0.12483102828264236,0.06653378903865814,2,0.1899999976158142,537.7699584960938,0.10562215745449066
1729690924.1573715,1947,1729690924,156723061,,0.17294049263000488,0.06098582595586777,2,0.1899999976158142,537.7799682617188,0.1618306040763855
1729690924.261024,1948,1729690924,257628506,,0.0902283787727356,0.0745939165353775,1,0.1899999976158142,537.7999877929688,0.05076323822140694
1729690924.3598592,1949,1729690924,356621043,,0.11502396315336227,0.09167196601629257,0,0.1899999976158142,537.8099975585938,0.06947490572929382
1729690924.462921,1950,1729690924,460613839,,0.13101044297218323,0.10648640245199203,359,0.20000000298023224,537.8300170898438,0.07631763070821762
1729690924.5588677,1951,1729690924,557836858,,0.1375521868467331,0.13246271014213562,359,0.20000000298023224,537.8399658203125,0.03707065433263779
1729690924.6578982,1952,1729690924,656838376,,0.14352361857891083,0.14247287809848785,358,0.20999999344348907,537.8499755859375,0.017335206270217896
1729690924.757154,1953,1729690924,755750598,,0.14183536171913147,0.14141450822353363,358,0.20999999344348907,537.8599853515625,0.0109179662540555
1729690924.8619792,1954,1729690924,860870209,,0.16686834394931793,0.15897205471992493,358,0.20999999344348907,537.8699951171875,-0.05072405934333801
1729690924.9578063,1955,1729690924,956735191,,0.16190947592258453,0.1605909764766693,359,0.20999999344348907,537.8699951171875,-0.020620718598365784
1729690925.0663092,1956,1729690925,64816339,,0.17240411043167114,0.15430879592895508,0,0.20999999344348907,537.8699951171875,-0.07688935846090317
1729690925.1592138,1957,1729690925,157824653,,0.1618943214416504,0.1576472967863083,1,0.20999999344348907,537.8599853515625,0.0368388295173645
1729690925.2616045,1958,1729690925,259736190,,0.18015801906585693,0.17827610671520233,1,0.20999999344348907,537.8599853515625,-0.025971971452236176
1729690925.359466,1959,1729690925,358747302,,0.1728612333536148,0.1674107313156128,2,0.20999999344348907,537.8599853515625,-0.0430656373500824
1729690925.460147,1960,1729690925,458919505,,0.18290694057941437,0.16994445025920868,3,0.20999999344348907,537.8599853515625,-0.06763015687465668
1729690925.5625455,1961,1729690925,559812413,,0.15839281678199768,0.15806211531162262,2,0.2199999988079071,537.8599853515625,-0.01023009791970253
1729690925.658521,1962,1729690925,657792505,,0.140513077378273,0.13487431406974792,1,0.2199999988079071,537.8499755859375,-0.039406172931194305
1729690925.7585242,1963,1729690925,756998838,,0.1254337877035141,0.118440181016922,0,0.23000000417232513,537.8499755859375,-0.04129841923713684
1729690925.8574402,1964,1729690925,855875172,,0.12782186269760132,0.10910287499427795,359,0.23000000417232513,537.8399658203125,-0.06659574806690216
1729690925.96382,1965,1729690925,962876449,,0.10972435027360916,0.08679141104221344,358,0.23000000417232513,537.8200073242188,-0.06713183969259262
1729690926.0605276,1966,1729690926,58914894,,0.0587463304400444,0.05852194502949715,358,0.23000000417232513,537.8099975585938,0.005129676312208176
1729690926.1593885,1967,1729690926,158023097,,0.059362925589084625,0.03383709117770195,358,0.23000000417232513,537.7999877929688,0.0487750768661499
1729690926.258047,1968,1729690926,256940764,,0.05419057235121727,0.03626866638660431,359,0.2199999988079071,537.7899780273438,0.040264155715703964
1729690926.3579748,1969,1729690926,357069894,,0.06941316276788712,0.0577411986887455,359,0.2199999988079071,537.7899780273438,0.038524553179740906
1729690926.4566486,1970,1729690926,455942319,,0.09206490218639374,0.06039174273610115,359,0.2199999988079071,537.7899780273438,0.06948944926261902
1729690926.5592597,1971,1729690926,558012690,,0.14515617489814758,0.06679505854845047,359,0.2199999988079071,537.7899780273438,0.12887489795684814
1729690926.6584775,1972,1729690926,657104838,,0.14620772004127502,0.05916702002286911,358,0.2199999988079071,537.7899780273438,0.13370099663734436
1729690926.7592294,1973,1729690926,757968153,,0.11219077557325363,0.06690340489149094,358,0.20999999344348907,537.8099975585938,0.09005944430828094
1729690926.8585157,1974,1729690926,857155227,,0.12179596722126007,0.05259150266647339,358,0.2199999988079071,537.8200073242188,0.10985622555017471
1729690926.9598944,1975,1729690926,958068967,,0.06477240473031998,0.049652572721242905,358,0.23000000417232513,537.8200073242188,0.041594311594963074
1729690927.058298,1976,1729690927,57100134,,0.081489697098732,0.024586481973528862,358,0.2199999988079071,537.8300170898438,0.0776921883225441
1729690927.159417,1977,1729690927,158086393,,0.04256777465343475,0.04241950809955597,359,0.2199999988079071,537.8300170898438,0.003549757646396756
1729690927.2570598,1978,1729690927,256222745,,0.04016775265336037,0.03983167186379433,359,0.20999999344348907,537.8300170898438,0.005185211077332497
1729690927.3592584,1979,1729690927,358215189,,0.05105580389499664,0.049919310957193375,359,0.2199999988079071,537.8300170898438,0.010712476447224617
1729690927.4584644,1980,1729690927,457157189,,0.054295506328344345,0.05205569043755531,0,0.2199999988079071,537.8300170898438,-0.015433963388204575
1729690927.560951,1981,1729690927,560028041,,0.13067254424095154,0.07171444594860077,0,0.20999999344348907,537.8200073242188,0.10923530161380768
1729690927.6606038,1982,1729690927,659036393,,0.1098058670759201,0.0885595753788948,0,0.2199999988079071,537.8200073242188,0.06491942703723907
1729690927.7570899,1983,1729690927,756133633,,0.06968186050653458,0.06788313388824463,359,0.2199999988079071,537.8200073242188,0.01573028974235058
1729690927.8593147,1984,1729690927,858177652,,0.11865078657865524,0.09951266646385193,359,0.20999999344348907,537.8200073242188,0.06461607664823532
1729690927.9574766,1985,1729690927,956332837,,0.1172170415520668,0.09865264594554901,359,0.20999999344348907,537.8300170898438,0.06330474466085434
1729690928.0591328,1986,1729690928,58290374,,0.11648835986852646,0.11096443235874176,359,0.20999999344348907,537.8499755859375,0.03544618934392929
1729690928.1594937,1987,1729690928,157805004,,0.10804247856140137,0.10382933914661407,359,0.20000000298023224,537.8599853515625,0.029877183958888054
1729690928.258645,1988,1729690928,257268041,,0.10216090828180313,0.09045466780662537,0,0.20000000298023224,537.8800048828125,0.04748477786779404
1729690928.3594434,1989,1729690928,358262818,,0.10033170133829117,0.09817396849393845,1,0.20000000298023224,537.8900146484375,0.020695943385362625
1729690928.459593,1990,1729690928,456388022,,0.12097834050655365,0.10462704300880432,1,0.1899999976158142,537.8999633789062,0.06073664873838425
1729690928.559359,1991,1729690928,558264966,,0.1397719532251358,0.12464900314807892,1,0.1899999976158142,537.9099731445312,0.0632362812757492
1729690928.6575532,1992,1729690928,656235151,,0.10434596985578537,0.09991524368524551,1,0.18000000715255737,537.9299926757812,0.030083630234003067
1729690928.7574613,1993,1729690928,756281633,,0.10951276123523712,0.0997910276055336,1,0.18000000715255737,537.9400024414062,0.04510871693491936
1729690928.8608541,1994,1729690928,858409725,,0.11004042625427246,0.0970151424407959,0,0.18000000715255737,537.9500122070312,0.05193224549293518
1729690928.959572,1995,1729690928,958248114,,0.10118468105792999,0.09919498860836029,0,0.18000000715255737,537.9500122070312,0.019967347383499146
1729690929.058295,1996,1729690929,57433670,,0.10781706869602203,0.10731703042984009,359,0.1899999976158142,537.9500122070312,-0.010371744632720947
1729690929.1579385,1997,1729690929,156322114,,0.10179607570171356,0.09639240056276321,359,0.1899999976158142,537.9500122070312,-0.03272533416748047
1729690929.257175,1998,1729690929,256354151,,0.1661880761384964,0.10886403173208237,358,0.20999999344348907,537.9400024414062,-0.12556710839271545
1729690929.3590002,1999,1729690929,357916170,,0.12040924280881882,0.09051554650068283,357,0.20999999344348907,537.9199829101562,-0.07940606772899628
1729690929.4577324,2000,1729690929,456534873,,0.13107997179031372,0.0816587582230568,357,0.2199999988079071,537.9099731445312,-0.10253686457872391
1729690929.5587413,2001,1729690929,557689169,,0.11104771494865417,0.07766753435134888,358,0.23000000417232513,537.8900146484375,-0.07936844229698181
1729690929.6587555,2002,1729690929,656380114,,0.08236213773488998,0.06952375173568726,358,0.2199999988079071,537.8800048828125,-0.044158466160297394
1729690929.7603626,2003,1729690929,759328021,,0.1104334145784378,0.0743989497423172,359,0.2199999988079071,537.8699951171875,-0.08161087334156036
1729690929.8588762,2004,1729690929,856403928,,0.09767136722803116,0.07576965540647507,0,0.2199999988079071,537.8699951171875,-0.06163322925567627
1729690929.9585898,2005,1729690929,957506521,,0.0674915537238121,0.06691449135541916,0,0.20999999344348907,537.8599853515625,-0.00880688801407814
1729690930.0579042,2006,1729690930,56597095,,0.0554334819316864,0.05453135818243027,1,0.20999999344348907,537.8599853515625,-0.009960021823644638
1729690930.1581113,2007,1729690930,157445891,,0.06538811326026917,0.06461331993341446,0,0.20999999344348907,537.8699951171875,0.010036139748990536
1729690930.2596495,2008,1729690930,256497317,,0.0690341517329216,0.06882801651954651,359,0.20999999344348907,537.8699951171875,-0.005330944433808327
1729690930.3612309,2009,1729690930,359203595,,0.07771959900856018,0.07617063820362091,358,0.2199999988079071,537.8699951171875,-0.015439257025718689
1729690930.458463,2010,1729690930,457515113,,0.09054003655910492,0.09009914100170135,358,0.2199999988079071,537.8699951171875,0.008924284018576145
1729690930.5575643,2011,1729690930,556587576,,0.11950529366731644,0.11463365703821182,357,0.2199999988079071,537.8599853515625,0.03377337008714676
1729690930.6598203,2012,1729690930,658672539,,0.09489084780216217,0.09266449511051178,357,0.2199999988079071,537.8599853515625,0.02043440192937851
1729690930.7577178,2013,1729690930,756625817,,0.12140670418739319,0.11726401746273041,356,0.20999999344348907,537.8599853515625,-0.03144417703151703
1729690930.8588762,2014,1729690930,857603669,,0.13098572194576263,0.13012593984603882,356,0.20999999344348907,537.8699951171875,0.014983296394348145
1729690930.9575934,2015,1729690930,956743891,,0.11480172723531723,0.11450525373220444,356,0.20999999344348907,537.8599853515625,0.008245285600423813
1729690931.056426,2016,1729690931,55732002,,0.11560936272144318,0.11042959988117218,357,0.20999999344348907,537.8599853515625,0.03421737998723984
1729690931.1588166,2017,1729690931,157678317,,0.09343689680099487,0.08905155956745148,357,0.20999999344348907,537.8599853515625,0.028289122506976128
1729690931.2580974,2018,1729690931,256825483,,0.08709586411714554,0.08684876561164856,358,0.20999999344348907,537.8599853515625,-0.006556128151714802
1729690931.3585627,2019,1729690931,355716909,,0.09232936799526215,0.09056755155324936,359,0.2199999988079071,537.8599853515625,0.01795072853565216
1729690931.460665,2020,1729690931,457693576,,0.09686505049467087,0.09150931239128113,359,0.20999999344348907,537.8599853515625,0.031762924045324326
1729690931.557726,2021,1729690931,556937279,,0.11865928024053574,0.1097753569483757,359,0.20999999344348907,537.8599853515625,0.045048825442790985
1729690931.6600509,2022,1729690931,658816094,,0.11217556148767471,0.1121150553226471,359,0.2199999988079071,537.8599853515625,0.003684078110381961
1729690931.7591176,2023,1729690931,757772113,,0.09064412862062454,0.08370544761419296,359,0.2199999988079071,537.8599853515625,-0.03478151559829712
1729690931.858898,2024,1729690931,857802650,,0.08769173175096512,0.08481179177761078,359,0.2199999988079071,537.8499755859375,-0.022289011627435684
1729690931.9628384,2025,1729690931,961763538,,0.08747688680887222,0.08731336891651154,358,0.2199999988079071,537.8499755859375,-0.005346160382032394
1729690932.0619202,2026,1729690932,60944335,,0.09209898114204407,0.09097222238779068,358,0.2199999988079071,537.8399658203125,0.014362383633852005
