Time,header.seq,header.stamp.secs,header.stamp.nsecs,header.frame_id,child_frame_id,pose.pose.position.x,pose.pose.position.y,pose.pose.position.z,pose.pose.orientation.x,pose.pose.orientation.y,pose.pose.orientation.z,pose.pose.orientation.w,pose.covariance,twist.twist.linear.x,twist.twist.linear.y,twist.twist.linear.z,twist.twist.angular.x,twist.twist.angular.y,twist.twist.angular.z,twist.covariance
1729690891.1176403,1600,1729690889,453123008,map,base_link,1.9298853321356269,2.4957990873884617,1.294,0.1276598334002577,-0.021287857312432157,-0.3668597782530367,-0.9212294487082989,"(1.8496000000000004, 0.0, 0.0, 0.0, 0.0, 0.0, 0.0, 1.8496000000000004, 0.0, 0.0, 0.0, 0.0, 0.0, 0.0, 2.965284, 0.0, 0.0, 0.0, 0.0, 0.0, 0.0, 99999.0, 0.0, 0.0, 0.0, 0.0, 0.0, 0.0, 99999.0, 0.0, 0.0, 0.0, 0.0, 0.0, 0.0, 99999.0)",0.31,0.66,0.39,0.0,0.0,0.0,"(-1.0, 0.0, 0.0, 0.0, 0.0, 0.0, 0.0, 0.0, 0.0, 0.0, 0.0, 0.0, 0.0, 0.0, 0.0, 0.0, 0.0, 0.0, 0.0, 0.0, 0.0, 0.0, 0.0, 0.0, 0.0, 0.0, 0.0, 0.0, 0.0, 0.0, 0.0, 0.0, 0.0, 0.0, 0.0, 0.0)"
1729690891.1177416,1601,1729690889,553123008,map,base_link,1.9669984864813848,2.5734461593357,1.266,0.14073474789516766,-0.021021391524795208,-0.3394371475089294,-0.9298033419622918,"(1.841449, 0.0, 0.0, 0.0, 0.0, 0.0, 0.0, 1.841449, 0.0, 0.0, 0.0, 0.0, 0.0, 0.0, 2.968729, 0.0, 0.0, 0.0, 0.0, 0.0, 0.0, 99999.0, 0.0, 0.0, 0.0, 0.0, 0.0, 0.0, 99999.0, 0.0, 0.0, 0.0, 0.0, 0.0, 0.0, 99999.0)",0.29,0.95,0.32,0.0,0.0,0.0,"(-1.0, 0.0, 0.0, 0.0, 0.0, 0.0, 0.0, 0.0, 0.0, 0.0, 0.0, 0.0, 0.0, 0.0, 0.0, 0.0, 0.0, 0.0, 0.0, 0.0, 0.0, 0.0, 0.0, 0.0, 0.0, 0.0, 0.0, 0.0, 0.0, 0.0, 0.0, 0.0, 0.0, 0.0, 0.0, 0.0)"
1729690891.1178856,1602,1729690889,656123008,map,base_link,2.0133899330597322,2.673278116307727,1.244,0.1447237175742618,-0.015766256635052676,-0.31727290080177833,-0.9370935797133753,"(1.841449, 0.0, 0.0, 0.0, 0.0, 0.0, 0.0, 1.841449, 0.0, 0.0, 0.0, 0.0, 0.0, 0.0, 2.968729, 0.0, 0.0, 0.0, 0.0, 0.0, 0.0, 99999.0, 0.0, 0.0, 0.0, 0.0, 0.0, 0.0, 99999.0, 0.0, 0.0, 0.0, 0.0, 0.0, 0.0, 99999.0)",0.3,1.26,0.28,0.0,0.0,0.0,"(-1.0, 0.0, 0.0, 0.0, 0.0, 0.0, 0.0, 0.0, 0.0, 0.0, 0.0, 0.0, 0.0, 0.0, 0.0, 0.0, 0.0, 0.0, 0.0, 0.0, 0.0, 0.0, 0.0, 0.0, 0.0, 0.0, 0.0, 0.0, 0.0, 0.0, 0.0, 0.0, 0.0, 0.0, 0.0, 0.0)"
1729690891.1180236,1603,1729690889,753123008,map,base_link,2.0690596674418633,2.7952949525064357,1.225,0.14253025388949045,-0.00709639653736135,-0.3018744825489715,-0.9426062617382578,"(1.836025, 0.0, 0.0, 0.0, 0.0, 0.0, 0.0, 1.836025, 0.0, 0.0, 0.0, 0.0, 0.0, 0.0, 2.9721759999999997, 0.0, 0.0, 0.0, 0.0, 0.0, 0.0, 99999.0, 0.0, 0.0, 0.0, 0.0, 0.0, 0.0, 99999.0, 0.0, 0.0, 0.0, 0.0, 0.0, 0.0, 99999.0)",0.33,1.51,0.19,0.0,0.0,0.0,"(-1.0, 0.0, 0.0, 0.0, 0.0, 0.0, 0.0, 0.0, 0.0, 0.0, 0.0, 0.0, 0.0, 0.0, 0.0, 0.0, 0.0, 0.0, 0.0, 0.0, 0.0, 0.0, 0.0, 0.0, 0.0, 0.0, 0.0, 0.0, 0.0, 0.0, 0.0, 0.0, 0.0, 0.0, 0.0, 0.0)"
1729690891.1182826,1604,1729690889,853123008,map,base_link,2.1340076932393,2.9394966755975935,1.215,0.13327550179297984,0.008236520038374068,-0.2910173519232262,-0.9473535249520528,"(1.836025, 0.0, 0.0, 0.0, 0.0, 0.0, 0.0, 1.836025, 0.0, 0.0, 0.0, 0.0, 0.0, 0.0, 2.9721759999999997, 0.0, 0.0, 0.0, 0.0, 0.0, 0.0, 99999.0, 0.0, 0.0, 0.0, 0.0, 0.0, 0.0, 99999.0, 0.0, 0.0, 0.0, 0.0, 0.0, 0.0, 99999.0)",0.31,1.79,0.08,0.0,0.0,0.0,"(-1.0, 0.0, 0.0, 0.0, 0.0, 0.0, 0.0, 0.0, 0.0, 0.0, 0.0, 0.0, 0.0, 0.0, 0.0, 0.0, 0.0, 0.0, 0.0, 0.0, 0.0, 0.0, 0.0, 0.0, 0.0, 0.0, 0.0, 0.0, 0.0, 0.0, 0.0, 0.0, 0.0, 0.0, 0.0, 0.0)"
1729690891.1184876,1605,1729690889,956123008,map,base_link,2.198955710247936,3.128068159975645,1.216,0.1116707798473336,0.02143309814615103,-0.2838977762983884,-0.9520883949744248,"(1.830609, 0.0, 0.0, 0.0, 0.0, 0.0, 0.0, 1.830609, 0.0, 0.0, 0.0, 0.0, 0.0, 0.0, 2.9549610000000004, 0.0, 0.0, 0.0, 0.0, 0.0, 0.0, 99999.0, 0.0, 0.0, 0.0, 0.0, 0.0, 0.0, 99999.0, 0.0, 0.0, 0.0, 0.0, 0.0, 0.0, 99999.0)",0.32,2.0,0.01,0.0,0.0,0.0,"(-1.0, 0.0, 0.0, 0.0, 0.0, 0.0, 0.0, 0.0, 0.0, 0.0, 0.0, 0.0, 0.0, 0.0, 0.0, 0.0, 0.0, 0.0, 0.0, 0.0, 0.0, 0.0, 0.0, 0.0, 0.0, 0.0, 0.0, 0.0, 0.0, 0.0, 0.0, 0.0, 0.0, 0.0, 0.0, 0.0)"
1729690891.1194253,1606,1729690890,58123008,map,base_link,2.2731820231510387,3.3166396530403586,1.227,0.08509717010626154,0.03940562049017743,-0.2787552671920598,-0.9557725512517992,"(1.830609, 0.0, 0.0, 0.0, 0.0, 0.0, 0.0, 1.830609, 0.0, 0.0, 0.0, 0.0, 0.0, 0.0, 2.9549610000000004, 0.0, 0.0, 0.0, 0.0, 0.0, 0.0, 99999.0, 0.0, 0.0, 0.0, 0.0, 0.0, 0.0, 99999.0, 0.0, 0.0, 0.0, 0.0, 0.0, 0.0, 99999.0)",0.33,2.13,0.09,0.0,0.0,0.0,"(-1.0, 0.0, 0.0, 0.0, 0.0, 0.0, 0.0, 0.0, 0.0, 0.0, 0.0, 0.0, 0.0, 0.0, 0.0, 0.0, 0.0, 0.0, 0.0, 0.0, 0.0, 0.0, 0.0, 0.0, 0.0, 0.0, 0.0, 0.0, 0.0, 0.0, 0.0, 0.0, 0.0, 0.0, 0.0, 0.0)"
1729690891.1210496,1607,1729690890,155123008,map,base_link,2.3474083296064285,3.5163035855913,1.238,0.0653109813487549,0.05722832026127039,-0.2777600734661586,-0.9567176891138838,"(1.819801, 0.0, 0.0, 0.0, 0.0, 0.0, 0.0, 1.819801, 0.0, 0.0, 0.0, 0.0, 0.0, 0.0, 2.937796, 0.0, 0.0, 0.0, 0.0, 0.0, 0.0, 99999.0, 0.0, 0.0, 0.0, 0.0, 0.0, 0.0, 99999.0, 0.0, 0.0, 0.0, 0.0, 0.0, 0.0, 99999.0)",0.28,2.21,-0.04,0.0,0.0,0.0,"(-1.0, 0.0, 0.0, 0.0, 0.0, 0.0, 0.0, 0.0, 0.0, 0.0, 0.0, 0.0, 0.0, 0.0, 0.0, 0.0, 0.0, 0.0, 0.0, 0.0, 0.0, 0.0, 0.0, 0.0, 0.0, 0.0, 0.0, 0.0, 0.0, 0.0, 0.0, 0.0, 0.0, 0.0, 0.0, 0.0)"
1729690891.121339,1608,1729690890,253123008,map,base_link,2.4123563368831276,3.7270599586731703,1.247,0.04294006889709004,0.07401044162235461,-0.2815948215472719,-0.9557107101480746,"(1.819801, 0.0, 0.0, 0.0, 0.0, 0.0, 0.0, 1.819801, 0.0, 0.0, 0.0, 0.0, 0.0, 0.0, 2.937796, 0.0, 0.0, 0.0, 0.0, 0.0, 0.0, 99999.0, 0.0, 0.0, 0.0, 0.0, 0.0, 0.0, 99999.0, 0.0, 0.0, 0.0, 0.0, 0.0, 0.0, 99999.0)",0.26,2.27,0.05,0.0,0.0,0.0,"(-1.0, 0.0, 0.0, 0.0, 0.0, 0.0, 0.0, 0.0, 0.0, 0.0, 0.0, 0.0, 0.0, 0.0, 0.0, 0.0, 0.0, 0.0, 0.0, 0.0, 0.0, 0.0, 0.0, 0.0, 0.0, 0.0, 0.0, 0.0, 0.0, 0.0, 0.0, 0.0, 0.0, 0.0, 0.0, 0.0)"
1729690891.1217916,1609,1729690890,353123008,map,base_link,2.4865826278922842,3.9489087669423033,1.248,0.028866310481304242,0.08299161341106533,-0.2883411795775387,-0.9534875418076834,"(1.8117160000000003, 0.0, 0.0, 0.0, 0.0, 0.0, 0.0, 1.8117160000000003, 0.0, 0.0, 0.0, 0.0, 0.0, 0.0, 2.937796, 0.0, 0.0, 0.0, 0.0, 0.0, 0.0, 99999.0, 0.0, 0.0, 0.0, 0.0, 0.0, 0.0, 99999.0, 0.0, 0.0, 0.0, 0.0, 0.0, 0.0, 99999.0)",0.23,2.24,-0.02,0.0,0.0,0.0,"(-1.0, 0.0, 0.0, 0.0, 0.0, 0.0, 0.0, 0.0, 0.0, 0.0, 0.0, 0.0, 0.0, 0.0, 0.0, 0.0, 0.0, 0.0, 0.0, 0.0, 0.0, 0.0, 0.0, 0.0, 0.0, 0.0, 0.0, 0.0, 0.0, 0.0, 0.0, 0.0, 0.0, 0.0, 0.0, 0.0)"
1729690891.1224282,1610,1729690890,454123008,map,base_link,2.560808923564638,4.15966514283148,1.258,0.01715233998180796,0.09077966221331014,-0.29902101503188194,-0.9497638036537761,"(1.8117160000000003, 0.0, 0.0, 0.0, 0.0, 0.0, 0.0, 1.8117160000000003, 0.0, 0.0, 0.0, 0.0, 0.0, 0.0, 2.937796, 0.0, 0.0, 0.0, 0.0, 0.0, 0.0, 99999.0, 0.0, 0.0, 0.0, 0.0, 0.0, 0.0, 99999.0, 0.0, 0.0, 0.0, 0.0, 0.0, 0.0, 99999.0)",0.18,2.22,-0.02,0.0,0.0,0.0,"(-1.0, 0.0, 0.0, 0.0, 0.0, 0.0, 0.0, 0.0, 0.0, 0.0, 0.0, 0.0, 0.0, 0.0, 0.0, 0.0, 0.0, 0.0, 0.0, 0.0, 0.0, 0.0, 0.0, 0.0, 0.0, 0.0, 0.0, 0.0, 0.0, 0.0, 0.0, 0.0, 0.0, 0.0, 0.0, 0.0)"
1729690891.1260588,1611,1729690890,556123008,map,base_link,2.625756926505409,4.3704215246447,1.27,0.005919395208326868,0.09279875615327797,-0.31418444519880995,-0.944797060755318,"(1.8090249999999999, 0.0, 0.0, 0.0, 0.0, 0.0, 0.0, 1.8090249999999999, 0.0, 0.0, 0.0, 0.0, 0.0, 0.0, 2.9446559999999997, 0.0, 0.0, 0.0, 0.0, 0.0, 0.0, 99999.0, 0.0, 0.0, 0.0, 0.0, 0.0, 0.0, 99999.0, 0.0, 0.0, 0.0, 0.0, 0.0, 0.0, 99999.0)",0.1,2.16,0.0,0.0,0.0,0.0,"(-1.0, 0.0, 0.0, 0.0, 0.0, 0.0, 0.0, 0.0, 0.0, 0.0, 0.0, 0.0, 0.0, 0.0, 0.0, 0.0, 0.0, 0.0, 0.0, 0.0, 0.0, 0.0, 0.0, 0.0, 0.0, 0.0, 0.0, 0.0, 0.0, 0.0, 0.0, 0.0, 0.0, 0.0, 0.0, 0.0)"
1729690891.1273205,1612,1729690890,656123008,map,base_link,2.6999832155426713,4.581177903540822,1.283,0.0015568040688115597,0.10035267438633313,-0.33076260617095204,-0.9383618787352787,"(1.8090249999999999, 0.0, 0.0, 0.0, 0.0, 0.0, 0.0, 1.8090249999999999, 0.0, 0.0, 0.0, 0.0, 0.0, 0.0, 2.9446559999999997, 0.0, 0.0, 0.0, 0.0, 0.0, 0.0, 99999.0, 0.0, 0.0, 0.0, 0.0, 0.0, 0.0, 99999.0, 0.0, 0.0, 0.0, 0.0, 0.0, 0.0, 99999.0)",0.07,2.06,0.01,0.0,0.0,0.0,"(-1.0, 0.0, 0.0, 0.0, 0.0, 0.0, 0.0, 0.0, 0.0, 0.0, 0.0, 0.0, 0.0, 0.0, 0.0, 0.0, 0.0, 0.0, 0.0, 0.0, 0.0, 0.0, 0.0, 0.0, 0.0, 0.0, 0.0, 0.0, 0.0, 0.0, 0.0, 0.0, 0.0, 0.0, 0.0, 0.0)"
1729690891.1273932,1613,1729690890,753123008,map,base_link,2.7556529216223176,4.769749399983919,1.293,-0.004062901641041646,0.10453641272954381,-0.3507628086786405,-0.9306025377634455,"(1.8063360000000002, 0.0, 0.0, 0.0, 0.0, 0.0, 0.0, 1.8063360000000002, 0.0, 0.0, 0.0, 0.0, 0.0, 0.0, 2.951524, 0.0, 0.0, 0.0, 0.0, 0.0, 0.0, 99999.0, 0.0, 0.0, 0.0, 0.0, 0.0, 0.0, 99999.0, 0.0, 0.0, 0.0, 0.0, 0.0, 0.0, 99999.0)",0.0,1.98,0.0,0.0,0.0,0.0,"(-1.0, 0.0, 0.0, 0.0, 0.0, 0.0, 0.0, 0.0, 0.0, 0.0, 0.0, 0.0, 0.0, 0.0, 0.0, 0.0, 0.0, 0.0, 0.0, 0.0, 0.0, 0.0, 0.0, 0.0, 0.0, 0.0, 0.0, 0.0, 0.0, 0.0, 0.0, 0.0, 0.0, 0.0, 0.0, 0.0)"
1729690891.127569,1614,1729690890,857123008,map,base_link,2.8020443310221683,4.969413334128038,1.303,-0.006919675582052866,0.10945643348305426,-0.3720841009909098,-0.9216967120744195,"(1.8063360000000002, 0.0, 0.0, 0.0, 0.0, 0.0, 0.0, 1.8063360000000002, 0.0, 0.0, 0.0, 0.0, 0.0, 0.0, 2.951524, 0.0, 0.0, 0.0, 0.0, 0.0, 0.0, 99999.0, 0.0, 0.0, 0.0, 0.0, 0.0, 0.0, 99999.0, 0.0, 0.0, 0.0, 0.0, 0.0, 0.0, 99999.0)",-0.06,1.86,0.0,0.0,0.0,0.0,"(-1.0, 0.0, 0.0, 0.0, 0.0, 0.0, 0.0, 0.0, 0.0, 0.0, 0.0, 0.0, 0.0, 0.0, 0.0, 0.0, 0.0, 0.0, 0.0, 0.0, 0.0, 0.0, 0.0, 0.0, 0.0, 0.0, 0.0, 0.0, 0.0, 0.0, 0.0, 0.0, 0.0, 0.0, 0.0, 0.0)"
1729690891.1278427,1615,1729690890,960123008,map,base_link,2.839157447122665,5.1690772658154245,1.314,-0.01458278252981489,0.10916592545109485,-0.3924858318001268,-0.9131401946088327,"(1.8036489999999998, 0.0, 0.0, 0.0, 0.0, 0.0, 0.0, 1.8036489999999998, 0.0, 0.0, 0.0, 0.0, 0.0, 0.0, 2.9583999999999997, 0.0, 0.0, 0.0, 0.0, 0.0, 0.0, 99999.0, 0.0, 0.0, 0.0, 0.0, 0.0, 0.0, 99999.0, 0.0, 0.0, 0.0, 0.0, 0.0, 0.0, 99999.0)",-0.12,1.74,0.03,0.0,0.0,0.0,"(-1.0, 0.0, 0.0, 0.0, 0.0, 0.0, 0.0, 0.0, 0.0, 0.0, 0.0, 0.0, 0.0, 0.0, 0.0, 0.0, 0.0, 0.0, 0.0, 0.0, 0.0, 0.0, 0.0, 0.0, 0.0, 0.0, 0.0, 0.0, 0.0, 0.0, 0.0, 0.0, 0.0, 0.0, 0.0, 0.0)"
1729690891.1280391,1616,1729690891,58123008,map,base_link,2.8669922785273902,5.3354638766732325,1.328,-0.020474514798582304,0.11047796540730655,-0.4085655872147913,-0.9057867157046725,"(1.8036489999999998, 0.0, 0.0, 0.0, 0.0, 0.0, 0.0, 1.8036489999999998, 0.0, 0.0, 0.0, 0.0, 0.0, 0.0, 2.9583999999999997, 0.0, 0.0, 0.0, 0.0, 0.0, 0.0, 99999.0, 0.0, 0.0, 0.0, 0.0, 0.0, 0.0, 99999.0, 0.0, 0.0, 0.0, 0.0, 0.0, 0.0, 99999.0)",-0.21,1.63,0.04,0.0,0.0,0.0,"(-1.0, 0.0, 0.0, 0.0, 0.0, 0.0, 0.0, 0.0, 0.0, 0.0, 0.0, 0.0, 0.0, 0.0, 0.0, 0.0, 0.0, 0.0, 0.0, 0.0, 0.0, 0.0, 0.0, 0.0, 0.0, 0.0, 0.0, 0.0, 0.0, 0.0, 0.0, 0.0, 0.0, 0.0, 0.0, 0.0)"
1729690891.1587493,1617,1729690891,155123008,map,base_link,2.8762705303606695,5.501850491502139,1.347,-0.025085048663812178,0.10949531392431644,-0.4208807568884264,-0.9001338261854039,"(1.7956000000000003, 0.0, 0.0, 0.0, 0.0, 0.0, 0.0, 1.7956000000000003, 0.0, 0.0, 0.0, 0.0, 0.0, 0.0, 2.961841, 0.0, 0.0, 0.0, 0.0, 0.0, 0.0, 99999.0, 0.0, 0.0, 0.0, 0.0, 0.0, 0.0, 99999.0, 0.0, 0.0, 0.0, 0.0, 0.0, 0.0, 99999.0)",-0.28,1.49,0.04,0.0,0.0,0.0,"(-1.0, 0.0, 0.0, 0.0, 0.0, 0.0, 0.0, 0.0, 0.0, 0.0, 0.0, 0.0, 0.0, 0.0, 0.0, 0.0, 0.0, 0.0, 0.0, 0.0, 0.0, 0.0, 0.0, 0.0, 0.0, 0.0, 0.0, 0.0, 0.0, 0.0, 0.0, 0.0, 0.0, 0.0, 0.0, 0.0)"
1729690891.2551181,1618,1729690891,253123008,map,base_link,2.8948270769404907,5.657144670123944,1.366,-0.02877012229232108,0.1069007349796122,-0.4315080155990523,-0.8952906485593779,"(1.7956000000000003, 0.0, 0.0, 0.0, 0.0, 0.0, 0.0, 1.7956000000000003, 0.0, 0.0, 0.0, 0.0, 0.0, 0.0, 2.961841, 0.0, 0.0, 0.0, 0.0, 0.0, 0.0, 99999.0, 0.0, 0.0, 0.0, 0.0, 0.0, 0.0, 99999.0, 0.0, 0.0, 0.0, 0.0, 0.0, 0.0, 99999.0)",-0.32,1.38,0.1,0.0,0.0,0.0,"(-1.0, 0.0, 0.0, 0.0, 0.0, 0.0, 0.0, 0.0, 0.0, 0.0, 0.0, 0.0, 0.0, 0.0, 0.0, 0.0, 0.0, 0.0, 0.0, 0.0, 0.0, 0.0, 0.0, 0.0, 0.0, 0.0, 0.0, 0.0, 0.0, 0.0, 0.0, 0.0, 0.0, 0.0, 0.0, 0.0)"
1729690891.3605814,1619,1729690891,358123008,map,base_link,2.8855487464696115,5.812438842194457,1.381,-0.03226065367918189,0.09990064261002979,-0.4404063083607234,-0.8916397228625329,"(1.7848960000000003, 0.0, 0.0, 0.0, 0.0, 0.0, 0.0, 1.7848960000000003, 0.0, 0.0, 0.0, 0.0, 0.0, 0.0, 2.965284, 0.0, 0.0, 0.0, 0.0, 0.0, 0.0, 99999.0, 0.0, 0.0, 0.0, 0.0, 0.0, 0.0, 99999.0, 0.0, 0.0, 0.0, 0.0, 0.0, 0.0, 99999.0)",-0.36,1.25,0.11,0.0,0.0,0.0,"(-1.0, 0.0, 0.0, 0.0, 0.0, 0.0, 0.0, 0.0, 0.0, 0.0, 0.0, 0.0, 0.0, 0.0, 0.0, 0.0, 0.0, 0.0, 0.0, 0.0, 0.0, 0.0, 0.0, 0.0, 0.0, 0.0, 0.0, 0.0, 0.0, 0.0, 0.0, 0.0, 0.0, 0.0, 0.0, 0.0)"
1729690891.4611318,1620,1729690891,453123008,map,base_link,2.8669921241499097,5.956640563797854,1.396,-0.03536340906551312,0.0982751394137164,-0.44997598751231854,-0.8869120795968412,"(1.7848960000000003, 0.0, 0.0, 0.0, 0.0, 0.0, 0.0, 1.7848960000000003, 0.0, 0.0, 0.0, 0.0, 0.0, 0.0, 2.965284, 0.0, 0.0, 0.0, 0.0, 0.0, 0.0, 99999.0, 0.0, 0.0, 0.0, 0.0, 0.0, 0.0, 99999.0, 0.0, 0.0, 0.0, 0.0, 0.0, 0.0, 99999.0)",-0.43,1.11,0.08,0.0,0.0,0.0,"(-1.0, 0.0, 0.0, 0.0, 0.0, 0.0, 0.0, 0.0, 0.0, 0.0, 0.0, 0.0, 0.0, 0.0, 0.0, 0.0, 0.0, 0.0, 0.0, 0.0, 0.0, 0.0, 0.0, 0.0, 0.0, 0.0, 0.0, 0.0, 0.0, 0.0, 0.0, 0.0, 0.0, 0.0, 0.0, 0.0)"
1729690891.556612,1621,1729690891,554123008,map,base_link,2.839157214632836,6.089749841545353,1.4,-0.039914597531617566,0.09211717839397138,-0.4582526934818075,-0.8831340324465424,"(1.776889, 0.0, 0.0, 0.0, 0.0, 0.0, 0.0, 1.776889, 0.0, 0.0, 0.0, 0.0, 0.0, 0.0, 2.9756250000000004, 0.0, 0.0, 0.0, 0.0, 0.0, 0.0, 99999.0, 0.0, 0.0, 0.0, 0.0, 0.0, 0.0, 99999.0, 0.0, 0.0, 0.0, 0.0, 0.0, 0.0, 99999.0)",-0.45,0.99,0.1,0.0,0.0,0.0,"(-1.0, 0.0, 0.0, 0.0, 0.0, 0.0, 0.0, 0.0, 0.0, 0.0, 0.0, 0.0, 0.0, 0.0, 0.0, 0.0, 0.0, 0.0, 0.0, 0.0, 0.0, 0.0, 0.0, 0.0, 0.0, 0.0, 0.0, 0.0, 0.0, 0.0, 0.0, 0.0, 0.0, 0.0, 0.0, 0.0)"
1729690891.6572757,1622,1729690891,655121216,map,base_link,2.8020440124261334,6.21176666814378,1.401,-0.035710148441534986,0.0819751914751563,-0.4669666272367693,-0.879742588674671,"(1.776889, 0.0, 0.0, 0.0, 0.0, 0.0, 0.0, 1.776889, 0.0, 0.0, 0.0, 0.0, 0.0, 0.0, 2.9756250000000004, 0.0, 0.0, 0.0, 0.0, 0.0, 0.0, 99999.0, 0.0, 0.0, 0.0, 0.0, 0.0, 0.0, 99999.0, 0.0, 0.0, 0.0, 0.0, 0.0, 0.0, 99999.0)",-0.45,0.89,0.11,0.0,0.0,0.0,"(-1.0, 0.0, 0.0, 0.0, 0.0, 0.0, 0.0, 0.0, 0.0, 0.0, 0.0, 0.0, 0.0, 0.0, 0.0, 0.0, 0.0, 0.0, 0.0, 0.0, 0.0, 0.0, 0.0, 0.0, 0.0, 0.0, 0.0, 0.0, 0.0, 0.0, 0.0, 0.0, 0.0, 0.0, 0.0, 0.0)"
1729690891.7581656,1623,1729690891,755119424,map,base_link,2.764930804686433,6.34487592507115,1.397,-0.017293726701751163,0.07601610131519325,-0.47579906578504105,-0.8760923058420761,"(1.771561, 0.0, 0.0, 0.0, 0.0, 0.0, 0.0, 1.771561, 0.0, 0.0, 0.0, 0.0, 0.0, 0.0, 2.9859839999999997, 0.0, 0.0, 0.0, 0.0, 0.0, 0.0, 99999.0, 0.0, 0.0, 0.0, 0.0, 0.0, 0.0, 99999.0, 0.0, 0.0, 0.0, 0.0, 0.0, 0.0, 99999.0)",-0.51,0.84,0.1,0.0,0.0,0.0,"(-1.0, 0.0, 0.0, 0.0, 0.0, 0.0, 0.0, 0.0, 0.0, 0.0, 0.0, 0.0, 0.0, 0.0, 0.0, 0.0, 0.0, 0.0, 0.0, 0.0, 0.0, 0.0, 0.0, 0.0, 0.0, 0.0, 0.0, 0.0, 0.0, 0.0, 0.0, 0.0, 0.0, 0.0, 0.0, 0.0)"
1729690891.8574262,1624,1729690891,855119424,map,base_link,2.718539316741324,6.455800309527556,1.393,-0.0010915443835232757,0.08016948178276162,-0.4878402865590792,-0.869243071603966,"(1.771561, 0.0, 0.0, 0.0, 0.0, 0.0, 0.0, 1.771561, 0.0, 0.0, 0.0, 0.0, 0.0, 0.0, 2.9859839999999997, 0.0, 0.0, 0.0, 0.0, 0.0, 0.0, 99999.0, 0.0, 0.0, 0.0, 0.0, 0.0, 0.0, 99999.0, 0.0, 0.0, 0.0, 0.0, 0.0, 0.0, 99999.0)",-0.51,0.77,0.15,0.0,0.0,0.0,"(-1.0, 0.0, 0.0, 0.0, 0.0, 0.0, 0.0, 0.0, 0.0, 0.0, 0.0, 0.0, 0.0, 0.0, 0.0, 0.0, 0.0, 0.0, 0.0, 0.0, 0.0, 0.0, 0.0, 0.0, 0.0, 0.0, 0.0, 0.0, 0.0, 0.0, 0.0, 0.0, 0.0, 0.0, 0.0, 0.0)"
1729690891.9554636,1625,1729690891,953115584,map,base_link,2.6535912437331177,6.566724679191773,1.381,-0.0015416635080250857,0.09007267746119191,-0.5036142612052297,-0.8592189546089579,"(1.7635840000000003, 0.0, 0.0, 0.0, 0.0, 0.0, 0.0, 1.7635840000000003, 0.0, 0.0, 0.0, 0.0, 0.0, 0.0, 2.999824, 0.0, 0.0, 0.0, 0.0, 0.0, 0.0, 99999.0, 0.0, 0.0, 0.0, 0.0, 0.0, 0.0, 99999.0, 0.0, 0.0, 0.0, 0.0, 0.0, 0.0, 99999.0)",-0.57,0.73,0.09,0.0,0.0,0.0,"(-1.0, 0.0, 0.0, 0.0, 0.0, 0.0, 0.0, 0.0, 0.0, 0.0, 0.0, 0.0, 0.0, 0.0, 0.0, 0.0, 0.0, 0.0, 0.0, 0.0, 0.0, 0.0, 0.0, 0.0, 0.0, 0.0, 0.0, 0.0, 0.0, 0.0, 0.0, 0.0, 0.0, 0.0, 0.0, 0.0)"
1729690892.0554132,1626,1729690892,53113536,map,base_link,2.588643175341671,6.666556608823613,1.378,-0.012492602138110563,0.09315596457096363,-0.5240981192801917,-0.8464555880397023,"(1.7635840000000003, 0.0, 0.0, 0.0, 0.0, 0.0, 0.0, 1.7635840000000003, 0.0, 0.0, 0.0, 0.0, 0.0, 0.0, 2.999824, 0.0, 0.0, 0.0, 0.0, 0.0, 0.0, 99999.0, 0.0, 0.0, 0.0, 0.0, 0.0, 0.0, 99999.0, 0.0, 0.0, 0.0, 0.0, 0.0, 0.0, 99999.0)",-0.63,0.67,0.11,0.0,0.0,0.0,"(-1.0, 0.0, 0.0, 0.0, 0.0, 0.0, 0.0, 0.0, 0.0, 0.0, 0.0, 0.0, 0.0, 0.0, 0.0, 0.0, 0.0, 0.0, 0.0, 0.0, 0.0, 0.0, 0.0, 0.0, 0.0, 0.0, 0.0, 0.0, 0.0, 0.0, 0.0, 0.0, 0.0, 0.0, 0.0, 0.0)"
1729690892.1554155,1627,1729690892,153113280,map,base_link,2.5051385373882313,6.75529611617714,1.382,-0.023964606524397362,0.09441570090551696,-0.5493495581199539,-0.8298954368172305,"(1.755625, 0.0, 0.0, 0.0, 0.0, 0.0, 0.0, 1.755625, 0.0, 0.0, 0.0, 0.0, 0.0, 0.0, 3.0032890000000005, 0.0, 0.0, 0.0, 0.0, 0.0, 0.0, 99999.0, 0.0, 0.0, 0.0, 0.0, 0.0, 0.0, 99999.0, 0.0, 0.0, 0.0, 0.0, 0.0, 0.0, 99999.0)",-0.71,0.56,0.03,0.0,0.0,0.0,"(-1.0, 0.0, 0.0, 0.0, 0.0, 0.0, 0.0, 0.0, 0.0, 0.0, 0.0, 0.0, 0.0, 0.0, 0.0, 0.0, 0.0, 0.0, 0.0, 0.0, 0.0, 0.0, 0.0, 0.0, 0.0, 0.0, 0.0, 0.0, 0.0, 0.0, 0.0, 0.0, 0.0, 0.0, 0.0, 0.0)"
1729690892.2547147,1628,1729690892,253113024,map,base_link,2.421633896391648,6.844035612775563,1.386,-0.03518102742043509,0.09052811638447712,-0.5764694421937551,-0.8113260366032525,"(1.755625, 0.0, 0.0, 0.0, 0.0, 0.0, 0.0, 1.755625, 0.0, 0.0, 0.0, 0.0, 0.0, 0.0, 3.0032890000000005, 0.0, 0.0, 0.0, 0.0, 0.0, 0.0, 99999.0, 0.0, 0.0, 0.0, 0.0, 0.0, 0.0, 99999.0, 0.0, 0.0, 0.0, 0.0, 0.0, 0.0, 99999.0)",-0.75,0.5,0.11,0.0,0.0,0.0,"(-1.0, 0.0, 0.0, 0.0, 0.0, 0.0, 0.0, 0.0, 0.0, 0.0, 0.0, 0.0, 0.0, 0.0, 0.0, 0.0, 0.0, 0.0, 0.0, 0.0, 0.0, 0.0, 0.0, 0.0, 0.0, 0.0, 0.0, 0.0, 0.0, 0.0, 0.0, 0.0, 0.0, 0.0, 0.0, 0.0)"
1729690892.3548636,1629,1729690892,353112768,map,base_link,2.3288509699788675,6.921682668146054,1.38,-0.04382884790044006,0.08184952784548331,-0.6042078977189238,-0.7913990796161376,"(1.7503289999999998, 0.0, 0.0, 0.0, 0.0, 0.0, 0.0, 1.7503289999999998, 0.0, 0.0, 0.0, 0.0, 0.0, 0.0, 3.010225, 0.0, 0.0, 0.0, 0.0, 0.0, 0.0, 99999.0, 0.0, 0.0, 0.0, 0.0, 0.0, 0.0, 99999.0, 0.0, 0.0, 0.0, 0.0, 0.0, 0.0, 99999.0)",-0.78,0.39,0.12,0.0,0.0,0.0,"(-1.0, 0.0, 0.0, 0.0, 0.0, 0.0, 0.0, 0.0, 0.0, 0.0, 0.0, 0.0, 0.0, 0.0, 0.0, 0.0, 0.0, 0.0, 0.0, 0.0, 0.0, 0.0, 0.0, 0.0, 0.0, 0.0, 0.0, 0.0, 0.0, 0.0, 0.0, 0.0, 0.0, 0.0, 0.0, 0.0)"
1729690892.4562721,1630,1729690892,453112768,map,base_link,2.2267897532936156,6.977144820508592,1.363,-0.045478946675613,0.07045656970317207,-0.6350902270069534,-0.7678723466535274,"(1.7503289999999998, 0.0, 0.0, 0.0, 0.0, 0.0, 0.0, 1.7503289999999998, 0.0, 0.0, 0.0, 0.0, 0.0, 0.0, 3.010225, 0.0, 0.0, 0.0, 0.0, 0.0, 0.0, 99999.0, 0.0, 0.0, 0.0, 0.0, 0.0, 0.0, 99999.0, 0.0, 0.0, 0.0, 0.0, 0.0, 0.0, 99999.0)",-0.78,0.24,0.02,0.0,0.0,0.0,"(-1.0, 0.0, 0.0, 0.0, 0.0, 0.0, 0.0, 0.0, 0.0, 0.0, 0.0, 0.0, 0.0, 0.0, 0.0, 0.0, 0.0, 0.0, 0.0, 0.0, 0.0, 0.0, 0.0, 0.0, 0.0, 0.0, 0.0, 0.0, 0.0, 0.0, 0.0, 0.0, 0.0, 0.0, 0.0, 0.0)"
1729690892.5558527,1631,1729690892,553113024,map,base_link,2.124728539022178,7.021514535398796,1.348,-0.05225675044440812,0.06330357026834588,-0.6628193339395102,-0.7442663639989755,"(1.7450409999999998, 0.0, 0.0, 0.0, 0.0, 0.0, 0.0, 1.7450409999999998, 0.0, 0.0, 0.0, 0.0, 0.0, 0.0, 3.0241210000000005, 0.0, 0.0, 0.0, 0.0, 0.0, 0.0, 99999.0, 0.0, 0.0, 0.0, 0.0, 0.0, 0.0, 99999.0, 0.0, 0.0, 0.0, 0.0, 0.0, 0.0, 99999.0)",-0.78,0.16,0.12,0.0,0.0,0.0,"(-1.0, 0.0, 0.0, 0.0, 0.0, 0.0, 0.0, 0.0, 0.0, 0.0, 0.0, 0.0, 0.0, 0.0, 0.0, 0.0, 0.0, 0.0, 0.0, 0.0, 0.0, 0.0, 0.0, 0.0, 0.0, 0.0, 0.0, 0.0, 0.0, 0.0, 0.0, 0.0, 0.0, 0.0, 0.0, 0.0)"
1729690892.659215,1632,1729690892,655113792,map,base_link,2.031945623779482,7.054791821270568,1.332,-0.0555278448095576,0.05566762391651593,-0.6906970220128289,-0.7188570079514456,"(1.7450409999999998, 0.0, 0.0, 0.0, 0.0, 0.0, 0.0, 1.7450409999999998, 0.0, 0.0, 0.0, 0.0, 0.0, 0.0, 3.0241210000000005, 0.0, 0.0, 0.0, 0.0, 0.0, 0.0, 99999.0, 0.0, 0.0, 0.0, 0.0, 0.0, 0.0, 99999.0, 0.0, 0.0, 0.0, 0.0, 0.0, 0.0, 99999.0)",-0.75,0.05,0.09,0.0,0.0,0.0,"(-1.0, 0.0, 0.0, 0.0, 0.0, 0.0, 0.0, 0.0, 0.0, 0.0, 0.0, 0.0, 0.0, 0.0, 0.0, 0.0, 0.0, 0.0, 0.0, 0.0, 0.0, 0.0, 0.0, 0.0, 0.0, 0.0, 0.0, 0.0, 0.0, 0.0, 0.0, 0.0, 0.0, 0.0, 0.0, 0.0)"
1729690892.7565708,1633,1729690892,753114560,map,base_link,1.9298844140665898,7.076976646159803,1.309,-0.05540787462585412,0.048733137226521735,-0.7186516407049068,-0.6914440455146401,"(1.7424000000000002, 0.0, 0.0, 0.0, 0.0, 0.0, 0.0, 1.7424000000000002, 0.0, 0.0, 0.0, 0.0, 0.0, 0.0, 3.0380490000000004, 0.0, 0.0, 0.0, 0.0, 0.0, 0.0, 99999.0, 0.0, 0.0, 0.0, 0.0, 0.0, 0.0, 99999.0, 0.0, 0.0, 0.0, 0.0, 0.0, 0.0, 99999.0)",-0.72,-0.04,0.0,0.0,0.0,0.0,"(-1.0, 0.0, 0.0, 0.0, 0.0, 0.0, 0.0, 0.0, 0.0, 0.0, 0.0, 0.0, 0.0, 0.0, 0.0, 0.0, 0.0, 0.0, 0.0, 0.0, 0.0, 0.0, 0.0, 0.0, 0.0, 0.0, 0.0, 0.0, 0.0, 0.0, 0.0, 0.0, 0.0, 0.0, 0.0, 0.0)"
1729690892.8564324,1634,1729690892,854113792,map,base_link,1.8371015015750054,7.088069046747919,1.285,-0.06016149354146045,0.04402187953854036,-0.7448509833535432,-0.6630533020911777,"(1.7424000000000002, 0.0, 0.0, 0.0, 0.0, 0.0, 0.0, 1.7424000000000002, 0.0, 0.0, 0.0, 0.0, 0.0, 0.0, 3.0380490000000004, 0.0, 0.0, 0.0, 0.0, 0.0, 0.0, 99999.0, 0.0, 0.0, 0.0, 0.0, 0.0, 0.0, 99999.0, 0.0, 0.0, 0.0, 0.0, 0.0, 0.0, 99999.0)",-0.69,-0.13,0.06,0.0,0.0,0.0,"(-1.0, 0.0, 0.0, 0.0, 0.0, 0.0, 0.0, 0.0, 0.0, 0.0, 0.0, 0.0, 0.0, 0.0, 0.0, 0.0, 0.0, 0.0, 0.0, 0.0, 0.0, 0.0, 0.0, 0.0, 0.0, 0.0, 0.0, 0.0, 0.0, 0.0, 0.0, 0.0, 0.0, 0.0, 0.0, 0.0)"
1729690892.956779,1635,1729690892,954113280,map,base_link,1.7535968828274624,7.099161458624491,1.271,-0.06109389241489711,0.0388451509769108,-0.7717953248942602,-0.6317361530152771,"(1.7424000000000002, 0.0, 0.0, 0.0, 0.0, 0.0, 0.0, 1.7424000000000002, 0.0, 0.0, 0.0, 0.0, 0.0, 0.0, 3.0520090000000004, 0.0, 0.0, 0.0, 0.0, 0.0, 0.0, 99999.0, 0.0, 0.0, 0.0, 0.0, 0.0, 0.0, 99999.0, 0.0, 0.0, 0.0, 0.0, 0.0, 0.0, 99999.0)",-0.62,-0.21,0.07,0.0,0.0,0.0,"(-1.0, 0.0, 0.0, 0.0, 0.0, 0.0, 0.0, 0.0, 0.0, 0.0, 0.0, 0.0, 0.0, 0.0, 0.0, 0.0, 0.0, 0.0, 0.0, 0.0, 0.0, 0.0, 0.0, 0.0, 0.0, 0.0, 0.0, 0.0, 0.0, 0.0, 0.0, 0.0, 0.0, 0.0, 0.0, 0.0)"
1729690893.0625918,1636,1729690893,55113280,map,base_link,1.6700922696017477,7.0880689941396815,1.268,-0.06194334407738001,0.01936608139903125,-0.7977619125968523,-0.5994696888296934,"(1.7424000000000002, 0.0, 0.0, 0.0, 0.0, 0.0, 0.0, 1.7424000000000002, 0.0, 0.0, 0.0, 0.0, 0.0, 0.0, 3.0520090000000004, 0.0, 0.0, 0.0, 0.0, 0.0, 0.0, 99999.0, 0.0, 0.0, 0.0, 0.0, 0.0, 0.0, 99999.0, 0.0, 0.0, 0.0, 0.0, 0.0, 0.0, 99999.0)",-0.55,-0.28,0.08,0.0,0.0,0.0,"(-1.0, 0.0, 0.0, 0.0, 0.0, 0.0, 0.0, 0.0, 0.0, 0.0, 0.0, 0.0, 0.0, 0.0, 0.0, 0.0, 0.0, 0.0, 0.0, 0.0, 0.0, 0.0, 0.0, 0.0, 0.0, 0.0, 0.0, 0.0, 0.0, 0.0, 0.0, 0.0, 0.0, 0.0, 0.0, 0.0)"
1729690893.1586332,1637,1729690893,153113280,map,base_link,1.5958659478936068,7.076976540953757,1.262,-0.06456892841176604,0.023070798984499253,-0.8159181140349279,-0.5740872955462951,"(1.7476840000000002, 0.0, 0.0, 0.0, 0.0, 0.0, 0.0, 1.7476840000000002, 0.0, 0.0, 0.0, 0.0, 0.0, 0.0, 3.0660009999999995, 0.0, 0.0, 0.0, 0.0, 0.0, 0.0, 99999.0, 0.0, 0.0, 0.0, 0.0, 0.0, 0.0, 99999.0, 0.0, 0.0, 0.0, 0.0, 0.0, 0.0, 99999.0)",-0.46,-0.33,0.03,0.0,0.0,0.0,"(-1.0, 0.0, 0.0, 0.0, 0.0, 0.0, 0.0, 0.0, 0.0, 0.0, 0.0, 0.0, 0.0, 0.0, 0.0, 0.0, 0.0, 0.0, 0.0, 0.0, 0.0, 0.0, 0.0, 0.0, 0.0, 0.0, 0.0, 0.0, 0.0, 0.0, 0.0, 0.0, 0.0, 0.0, 0.0, 0.0)"
1729690893.2566638,1638,1729690893,253113280,map,base_link,1.5216396262005545,7.054791638654725,1.253,-0.06253178263070852,0.0354098087708313,-0.8330643054100371,-0.5484886367606271,"(1.7476840000000002, 0.0, 0.0, 0.0, 0.0, 0.0, 0.0, 1.7476840000000002, 0.0, 0.0, 0.0, 0.0, 0.0, 0.0, 3.0660009999999995, 0.0, 0.0, 0.0, 0.0, 0.0, 0.0, 99999.0, 0.0, 0.0, 0.0, 0.0, 0.0, 0.0, 99999.0, 0.0, 0.0, 0.0, 0.0, 0.0, 0.0, 99999.0)",-0.39,-0.42,0.02,0.0,0.0,0.0,"(-1.0, 0.0, 0.0, 0.0, 0.0, 0.0, 0.0, 0.0, 0.0, 0.0, 0.0, 0.0, 0.0, 0.0, 0.0, 0.0, 0.0, 0.0, 0.0, 0.0, 0.0, 0.0, 0.0, 0.0, 0.0, 0.0, 0.0, 0.0, 0.0, 0.0, 0.0, 0.0, 0.0, 0.0, 0.0, 0.0)"
1729690893.3558097,1639,1729690893,353113536,map,base_link,1.4566915958672997,7.021514299523468,1.248,-0.053455447193108706,0.04799108071778692,-0.8482737485858305,-0.5246627667340871,"(1.752976, 0.0, 0.0, 0.0, 0.0, 0.0, 0.0, 1.752976, 0.0, 0.0, 0.0, 0.0, 0.0, 0.0, 3.0870489999999995, 0.0, 0.0, 0.0, 0.0, 0.0, 0.0, 99999.0, 0.0, 0.0, 0.0, 0.0, 0.0, 0.0, 99999.0, 0.0, 0.0, 0.0, 0.0, 0.0, 0.0, 99999.0)",-0.37,-0.5,0.0,0.0,0.0,0.0,"(-1.0, 0.0, 0.0, 0.0, 0.0, 0.0, 0.0, 0.0, 0.0, 0.0, 0.0, 0.0, 0.0, 0.0, 0.0, 0.0, 0.0, 0.0, 0.0, 0.0, 0.0, 0.0, 0.0, 0.0, 0.0, 0.0, 0.0, 0.0, 0.0, 0.0, 0.0, 0.0, 0.0, 0.0, 0.0, 0.0)"
1729690893.455794,1640,1729690893,453110720,map,base_link,1.4010218593423491,6.977144532731243,1.247,-0.04119447031181557,0.0741135404207787,-0.8599953380983848,-0.5032079263992879,"(1.752976, 0.0, 0.0, 0.0, 0.0, 0.0, 0.0, 1.752976, 0.0, 0.0, 0.0, 0.0, 0.0, 0.0, 3.0870489999999995, 0.0, 0.0, 0.0, 0.0, 0.0, 0.0, 99999.0, 0.0, 0.0, 0.0, 0.0, 0.0, 0.0, 99999.0, 0.0, 0.0, 0.0, 0.0, 0.0, 0.0, 99999.0)",-0.35,-0.6,0.0,0.0,0.0,0.0,"(-1.0, 0.0, 0.0, 0.0, 0.0, 0.0, 0.0, 0.0, 0.0, 0.0, 0.0, 0.0, 0.0, 0.0, 0.0, 0.0, 0.0, 0.0, 0.0, 0.0, 0.0, 0.0, 0.0, 0.0, 0.0, 0.0, 0.0, 0.0, 0.0, 0.0, 0.0, 0.0, 0.0, 0.0, 0.0, 0.0)"
1729690893.5552957,1641,1729690893,553110464,map,base_link,1.3267955436565528,6.921682324117362,1.245,-0.033251632197873554,0.08526039929462231,-0.8742600032183151,-0.47675406662241576,"(1.760929, 0.0, 0.0, 0.0, 0.0, 0.0, 0.0, 1.760929, 0.0, 0.0, 0.0, 0.0, 0.0, 0.0, 3.1081689999999997, 0.0, 0.0, 0.0, 0.0, 0.0, 0.0, 99999.0, 0.0, 0.0, 0.0, 0.0, 0.0, 0.0, 99999.0, 0.0, 0.0, 0.0, 0.0, 0.0, 0.0, 99999.0)",-0.36,-0.71,0.02,0.0,0.0,0.0,"(-1.0, 0.0, 0.0, 0.0, 0.0, 0.0, 0.0, 0.0, 0.0, 0.0, 0.0, 0.0, 0.0, 0.0, 0.0, 0.0, 0.0, 0.0, 0.0, 0.0, 0.0, 0.0, 0.0, 0.0, 0.0, 0.0, 0.0, 0.0, 0.0, 0.0, 0.0, 0.0, 0.0, 0.0, 0.0, 0.0)"
1729690893.6558583,1642,1729690893,653110208,map,base_link,1.2618475183817526,6.844035228164063,1.238,-0.03145918015344725,0.06775707833309857,-0.888991977712953,-0.45178818253895003,"(1.760929, 0.0, 0.0, 0.0, 0.0, 0.0, 0.0, 1.760929, 0.0, 0.0, 0.0, 0.0, 0.0, 0.0, 3.1081689999999997, 0.0, 0.0, 0.0, 0.0, 0.0, 0.0, 99999.0, 0.0, 0.0, 0.0, 0.0, 0.0, 0.0, 99999.0, 0.0, 0.0, 0.0, 0.0, 0.0, 0.0, 99999.0)",-0.36,-0.83,-0.08,0.0,0.0,0.0,"(-1.0, 0.0, 0.0, 0.0, 0.0, 0.0, 0.0, 0.0, 0.0, 0.0, 0.0, 0.0, 0.0, 0.0, 0.0, 0.0, 0.0, 0.0, 0.0, 0.0, 0.0, 0.0, 0.0, 0.0, 0.0, 0.0, 0.0, 0.0, 0.0, 0.0, 0.0, 0.0, 0.0, 0.0, 0.0, 0.0)"
1729690893.756541,1643,1729690893,753110464,map,base_link,1.1876212053143371,6.755295702893445,1.236,-0.039972768849350755,0.03520373988176957,-0.9017760330263709,-0.428908918895463,"(1.7689000000000001, 0.0, 0.0, 0.0, 0.0, 0.0, 0.0, 1.7689000000000001, 0.0, 0.0, 0.0, 0.0, 0.0, 0.0, 3.122289, 0.0, 0.0, 0.0, 0.0, 0.0, 0.0, 99999.0, 0.0, 0.0, 0.0, 0.0, 0.0, 0.0, 99999.0, 0.0, 0.0, 0.0, 0.0, 0.0, 0.0, 99999.0)",-0.35,-0.9,-0.09,0.0,0.0,0.0,"(-1.0, 0.0, 0.0, 0.0, 0.0, 0.0, 0.0, 0.0, 0.0, 0.0, 0.0, 0.0, 0.0, 0.0, 0.0, 0.0, 0.0, 0.0, 0.0, 0.0, 0.0, 0.0, 0.0, 0.0, 0.0, 0.0, 0.0, 0.0, 0.0, 0.0, 0.0, 0.0, 0.0, 0.0, 0.0, 0.0)"
1729690893.855877,1644,1729690893,853109696,map,base_link,1.1226731810173023,6.666556179059821,1.232,-0.05422457160042761,-0.001884528325039672,-0.9117749149538816,-0.4070904676464239,"(1.7689000000000001, 0.0, 0.0, 0.0, 0.0, 0.0, 0.0, 1.7689000000000001, 0.0, 0.0, 0.0, 0.0, 0.0, 0.0, 3.122289, 0.0, 0.0, 0.0, 0.0, 0.0, 0.0, 99999.0, 0.0, 0.0, 0.0, 0.0, 0.0, 0.0, 99999.0, 0.0, 0.0, 0.0, 0.0, 0.0, 0.0, 99999.0)",-0.3,-0.91,-0.09,0.0,0.0,0.0,"(-1.0, 0.0, 0.0, 0.0, 0.0, 0.0, 0.0, 0.0, 0.0, 0.0, 0.0, 0.0, 0.0, 0.0, 0.0, 0.0, 0.0, 0.0, 0.0, 0.0, 0.0, 0.0, 0.0, 0.0, 0.0, 0.0, 0.0, 0.0, 0.0, 0.0, 0.0, 0.0, 0.0, 0.0, 0.0, 0.0)"
1729690893.9555938,1645,1729690893,953108672,map,base_link,1.0670034441816334,6.57781664498759,1.226,-0.06480183498461049,-0.03351732018267857,-0.9184565235148257,-0.38873503295105755,"(1.776889, 0.0, 0.0, 0.0, 0.0, 0.0, 0.0, 1.776889, 0.0, 0.0, 0.0, 0.0, 0.0, 0.0, 3.1364409999999996, 0.0, 0.0, 0.0, 0.0, 0.0, 0.0, 99999.0, 0.0, 0.0, 0.0, 0.0, 0.0, 0.0, 99999.0, 0.0, 0.0, 0.0, 0.0, 0.0, 0.0, 99999.0)",-0.21,-0.9,-0.04,0.0,0.0,0.0,"(-1.0, 0.0, 0.0, 0.0, 0.0, 0.0, 0.0, 0.0, 0.0, 0.0, 0.0, 0.0, 0.0, 0.0, 0.0, 0.0, 0.0, 0.0, 0.0, 0.0, 0.0, 0.0, 0.0, 0.0, 0.0, 0.0, 0.0, 0.0, 0.0, 0.0, 0.0, 0.0, 0.0, 0.0, 0.0, 0.0)"
1729690894.0559926,1646,1729690894,53108160,map,base_link,1.020611997847738,6.4890771147359825,1.219,-0.07216710820349155,-0.06161985591555871,-0.9249426311720602,-0.36807068735637893,"(1.776889, 0.0, 0.0, 0.0, 0.0, 0.0, 0.0, 1.776889, 0.0, 0.0, 0.0, 0.0, 0.0, 0.0, 3.1364409999999996, 0.0, 0.0, 0.0, 0.0, 0.0, 0.0, 99999.0, 0.0, 0.0, 0.0, 0.0, 0.0, 0.0, 99999.0, 0.0, 0.0, 0.0, 0.0, 0.0, 0.0, 99999.0)",-0.1,-0.83,0.04,0.0,0.0,0.0,"(-1.0, 0.0, 0.0, 0.0, 0.0, 0.0, 0.0, 0.0, 0.0, 0.0, 0.0, 0.0, 0.0, 0.0, 0.0, 0.0, 0.0, 0.0, 0.0, 0.0, 0.0, 0.0, 0.0, 0.0, 0.0, 0.0, 0.0, 0.0, 0.0, 0.0, 0.0, 0.0, 0.0, 0.0, 0.0, 0.0)"
1729690894.1559508,1647,1729690894,153109440,map,base_link,0.9927771336680501,6.411430035266031,1.211,-0.07301700560520713,-0.08449754744447152,-0.930505995711354,-0.34883702973385716,"(1.7848960000000003, 0.0, 0.0, 0.0, 0.0, 0.0, 0.0, 1.7848960000000003, 0.0, 0.0, 0.0, 0.0, 0.0, 0.0, 3.154176, 0.0, 0.0, 0.0, 0.0, 0.0, 0.0, 99999.0, 0.0, 0.0, 0.0, 0.0, 0.0, 0.0, 99999.0, 0.0, 0.0, 0.0, 0.0, 0.0, 0.0, 99999.0)",0.04,-0.75,0.08,0.0,0.0,0.0,"(-1.0, 0.0, 0.0, 0.0, 0.0, 0.0, 0.0, 0.0, 0.0, 0.0, 0.0, 0.0, 0.0, 0.0, 0.0, 0.0, 0.0, 0.0, 0.0, 0.0, 0.0, 0.0, 0.0, 0.0, 0.0, 0.0, 0.0, 0.0, 0.0, 0.0, 0.0, 0.0, 0.0, 0.0, 0.0, 0.0)"
1729690894.2555041,1648,1729690894,253109696,map,base_link,0.9742205576909719,6.333782947301526,1.204,-0.0653131075078399,-0.07804494717382718,-0.9370900500726699,-0.33392427624104354,"(1.7848960000000003, 0.0, 0.0, 0.0, 0.0, 0.0, 0.0, 1.7848960000000003, 0.0, 0.0, 0.0, 0.0, 0.0, 0.0, 3.154176, 0.0, 0.0, 0.0, 0.0, 0.0, 0.0, 99999.0, 0.0, 0.0, 0.0, 0.0, 0.0, 0.0, 99999.0, 0.0, 0.0, 0.0, 0.0, 0.0, 0.0, 99999.0)",0.21,-0.64,-0.04,0.0,0.0,0.0,"(-1.0, 0.0, 0.0, 0.0, 0.0, 0.0, 0.0, 0.0, 0.0, 0.0, 0.0, 0.0, 0.0, 0.0, 0.0, 0.0, 0.0, 0.0, 0.0, 0.0, 0.0, 0.0, 0.0, 0.0, 0.0, 0.0, 0.0, 0.0, 0.0, 0.0, 0.0, 0.0, 0.0, 0.0, 0.0, 0.0)"
1729690894.3572762,1649,1729690894,354109440,map,base_link,0.9742205621961373,6.278320739415716,1.196,-0.053954104110325245,-0.058335385758584886,-0.9433347717396348,-0.32218852531550635,"(1.792921, 0.0, 0.0, 0.0, 0.0, 0.0, 0.0, 1.792921, 0.0, 0.0, 0.0, 0.0, 0.0, 0.0, 3.179089, 0.0, 0.0, 0.0, 0.0, 0.0, 0.0, 99999.0, 0.0, 0.0, 0.0, 0.0, 0.0, 0.0, 99999.0, 0.0, 0.0, 0.0, 0.0, 0.0, 0.0, 99999.0)",0.34,-0.55,-0.01,0.0,0.0,0.0,"(-1.0, 0.0, 0.0, 0.0, 0.0, 0.0, 0.0, 0.0, 0.0, 0.0, 0.0, 0.0, 0.0, 0.0, 0.0, 0.0, 0.0, 0.0, 0.0, 0.0, 0.0, 0.0, 0.0, 0.0, 0.0, 0.0, 0.0, 0.0, 0.0, 0.0, 0.0, 0.0, 0.0, 0.0, 0.0, 0.0)"
1729690894.4567745,1650,1729690894,454107648,map,base_link,0.9927771496028028,6.211766095912985,1.189,-0.042440485921507766,-0.04104005326490299,-0.949403091993148,-0.30846116140708935,"(1.792921, 0.0, 0.0, 0.0, 0.0, 0.0, 0.0, 1.792921, 0.0, 0.0, 0.0, 0.0, 0.0, 0.0, 3.179089, 0.0, 0.0, 0.0, 0.0, 0.0, 0.0, 99999.0, 0.0, 0.0, 0.0, 0.0, 0.0, 0.0, 99999.0, 0.0, 0.0, 0.0, 0.0, 0.0, 0.0, 99999.0)",0.41,-0.48,0.02,0.0,0.0,0.0,"(-1.0, 0.0, 0.0, 0.0, 0.0, 0.0, 0.0, 0.0, 0.0, 0.0, 0.0, 0.0, 0.0, 0.0, 0.0, 0.0, 0.0, 0.0, 0.0, 0.0, 0.0, 0.0, 0.0, 0.0, 0.0, 0.0, 0.0, 0.0, 0.0, 0.0, 0.0, 0.0, 0.0, 0.0, 0.0, 0.0)"
1729690894.5560207,1651,1729690894,554108672,map,base_link,1.0206120270279435,6.156303891636489,1.178,-0.03795197559631077,-0.03430863119557229,-0.9535516621216832,-0.29685315062973233,"(1.8009640000000002, 0.0, 0.0, 0.0, 0.0, 0.0, 0.0, 1.8009640000000002, 0.0, 0.0, 0.0, 0.0, 0.0, 0.0, 3.1933689999999997, 0.0, 0.0, 0.0, 0.0, 0.0, 0.0, 99999.0, 0.0, 0.0, 0.0, 0.0, 0.0, 0.0, 99999.0, 0.0, 0.0, 0.0, 0.0, 0.0, 0.0, 99999.0)",0.49,-0.4,-0.04,0.0,0.0,0.0,"(-1.0, 0.0, 0.0, 0.0, 0.0, 0.0, 0.0, 0.0, 0.0, 0.0, 0.0, 0.0, 0.0, 0.0, 0.0, 0.0, 0.0, 0.0, 0.0, 0.0, 0.0, 0.0, 0.0, 0.0, 0.0, 0.0, 0.0, 0.0, 0.0, 0.0, 0.0, 0.0, 0.0, 0.0, 0.0, 0.0)"
1729690894.6565573,1652,1729690894,654106112,map,base_link,1.0577251963667773,6.1008416885706485,1.166,-0.031023298736925334,-0.044884020662325615,-0.9567245749482418,-0.2858339855838864,"(1.8009640000000002, 0.0, 0.0, 0.0, 0.0, 0.0, 0.0, 1.8009640000000002, 0.0, 0.0, 0.0, 0.0, 0.0, 0.0, 3.1933689999999997, 0.0, 0.0, 0.0, 0.0, 0.0, 0.0, 99999.0, 0.0, 0.0, 0.0, 0.0, 0.0, 0.0, 99999.0, 0.0, 0.0, 0.0, 0.0, 0.0, 0.0, 99999.0)",0.54,-0.33,-0.09,0.0,0.0,0.0,"(-1.0, 0.0, 0.0, 0.0, 0.0, 0.0, 0.0, 0.0, 0.0, 0.0, 0.0, 0.0, 0.0, 0.0, 0.0, 0.0, 0.0, 0.0, 0.0, 0.0, 0.0, 0.0, 0.0, 0.0, 0.0, 0.0, 0.0, 0.0, 0.0, 0.0, 0.0, 0.0, 0.0, 0.0, 0.0, 0.0)"
1729690894.7565193,1653,1729690894,754105600,map,base_link,1.104116656629155,6.045379488014345,1.158,-0.022569171855834857,-0.053496188860977116,-0.9604282779661257,-0.27240835732795515,"(1.8090249999999999, 0.0, 0.0, 0.0, 0.0, 0.0, 0.0, 1.8090249999999999, 0.0, 0.0, 0.0, 0.0, 0.0, 0.0, 3.2041, 0.0, 0.0, 0.0, 0.0, 0.0, 0.0, 99999.0, 0.0, 0.0, 0.0, 0.0, 0.0, 0.0, 99999.0, 0.0, 0.0, 0.0, 0.0, 0.0, 0.0, 99999.0)",0.59,-0.27,-0.12,0.0,0.0,0.0,"(-1.0, 0.0, 0.0, 0.0, 0.0, 0.0, 0.0, 0.0, 0.0, 0.0, 0.0, 0.0, 0.0, 0.0, 0.0, 0.0, 0.0, 0.0, 0.0, 0.0, 0.0, 0.0, 0.0, 0.0, 0.0, 0.0, 0.0, 0.0, 0.0, 0.0, 0.0, 0.0, 0.0, 0.0, 0.0, 0.0)"
1729690894.8570209,1654,1729690894,855105344,map,base_link,1.1597864118070218,6.001009746965262,1.16,-0.013555334993107368,-0.059614472127846034,-0.9644756707536675,-0.2570000936389053,"(1.8090249999999999, 0.0, 0.0, 0.0, 0.0, 0.0, 0.0, 1.8090249999999999, 0.0, 0.0, 0.0, 0.0, 0.0, 0.0, 3.2041, 0.0, 0.0, 0.0, 0.0, 0.0, 0.0, 99999.0, 0.0, 0.0, 0.0, 0.0, 0.0, 0.0, 99999.0, 0.0, 0.0, 0.0, 0.0, 0.0, 0.0, 99999.0)",0.64,-0.17,-0.21,0.0,0.0,0.0,"(-1.0, 0.0, 0.0, 0.0, 0.0, 0.0, 0.0, 0.0, 0.0, 0.0, 0.0, 0.0, 0.0, 0.0, 0.0, 0.0, 0.0, 0.0, 0.0, 0.0, 0.0, 0.0, 0.0, 0.0, 0.0, 0.0, 0.0, 0.0, 0.0, 0.0, 0.0, 0.0, 0.0, 0.0, 0.0, 0.0)"
1729690894.9572668,1655,1729690894,955103552,map,base_link,1.2061778725086443,5.967732433463967,1.163,-0.009214279440810356,-0.057573919359432436,-0.9686761896411361,-0.24138512896678216,"(1.8171040000000003, 0.0, 0.0, 0.0, 0.0, 0.0, 0.0, 1.8171040000000003, 0.0, 0.0, 0.0, 0.0, 0.0, 0.0, 3.218436, 0.0, 0.0, 0.0, 0.0, 0.0, 0.0, 99999.0, 0.0, 0.0, 0.0, 0.0, 0.0, 0.0, 99999.0, 0.0, 0.0, 0.0, 0.0, 0.0, 0.0, 99999.0)",0.64,-0.08,-0.25,0.0,0.0,0.0,"(-1.0, 0.0, 0.0, 0.0, 0.0, 0.0, 0.0, 0.0, 0.0, 0.0, 0.0, 0.0, 0.0, 0.0, 0.0, 0.0, 0.0, 0.0, 0.0, 0.0, 0.0, 0.0, 0.0, 0.0, 0.0, 0.0, 0.0, 0.0, 0.0, 0.0, 0.0, 0.0, 0.0, 0.0, 0.0, 0.0)"
1729690895.057487,1656,1729690895,53103552,map,base_link,1.2618476230643099,5.956640012221314,1.171,-0.004836030505107057,-0.05017580513450685,-0.9731989725853178,-0.22437192593312416,"(1.8171040000000003, 0.0, 0.0, 0.0, 0.0, 0.0, 0.0, 1.8171040000000003, 0.0, 0.0, 0.0, 0.0, 0.0, 0.0, 3.218436, 0.0, 0.0, 0.0, 0.0, 0.0, 0.0, 99999.0, 0.0, 0.0, 0.0, 0.0, 0.0, 0.0, 99999.0, 0.0, 0.0, 0.0, 0.0, 0.0, 0.0, 99999.0)",0.66,0.01,-0.35,0.0,0.0,0.0,"(-1.0, 0.0, 0.0, 0.0, 0.0, 0.0, 0.0, 0.0, 0.0, 0.0, 0.0, 0.0, 0.0, 0.0, 0.0, 0.0, 0.0, 0.0, 0.0, 0.0, 0.0, 0.0, 0.0, 0.0, 0.0, 0.0, 0.0, 0.0, 0.0, 0.0, 0.0, 0.0, 0.0, 0.0, 0.0, 0.0)"
1729690895.161037,1657,1729690895,158101504,map,base_link,1.3175173732250696,5.945547579289736,1.179,-0.0003939869254378869,-0.042558324112128225,-0.977172123980284,-0.20814243666040377,"(1.8252009999999999, 0.0, 0.0, 0.0, 0.0, 0.0, 0.0, 1.8252009999999999, 0.0, 0.0, 0.0, 0.0, 0.0, 0.0, 3.2292089999999996, 0.0, 0.0, 0.0, 0.0, 0.0, 0.0, 99999.0, 0.0, 0.0, 0.0, 0.0, 0.0, 0.0, 99999.0, 0.0, 0.0, 0.0, 0.0, 0.0, 0.0, 99999.0)",0.65,0.09,-0.43,0.0,0.0,0.0,"(-1.0, 0.0, 0.0, 0.0, 0.0, 0.0, 0.0, 0.0, 0.0, 0.0, 0.0, 0.0, 0.0, 0.0, 0.0, 0.0, 0.0, 0.0, 0.0, 0.0, 0.0, 0.0, 0.0, 0.0, 0.0, 0.0, 0.0, 0.0, 0.0, 0.0, 0.0, 0.0, 0.0, 0.0, 0.0, 0.0)"
1729690895.2584116,1658,1729690895,253102016,map,base_link,1.3731871245717597,5.934455157709317,1.189,-0.0008911034946462886,-0.036041769261430774,-0.9800334228856182,-0.19553691935326883,"(1.8252009999999999, 0.0, 0.0, 0.0, 0.0, 0.0, 0.0, 1.8252009999999999, 0.0, 0.0, 0.0, 0.0, 0.0, 0.0, 3.2292089999999996, 0.0, 0.0, 0.0, 0.0, 0.0, 0.0, 99999.0, 0.0, 0.0, 0.0, 0.0, 0.0, 0.0, 99999.0, 0.0, 0.0, 0.0, 0.0, 0.0, 0.0, 99999.0)",0.63,0.14,-0.47,0.0,0.0,0.0,"(-1.0, 0.0, 0.0, 0.0, 0.0, 0.0, 0.0, 0.0, 0.0, 0.0, 0.0, 0.0, 0.0, 0.0, 0.0, 0.0, 0.0, 0.0, 0.0, 0.0, 0.0, 0.0, 0.0, 0.0, 0.0, 0.0, 0.0, 0.0, 0.0, 0.0, 0.0, 0.0, 0.0, 0.0, 0.0, 0.0)"
1729690895.358425,1659,1729690895,353101248,map,base_link,1.4288568777840969,5.934455184094025,1.203,0.0010064864032301977,-0.03641524404658473,-0.9806299235295758,-0.19245225398660853,"(1.8387360000000001, 0.0, 0.0, 0.0, 0.0, 0.0, 0.0, 1.8387360000000001, 0.0, 0.0, 0.0, 0.0, 0.0, 0.0, 3.243601, 0.0, 0.0, 0.0, 0.0, 0.0, 0.0, 99999.0, 0.0, 0.0, 0.0, 0.0, 0.0, 0.0, 99999.0, 0.0, 0.0, 0.0, 0.0, 0.0, 0.0, 99999.0)",0.62,0.21,-0.45,0.0,0.0,0.0,"(-1.0, 0.0, 0.0, 0.0, 0.0, 0.0, 0.0, 0.0, 0.0, 0.0, 0.0, 0.0, 0.0, 0.0, 0.0, 0.0, 0.0, 0.0, 0.0, 0.0, 0.0, 0.0, 0.0, 0.0, 0.0, 0.0, 0.0, 0.0, 0.0, 0.0, 0.0, 0.0, 0.0, 0.0, 0.0, 0.0)"
1729690895.4568412,1660,1729690895,454102528,map,base_link,1.4938049224883558,5.934455213000472,1.228,0.0026671666725922895,-0.031305395280810146,-0.9783251466374098,-0.2046772237088033,"(1.8387360000000001, 0.0, 0.0, 0.0, 0.0, 0.0, 0.0, 1.8387360000000001, 0.0, 0.0, 0.0, 0.0, 0.0, 0.0, 3.243601, 0.0, 0.0, 0.0, 0.0, 0.0, 0.0, 99999.0, 0.0, 0.0, 0.0, 0.0, 0.0, 0.0, 99999.0, 0.0, 0.0, 0.0, 0.0, 0.0, 0.0, 99999.0)",0.61,0.25,-0.57,0.0,0.0,0.0,"(-1.0, 0.0, 0.0, 0.0, 0.0, 0.0, 0.0, 0.0, 0.0, 0.0, 0.0, 0.0, 0.0, 0.0, 0.0, 0.0, 0.0, 0.0, 0.0, 0.0, 0.0, 0.0, 0.0, 0.0, 0.0, 0.0, 0.0, 0.0, 0.0, 0.0, 0.0, 0.0, 0.0, 0.0, 0.0, 0.0)"
1729690895.5587113,1661,1729690895,554100736,map,base_link,1.558752967177526,5.94554769063233,1.258,0.007705410088634536,-0.02604897751914889,-0.9710496231503838,-0.23732826802778983,"(1.8496000000000004, 0.0, 0.0, 0.0, 0.0, 0.0, 0.0, 1.8496000000000004, 0.0, 0.0, 0.0, 0.0, 0.0, 0.0, 3.258025, 0.0, 0.0, 0.0, 0.0, 0.0, 0.0, 99999.0, 0.0, 0.0, 0.0, 0.0, 0.0, 0.0, 99999.0, 0.0, 0.0, 0.0, 0.0, 0.0, 0.0, 99999.0)",0.58,0.28,-0.65,0.0,0.0,0.0,"(-1.0, 0.0, 0.0, 0.0, 0.0, 0.0, 0.0, 0.0, 0.0, 0.0, 0.0, 0.0, 0.0, 0.0, 0.0, 0.0, 0.0, 0.0, 0.0, 0.0, 0.0, 0.0, 0.0, 0.0, 0.0, 0.0, 0.0, 0.0, 0.0, 0.0, 0.0, 0.0, 0.0, 0.0, 0.0, 0.0)"
1729690895.6570017,1662,1729690895,654098944,map,base_link,1.6144227248506238,5.9566401774151725,1.294,0.0139864320891973,-0.028744954052081034,-0.9580300939892374,-0.2848797050422005,"(1.8496000000000004, 0.0, 0.0, 0.0, 0.0, 0.0, 0.0, 1.8496000000000004, 0.0, 0.0, 0.0, 0.0, 0.0, 0.0, 3.258025, 0.0, 0.0, 0.0, 0.0, 0.0, 0.0, 99999.0, 0.0, 0.0, 0.0, 0.0, 0.0, 0.0, 99999.0, 0.0, 0.0, 0.0, 0.0, 0.0, 0.0, 99999.0)",0.55,0.38,-0.61,0.0,0.0,0.0,"(-1.0, 0.0, 0.0, 0.0, 0.0, 0.0, 0.0, 0.0, 0.0, 0.0, 0.0, 0.0, 0.0, 0.0, 0.0, 0.0, 0.0, 0.0, 0.0, 0.0, 0.0, 0.0, 0.0, 0.0, 0.0, 0.0, 0.0, 0.0, 0.0, 0.0, 0.0, 0.0, 0.0, 0.0, 0.0, 0.0)"
1729690895.759781,1663,1729690895,754097408,map,base_link,1.6700924790554943,5.989917541918654,1.331,0.01864848405945615,-0.03982989020582853,-0.9401033586913619,-0.3380406615567079,"(1.857769, 0.0, 0.0, 0.0, 0.0, 0.0, 0.0, 1.857769, 0.0, 0.0, 0.0, 0.0, 0.0, 0.0, 3.272481, 0.0, 0.0, 0.0, 0.0, 0.0, 0.0, 99999.0, 0.0, 0.0, 0.0, 0.0, 0.0, 0.0, 99999.0, 0.0, 0.0, 0.0, 0.0, 0.0, 0.0, 99999.0)",0.51,0.42,-0.62,0.0,0.0,0.0,"(-1.0, 0.0, 0.0, 0.0, 0.0, 0.0, 0.0, 0.0, 0.0, 0.0, 0.0, 0.0, 0.0, 0.0, 0.0, 0.0, 0.0, 0.0, 0.0, 0.0, 0.0, 0.0, 0.0, 0.0, 0.0, 0.0, 0.0, 0.0, 0.0, 0.0, 0.0, 0.0, 0.0, 0.0, 0.0, 0.0)"
1729690895.8594651,1664,1729690895,855098432,map,base_link,1.7257622326159474,6.02319491002165,1.378,0.01941754181134292,-0.0394796747883217,-0.9189653044678846,-0.3918763625594959,"(1.857769, 0.0, 0.0, 0.0, 0.0, 0.0, 0.0, 1.857769, 0.0, 0.0, 0.0, 0.0, 0.0, 0.0, 3.272481, 0.0, 0.0, 0.0, 0.0, 0.0, 0.0, 99999.0, 0.0, 0.0, 0.0, 0.0, 0.0, 0.0, 99999.0, 0.0, 0.0, 0.0, 0.0, 0.0, 0.0, 99999.0)",0.48,0.47,-0.74,0.0,0.0,0.0,"(-1.0, 0.0, 0.0, 0.0, 0.0, 0.0, 0.0, 0.0, 0.0, 0.0, 0.0, 0.0, 0.0, 0.0, 0.0, 0.0, 0.0, 0.0, 0.0, 0.0, 0.0, 0.0, 0.0, 0.0, 0.0, 0.0, 0.0, 0.0, 0.0, 0.0, 0.0, 0.0, 0.0, 0.0, 0.0, 0.0)"
1729690895.9583354,1665,1729690895,955093056,map,base_link,1.7814319887832908,6.067564726670747,1.428,0.017696946315411036,-0.03445595081850279,-0.8956721872227356,-0.44302476068493435,"(1.8659560000000004, 0.0, 0.0, 0.0, 0.0, 0.0, 0.0, 1.8659560000000004, 0.0, 0.0, 0.0, 0.0, 0.0, 0.0, 3.283344, 0.0, 0.0, 0.0, 0.0, 0.0, 0.0, 99999.0, 0.0, 0.0, 0.0, 0.0, 0.0, 0.0, 99999.0, 0.0, 0.0, 0.0, 0.0, 0.0, 0.0, 99999.0)",0.47,0.55,-0.75,0.0,0.0,0.0,"(-1.0, 0.0, 0.0, 0.0, 0.0, 0.0, 0.0, 0.0, 0.0, 0.0, 0.0, 0.0, 0.0, 0.0, 0.0, 0.0, 0.0, 0.0, 0.0, 0.0, 0.0, 0.0, 0.0, 0.0, 0.0, 0.0, 0.0, 0.0, 0.0, 0.0, 0.0, 0.0, 0.0, 0.0, 0.0, 0.0)"
1729690896.0551648,1666,1729690896,53088704,map,base_link,1.8278234529720714,6.123026991753344,1.48,0.017183186485356442,-0.025176548623794752,-0.8721684451903845,-0.48825514100292927,"(1.8659560000000004, 0.0, 0.0, 0.0, 0.0, 0.0, 0.0, 1.8659560000000004, 0.0, 0.0, 0.0, 0.0, 0.0, 0.0, 3.283344, 0.0, 0.0, 0.0, 0.0, 0.0, 0.0, 99999.0, 0.0, 0.0, 0.0, 0.0, 0.0, 0.0, 99999.0, 0.0, 0.0, 0.0, 0.0, 0.0, 0.0, 99999.0)",0.44,0.61,-0.77,0.0,0.0,0.0,"(-1.0, 0.0, 0.0, 0.0, 0.0, 0.0, 0.0, 0.0, 0.0, 0.0, 0.0, 0.0, 0.0, 0.0, 0.0, 0.0, 0.0, 0.0, 0.0, 0.0, 0.0, 0.0, 0.0, 0.0, 0.0, 0.0, 0.0, 0.0, 0.0, 0.0, 0.0, 0.0, 0.0, 0.0, 0.0, 0.0)"
1729690896.1574295,1667,1729690896,155086144,map,base_link,1.8927714984636912,6.178489252922318,1.537,0.017554636784624926,-0.01631025471128295,-0.8451267362289596,-0.5340286603072903,"(1.8714240000000002, 0.0, 0.0, 0.0, 0.0, 0.0, 0.0, 1.8714240000000002, 0.0, 0.0, 0.0, 0.0, 0.0, 0.0, 3.294225, 0.0, 0.0, 0.0, 0.0, 0.0, 0.0, 99999.0, 0.0, 0.0, 0.0, 0.0, 0.0, 0.0, 99999.0, 0.0, 0.0, 0.0, 0.0, 0.0, 0.0, 99999.0)",0.45,0.68,-0.76,0.0,0.0,0.0,"(-1.0, 0.0, 0.0, 0.0, 0.0, 0.0, 0.0, 0.0, 0.0, 0.0, 0.0, 0.0, 0.0, 0.0, 0.0, 0.0, 0.0, 0.0, 0.0, 0.0, 0.0, 0.0, 0.0, 0.0, 0.0, 0.0, 0.0, 0.0, 0.0, 0.0, 0.0, 0.0, 0.0, 0.0, 0.0, 0.0)"
1729690896.259313,1668,1729690896,255084608,map,base_link,1.9484412523722603,6.245043963131295,1.591,0.019140749765321645,-0.00738232667719945,-0.8166628835727217,-0.5767502644524231,"(1.8714240000000002, 0.0, 0.0, 0.0, 0.0, 0.0, 0.0, 1.8714240000000002, 0.0, 0.0, 0.0, 0.0, 0.0, 0.0, 3.294225, 0.0, 0.0, 0.0, 0.0, 0.0, 0.0, 99999.0, 0.0, 0.0, 0.0, 0.0, 0.0, 0.0, 99999.0, 0.0, 0.0, 0.0, 0.0, 0.0, 0.0, 99999.0)",0.44,0.7,-0.84,0.0,0.0,0.0,"(-1.0, 0.0, 0.0, 0.0, 0.0, 0.0, 0.0, 0.0, 0.0, 0.0, 0.0, 0.0, 0.0, 0.0, 0.0, 0.0, 0.0, 0.0, 0.0, 0.0, 0.0, 0.0, 0.0, 0.0, 0.0, 0.0, 0.0, 0.0, 0.0, 0.0, 0.0, 0.0, 0.0, 0.0, 0.0, 0.0)"
1729690896.3543396,1669,1729690896,353080512,map,base_link,1.9948327154803704,6.31159867270594,1.654,0.018160491062905616,0.00011646524365646579,-0.7873199874400942,-0.61627706462072,"(1.879641, 0.0, 0.0, 0.0, 0.0, 0.0, 0.0, 1.879641, 0.0, 0.0, 0.0, 0.0, 0.0, 0.0, 3.316041, 0.0, 0.0, 0.0, 0.0, 0.0, 0.0, 99999.0, 0.0, 0.0, 0.0, 0.0, 0.0, 0.0, 99999.0, 0.0, 0.0, 0.0, 0.0, 0.0, 0.0, 99999.0)",0.41,0.74,-0.84,0.0,0.0,0.0,"(-1.0, 0.0, 0.0, 0.0, 0.0, 0.0, 0.0, 0.0, 0.0, 0.0, 0.0, 0.0, 0.0, 0.0, 0.0, 0.0, 0.0, 0.0, 0.0, 0.0, 0.0, 0.0, 0.0, 0.0, 0.0, 0.0, 0.0, 0.0, 0.0, 0.0, 0.0, 0.0, 0.0, 0.0, 0.0, 0.0)"
1729690896.4544954,1670,1729690896,453080000,map,base_link,2.0505024748549383,6.378153396390292,1.72,0.01387115362126077,0.011397515147097559,-0.7566195662859367,-0.6536088430085442,"(1.879641, 0.0, 0.0, 0.0, 0.0, 0.0, 0.0, 1.879641, 0.0, 0.0, 0.0, 0.0, 0.0, 0.0, 3.316041, 0.0, 0.0, 0.0, 0.0, 0.0, 0.0, 99999.0, 0.0, 0.0, 0.0, 0.0, 0.0, 0.0, 99999.0, 0.0, 0.0, 0.0, 0.0, 0.0, 0.0, 99999.0)",0.38,0.74,-0.89,0.0,0.0,0.0,"(-1.0, 0.0, 0.0, 0.0, 0.0, 0.0, 0.0, 0.0, 0.0, 0.0, 0.0, 0.0, 0.0, 0.0, 0.0, 0.0, 0.0, 0.0, 0.0, 0.0, 0.0, 0.0, 0.0, 0.0, 0.0, 0.0, 0.0, 0.0, 0.0, 0.0, 0.0, 0.0, 0.0, 0.0, 0.0, 0.0)"
1729690896.555881,1671,1729690896,553079232,map,base_link,2.0876156457271464,6.444708107329428,1.784,0.00975014658215602,0.02328485805580263,-0.7256923172342633,-0.6875561146074646,"(1.885129, 0.0, 0.0, 0.0, 0.0, 0.0, 0.0, 1.885129, 0.0, 0.0, 0.0, 0.0, 0.0, 0.0, 3.326976, 0.0, 0.0, 0.0, 0.0, 0.0, 0.0, 99999.0, 0.0, 0.0, 0.0, 0.0, 0.0, 0.0, 99999.0, 0.0, 0.0, 0.0, 0.0, 0.0, 0.0, 99999.0)",0.36,0.74,-0.86,0.0,0.0,0.0,"(-1.0, 0.0, 0.0, 0.0, 0.0, 0.0, 0.0, 0.0, 0.0, 0.0, 0.0, 0.0, 0.0, 0.0, 0.0, 0.0, 0.0, 0.0, 0.0, 0.0, 0.0, 0.0, 0.0, 0.0, 0.0, 0.0, 0.0, 0.0, 0.0, 0.0, 0.0, 0.0, 0.0, 0.0, 0.0, 0.0)"
1729690896.6558328,1672,1729690896,653078720,map,base_link,2.134007113088459,6.511262832415993,1.852,0.006113664265816514,0.033394977080307926,-0.6948183916913269,-0.7183834638843856,"(1.885129, 0.0, 0.0, 0.0, 0.0, 0.0, 0.0, 1.885129, 0.0, 0.0, 0.0, 0.0, 0.0, 0.0, 3.326976, 0.0, 0.0, 0.0, 0.0, 0.0, 0.0, 99999.0, 0.0, 0.0, 0.0, 0.0, 0.0, 0.0, 99999.0, 0.0, 0.0, 0.0, 0.0, 0.0, 0.0, 99999.0)",0.31,0.71,-0.85,0.0,0.0,0.0,"(-1.0, 0.0, 0.0, 0.0, 0.0, 0.0, 0.0, 0.0, 0.0, 0.0, 0.0, 0.0, 0.0, 0.0, 0.0, 0.0, 0.0, 0.0, 0.0, 0.0, 0.0, 0.0, 0.0, 0.0, 0.0, 0.0, 0.0, 0.0, 0.0, 0.0, 0.0, 0.0, 0.0, 0.0, 0.0, 0.0)"
1729690896.755561,1673,1729690896,754078464,map,base_link,2.180398580845284,6.577817558109063,1.925,0.003069152596710594,0.04092306698858253,-0.6641133031876338,-0.7465047912905823,"(1.885129, 0.0, 0.0, 0.0, 0.0, 0.0, 0.0, 1.885129, 0.0, 0.0, 0.0, 0.0, 0.0, 0.0, 3.341584, 0.0, 0.0, 0.0, 0.0, 0.0, 0.0, 99999.0, 0.0, 0.0, 0.0, 0.0, 0.0, 0.0, 99999.0, 0.0, 0.0, 0.0, 0.0, 0.0, 0.0, 99999.0)",0.29,0.68,-0.82,0.0,0.0,0.0,"(-1.0, 0.0, 0.0, 0.0, 0.0, 0.0, 0.0, 0.0, 0.0, 0.0, 0.0, 0.0, 0.0, 0.0, 0.0, 0.0, 0.0, 0.0, 0.0, 0.0, 0.0, 0.0, 0.0, 0.0, 0.0, 0.0, 0.0, 0.0, 0.0, 0.0, 0.0, 0.0, 0.0, 0.0, 0.0, 0.0)"
1729690896.8572812,1674,1729690896,855076160,map,base_link,2.226790052451367,6.633279846657137,1.993,-0.0007847973827438077,0.04741900341983643,-0.6337595847983901,-0.772074873884593,"(1.885129, 0.0, 0.0, 0.0, 0.0, 0.0, 0.0, 1.885129, 0.0, 0.0, 0.0, 0.0, 0.0, 0.0, 3.341584, 0.0, 0.0, 0.0, 0.0, 0.0, 0.0, 99999.0, 0.0, 0.0, 0.0, 0.0, 0.0, 0.0, 99999.0, 0.0, 0.0, 0.0, 0.0, 0.0, 0.0, 99999.0)",0.27,0.65,-0.78,0.0,0.0,0.0,"(-1.0, 0.0, 0.0, 0.0, 0.0, 0.0, 0.0, 0.0, 0.0, 0.0, 0.0, 0.0, 0.0, 0.0, 0.0, 0.0, 0.0, 0.0, 0.0, 0.0, 0.0, 0.0, 0.0, 0.0, 0.0, 0.0, 0.0, 0.0, 0.0, 0.0, 0.0, 0.0, 0.0, 0.0, 0.0, 0.0)"
1729690896.9739962,1675,1729690896,954070016,map,base_link,2.263903229958636,6.67764968103583,2.059,-0.003786194571807041,0.04913702365592101,-0.6041547408486209,-0.7953416038074694,"(1.8878760000000003, 0.0, 0.0, 0.0, 0.0, 0.0, 0.0, 1.8878760000000003, 0.0, 0.0, 0.0, 0.0, 0.0, 0.0, 3.3525609999999997, 0.0, 0.0, 0.0, 0.0, 0.0, 0.0, 99999.0, 0.0, 0.0, 0.0, 0.0, 0.0, 0.0, 99999.0, 0.0, 0.0, 0.0, 0.0, 0.0, 0.0, 99999.0)",0.25,0.6,-0.81,0.0,0.0,0.0,"(-1.0, 0.0, 0.0, 0.0, 0.0, 0.0, 0.0, 0.0, 0.0, 0.0, 0.0, 0.0, 0.0, 0.0, 0.0, 0.0, 0.0, 0.0, 0.0, 0.0, 0.0, 0.0, 0.0, 0.0, 0.0, 0.0, 0.0, 0.0, 0.0, 0.0, 0.0, 0.0, 0.0, 0.0, 0.0, 0.0)"
1729690897.0544589,1676,1729690897,53066432,map,base_link,2.2917381210529038,6.733111977036686,2.132,-0.00883493862714436,0.05005092085695354,-0.5739915684187604,-0.817282404414164,"(1.8878760000000003, 0.0, 0.0, 0.0, 0.0, 0.0, 0.0, 1.8878760000000003, 0.0, 0.0, 0.0, 0.0, 0.0, 0.0, 3.3525609999999997, 0.0, 0.0, 0.0, 0.0, 0.0, 0.0, 99999.0, 0.0, 0.0, 0.0, 0.0, 0.0, 0.0, 99999.0, 0.0, 0.0, 0.0, 0.0, 0.0, 0.0, 99999.0)",0.2,0.55,-0.79,0.0,0.0,0.0,"(-1.0, 0.0, 0.0, 0.0, 0.0, 0.0, 0.0, 0.0, 0.0, 0.0, 0.0, 0.0, 0.0, 0.0, 0.0, 0.0, 0.0, 0.0, 0.0, 0.0, 0.0, 0.0, 0.0, 0.0, 0.0, 0.0, 0.0, 0.0, 0.0, 0.0, 0.0, 0.0, 0.0, 0.0, 0.0, 0.0)"
1729690897.1585088,1677,1729690897,155066432,map,base_link,2.3195730138287836,6.788574274789145,2.21,-0.010252440156506943,0.04579455973335309,-0.543353241107733,-0.838191506248654,"(1.8878760000000003, 0.0, 0.0, 0.0, 0.0, 0.0, 0.0, 1.8878760000000003, 0.0, 0.0, 0.0, 0.0, 0.0, 0.0, 3.367225, 0.0, 0.0, 0.0, 0.0, 0.0, 0.0, 99999.0, 0.0, 0.0, 0.0, 0.0, 0.0, 0.0, 99999.0, 0.0, 0.0, 0.0, 0.0, 0.0, 0.0, 99999.0)",0.18,0.52,-0.77,0.0,0.0,0.0,"(-1.0, 0.0, 0.0, 0.0, 0.0, 0.0, 0.0, 0.0, 0.0, 0.0, 0.0, 0.0, 0.0, 0.0, 0.0, 0.0, 0.0, 0.0, 0.0, 0.0, 0.0, 0.0, 0.0, 0.0, 0.0, 0.0, 0.0, 0.0, 0.0, 0.0, 0.0, 0.0, 0.0, 0.0, 0.0, 0.0)"
1729690897.2555008,1678,1729690897,254064896,map,base_link,2.3474079045924086,6.832944121702423,2.281,-0.010847472416587883,0.04342786793209994,-0.5222957177337482,-0.8515888302849165,"(1.8878760000000003, 0.0, 0.0, 0.0, 0.0, 0.0, 0.0, 1.8878760000000003, 0.0, 0.0, 0.0, 0.0, 0.0, 0.0, 3.367225, 0.0, 0.0, 0.0, 0.0, 0.0, 0.0, 99999.0, 0.0, 0.0, 0.0, 0.0, 0.0, 0.0, 99999.0, 0.0, 0.0, 0.0, 0.0, 0.0, 0.0, 99999.0)",0.16,0.47,-0.82,0.0,0.0,0.0,"(-1.0, 0.0, 0.0, 0.0, 0.0, 0.0, 0.0, 0.0, 0.0, 0.0, 0.0, 0.0, 0.0, 0.0, 0.0, 0.0, 0.0, 0.0, 0.0, 0.0, 0.0, 0.0, 0.0, 0.0, 0.0, 0.0, 0.0, 0.0, 0.0, 0.0, 0.0, 0.0, 0.0, 0.0, 0.0, 0.0)"
1729690897.3567073,1679,1729690897,355064896,map,base_link,2.365964500276113,6.8773139563255015,2.349,-0.013223322813734277,0.046028356623791254,-0.501456055564011,-0.863856677035294,"(1.890625, 0.0, 0.0, 0.0, 0.0, 0.0, 0.0, 1.890625, 0.0, 0.0, 0.0, 0.0, 0.0, 0.0, 3.3782440000000005, 0.0, 0.0, 0.0, 0.0, 0.0, 0.0, 99999.0, 0.0, 0.0, 0.0, 0.0, 0.0, 0.0, 99999.0, 0.0, 0.0, 0.0, 0.0, 0.0, 0.0, 99999.0)",0.13,0.43,-0.8,0.0,0.0,0.0,"(-1.0, 0.0, 0.0, 0.0, 0.0, 0.0, 0.0, 0.0, 0.0, 0.0, 0.0, 0.0, 0.0, 0.0, 0.0, 0.0, 0.0, 0.0, 0.0, 0.0, 0.0, 0.0, 0.0, 0.0, 0.0, 0.0, 0.0, 0.0, 0.0, 0.0, 0.0, 0.0, 0.0, 0.0, 0.0, 0.0)"
1729690897.4548607,1680,1729690897,453067712,map,base_link,2.3845210957371705,6.921683792461623,2.409,-0.012559426277256446,0.04896916060595809,-0.4883585093132188,-0.8711775068850806,"(1.890625, 0.0, 0.0, 0.0, 0.0, 0.0, 0.0, 1.890625, 0.0, 0.0, 0.0, 0.0, 0.0, 0.0, 3.3782440000000005, 0.0, 0.0, 0.0, 0.0, 0.0, 0.0, 99999.0, 0.0, 0.0, 0.0, 0.0, 0.0, 0.0, 99999.0, 0.0, 0.0, 0.0, 0.0, 0.0, 0.0, 99999.0)",0.1,0.4,-0.68,0.0,0.0,0.0,"(-1.0, 0.0, 0.0, 0.0, 0.0, 0.0, 0.0, 0.0, 0.0, 0.0, 0.0, 0.0, 0.0, 0.0, 0.0, 0.0, 0.0, 0.0, 0.0, 0.0, 0.0, 0.0, 0.0, 0.0, 0.0, 0.0, 0.0, 0.0, 0.0, 0.0, 0.0, 0.0, 0.0, 0.0, 0.0, 0.0)"
1729690897.556635,1681,1729690897,554065664,map,base_link,2.3937994018241704,6.954961185771995,2.467,-0.014661555793180927,0.052360949852244904,-0.4775136169139879,-0.8769402005690098,"(1.8878760000000003, 0.0, 0.0, 0.0, 0.0, 0.0, 0.0, 1.8878760000000003, 0.0, 0.0, 0.0, 0.0, 0.0, 0.0, 3.3856, 0.0, 0.0, 0.0, 0.0, 0.0, 0.0, 99999.0, 0.0, 0.0, 0.0, 0.0, 0.0, 0.0, 99999.0, 0.0, 0.0, 0.0, 0.0, 0.0, 0.0, 99999.0)",0.07,0.4,-0.62,0.0,0.0,0.0,"(-1.0, 0.0, 0.0, 0.0, 0.0, 0.0, 0.0, 0.0, 0.0, 0.0, 0.0, 0.0, 0.0, 0.0, 0.0, 0.0, 0.0, 0.0, 0.0, 0.0, 0.0, 0.0, 0.0, 0.0, 0.0, 0.0, 0.0, 0.0, 0.0, 0.0, 0.0, 0.0, 0.0, 0.0, 0.0, 0.0)"
1729690897.6556127,1682,1729690897,654065920,map,base_link,2.4030777025772965,6.999331008837881,2.514,-0.0199867594379444,0.05330223250921845,-0.4698638729687289,-0.8809014373558084,"(1.8878760000000003, 0.0, 0.0, 0.0, 0.0, 0.0, 0.0, 1.8878760000000003, 0.0, 0.0, 0.0, 0.0, 0.0, 0.0, 3.3856, 0.0, 0.0, 0.0, 0.0, 0.0, 0.0, 99999.0, 0.0, 0.0, 0.0, 0.0, 0.0, 0.0, 99999.0, 0.0, 0.0, 0.0, 0.0, 0.0, 0.0, 99999.0)",0.05,0.35,-0.58,0.0,0.0,0.0,"(-1.0, 0.0, 0.0, 0.0, 0.0, 0.0, 0.0, 0.0, 0.0, 0.0, 0.0, 0.0, 0.0, 0.0, 0.0, 0.0, 0.0, 0.0, 0.0, 0.0, 0.0, 0.0, 0.0, 0.0, 0.0, 0.0, 0.0, 0.0, 0.0, 0.0, 0.0, 0.0, 0.0, 0.0, 0.0, 0.0)"
1729690897.7556028,1683,1729690897,754066688,map,base_link,2.4123560009461795,7.032608381456932,2.554,-0.026225160610085514,0.05820732549461814,-0.461679333615968,-0.8847464840968033,"(1.8823840000000003, 0.0, 0.0, 0.0, 0.0, 0.0, 0.0, 1.8823840000000003, 0.0, 0.0, 0.0, 0.0, 0.0, 0.0, 3.4003360000000002, 0.0, 0.0, 0.0, 0.0, 0.0, 0.0, 99999.0, 0.0, 0.0, 0.0, 0.0, 0.0, 0.0, 99999.0, 0.0, 0.0, 0.0, 0.0, 0.0, 0.0, 99999.0)",0.04,0.29,-0.56,0.0,0.0,0.0,"(-1.0, 0.0, 0.0, 0.0, 0.0, 0.0, 0.0, 0.0, 0.0, 0.0, 0.0, 0.0, 0.0, 0.0, 0.0, 0.0, 0.0, 0.0, 0.0, 0.0, 0.0, 0.0, 0.0, 0.0, 0.0, 0.0, 0.0, 0.0, 0.0, 0.0, 0.0, 0.0, 0.0, 0.0, 0.0, 0.0)"
1729690897.8545094,1684,1729690897,853068992,map,base_link,2.4123560105854223,7.054793308426101,2.592,-0.0301142572383554,0.062002323837713515,-0.38524799982527214,-0.9202351992726274,"(1.8823840000000003, 0.0, 0.0, 0.0, 0.0, 0.0, 0.0, 1.8823840000000003, 0.0, 0.0, 0.0, 0.0, 0.0, 0.0, 3.4003360000000002, 0.0, 0.0, 0.0, 0.0, 0.0, 0.0, 99999.0, 0.0, 0.0, 0.0, 0.0, 0.0, 0.0, 99999.0, 0.0, 0.0, 0.0, 0.0, 0.0, 0.0, 99999.0)",0.0,0.23,-0.5,0.0,0.0,0.0,"(-1.0, 0.0, 0.0, 0.0, 0.0, 0.0, 0.0, 0.0, 0.0, 0.0, 0.0, 0.0, 0.0, 0.0, 0.0, 0.0, 0.0, 0.0, 0.0, 0.0, 0.0, 0.0, 0.0, 0.0, 0.0, 0.0, 0.0, 0.0, 0.0, 0.0, 0.0, 0.0, 0.0, 0.0, 0.0, 0.0)"
1729690897.957355,1685,1729690897,955067712,map,base_link,2.421634310867347,7.06588578634772,2.628,-0.03949932342905836,0.06354485961000525,-0.3785913298767559,-0.9225348010822902,"(1.8769000000000002, 0.0, 0.0, 0.0, 0.0, 0.0, 0.0, 1.8769000000000002, 0.0, 0.0, 0.0, 0.0, 0.0, 0.0, 3.4151040000000004, 0.0, 0.0, 0.0, 0.0, 0.0, 0.0, 99999.0, 0.0, 0.0, 0.0, 0.0, 0.0, 0.0, 99999.0, 0.0, 0.0, 0.0, 0.0, 0.0, 0.0, 99999.0)",-0.02,0.15,-0.52,0.0,0.0,0.0,"(-1.0, 0.0, 0.0, 0.0, 0.0, 0.0, 0.0, 0.0, 0.0, 0.0, 0.0, 0.0, 0.0, 0.0, 0.0, 0.0, 0.0, 0.0, 0.0, 0.0, 0.0, 0.0, 0.0, 0.0, 0.0, 0.0, 0.0, 0.0, 0.0, 0.0, 0.0, 0.0, 0.0, 0.0, 0.0, 0.0)"
1729690898.058798,1686,1729690898,53067968,map,base_link,2.421634319335142,7.076978261608895,2.657,-0.03987559631623073,0.06051379158628129,-0.3616621299744976,-0.9294883117008985,"(1.8769000000000002, 0.0, 0.0, 0.0, 0.0, 0.0, 0.0, 1.8769000000000002, 0.0, 0.0, 0.0, 0.0, 0.0, 0.0, 3.4151040000000004, 0.0, 0.0, 0.0, 0.0, 0.0, 0.0, 99999.0, 0.0, 0.0, 0.0, 0.0, 0.0, 0.0, 99999.0, 0.0, 0.0, 0.0, 0.0, 0.0, 0.0, 99999.0)",-0.02,0.12,-0.37,0.0,0.0,0.0,"(-1.0, 0.0, 0.0, 0.0, 0.0, 0.0, 0.0, 0.0, 0.0, 0.0, 0.0, 0.0, 0.0, 0.0, 0.0, 0.0, 0.0, 0.0, 0.0, 0.0, 0.0, 0.0, 0.0, 0.0, 0.0, 0.0, 0.0, 0.0, 0.0, 0.0, 0.0, 0.0, 0.0, 0.0, 0.0, 0.0)"
1729690898.155738,1687,1729690898,154066432,map,base_link,2.4123560389737344,7.076978293057674,2.683,-0.03497113695036239,0.054523413860551026,-0.34696950237653035,-0.9356368854112009,"(1.874161, 0.0, 0.0, 0.0, 0.0, 0.0, 0.0, 1.874161, 0.0, 0.0, 0.0, 0.0, 0.0, 0.0, 3.4151040000000004, 0.0, 0.0, 0.0, 0.0, 0.0, 0.0, 99999.0, 0.0, 0.0, 0.0, 0.0, 0.0, 0.0, 99999.0, 0.0, 0.0, 0.0, 0.0, 0.0, 0.0, 99999.0)",-0.03,0.04,-0.3,0.0,0.0,0.0,"(-1.0, 0.0, 0.0, 0.0, 0.0, 0.0, 0.0, 0.0, 0.0, 0.0, 0.0, 0.0, 0.0, 0.0, 0.0, 0.0, 0.0, 0.0, 0.0, 0.0, 0.0, 0.0, 0.0, 0.0, 0.0, 0.0, 0.0, 0.0, 0.0, 0.0, 0.0, 0.0, 0.0, 0.0, 0.0, 0.0)"
1729690898.2558818,1688,1729690898,253071040,map,base_link,2.4123560464194242,7.076978315017703,2.701,-0.03016236936272608,0.04988508843164182,-0.34046523294344877,-0.9384482588738481,"(1.874161, 0.0, 0.0, 0.0, 0.0, 0.0, 0.0, 1.874161, 0.0, 0.0, 0.0, 0.0, 0.0, 0.0, 3.4151040000000004, 0.0, 0.0, 0.0, 0.0, 0.0, 0.0, 99999.0, 0.0, 0.0, 0.0, 0.0, 0.0, 0.0, 99999.0, 0.0, 0.0, 0.0, 0.0, 0.0, 0.0, 99999.0)",-0.06,-0.01,-0.3,0.0,0.0,0.0,"(-1.0, 0.0, 0.0, 0.0, 0.0, 0.0, 0.0, 0.0, 0.0, 0.0, 0.0, 0.0, 0.0, 0.0, 0.0, 0.0, 0.0, 0.0, 0.0, 0.0, 0.0, 0.0, 0.0, 0.0, 0.0, 0.0, 0.0, 0.0, 0.0, 0.0, 0.0, 0.0, 0.0, 0.0, 0.0, 0.0)"
1729690898.3571744,1689,1729690898,354070528,map,base_link,2.4123560464194242,7.076978315017703,2.708,-0.026092168952428524,0.04682174524543126,-0.3354907825380933,-0.94051733515311,"(1.8659560000000004, 0.0, 0.0, 0.0, 0.0, 0.0, 0.0, 1.8659560000000004, 0.0, 0.0, 0.0, 0.0, 0.0, 0.0, 3.411409, 0.0, 0.0, 0.0, 0.0, 0.0, 0.0, 99999.0, 0.0, 0.0, 0.0, 0.0, 0.0, 0.0, 99999.0, 0.0, 0.0, 0.0, 0.0, 0.0, 0.0, 99999.0)",-0.03,-0.03,-0.22,0.0,0.0,0.0,"(-1.0, 0.0, 0.0, 0.0, 0.0, 0.0, 0.0, 0.0, 0.0, 0.0, 0.0, 0.0, 0.0, 0.0, 0.0, 0.0, 0.0, 0.0, 0.0, 0.0, 0.0, 0.0, 0.0, 0.0, 0.0, 0.0, 0.0, 0.0, 0.0, 0.0, 0.0, 0.0, 0.0, 0.0, 0.0, 0.0)"
1729690898.4552863,1690,1729690898,453071040,map,base_link,2.4123560464194242,7.076978315017703,2.709,-0.02288572953958839,0.04440061049777499,-0.3347680722815856,-0.9409756463117083,"(1.8659560000000004, 0.0, 0.0, 0.0, 0.0, 0.0, 0.0, 1.8659560000000004, 0.0, 0.0, 0.0, 0.0, 0.0, 0.0, 3.411409, 0.0, 0.0, 0.0, 0.0, 0.0, 0.0, 99999.0, 0.0, 0.0, 0.0, 0.0, 0.0, 0.0, 99999.0, 0.0, 0.0, 0.0, 0.0, 0.0, 0.0, 99999.0)",-0.05,-0.06,-0.11,0.0,0.0,0.0,"(-1.0, 0.0, 0.0, 0.0, 0.0, 0.0, 0.0, 0.0, 0.0, 0.0, 0.0, 0.0, 0.0, 0.0, 0.0, 0.0, 0.0, 0.0, 0.0, 0.0, 0.0, 0.0, 0.0, 0.0, 0.0, 0.0, 0.0, 0.0, 0.0, 0.0, 0.0, 0.0, 0.0, 0.0, 0.0, 0.0)"
1729690898.5559895,1691,1729690898,553067968,map,base_link,2.4123560464194242,7.076978315017703,2.706,-0.018749803875342037,0.04551070921189778,-0.3348960821573457,-0.940968561832608,"(1.8604960000000004, 0.0, 0.0, 0.0, 0.0, 0.0, 0.0, 1.8604960000000004, 0.0, 0.0, 0.0, 0.0, 0.0, 0.0, 3.411409, 0.0, 0.0, 0.0, 0.0, 0.0, 0.0, 99999.0, 0.0, 0.0, 0.0, 0.0, 0.0, 0.0, 99999.0, 0.0, 0.0, 0.0, 0.0, 0.0, 0.0, 99999.0)",-0.02,-0.08,-0.09,0.0,0.0,0.0,"(-1.0, 0.0, 0.0, 0.0, 0.0, 0.0, 0.0, 0.0, 0.0, 0.0, 0.0, 0.0, 0.0, 0.0, 0.0, 0.0, 0.0, 0.0, 0.0, 0.0, 0.0, 0.0, 0.0, 0.0, 0.0, 0.0, 0.0, 0.0, 0.0, 0.0, 0.0, 0.0, 0.0, 0.0, 0.0, 0.0)"
1729690898.6571639,1692,1729690898,654065664,map,base_link,2.4123560464194242,7.076978315017703,2.702,-0.018851143771085405,0.04551210072513987,-0.33537063370813475,-0.9407974389380057,"(1.8604960000000004, 0.0, 0.0, 0.0, 0.0, 0.0, 0.0, 1.8604960000000004, 0.0, 0.0, 0.0, 0.0, 0.0, 0.0, 3.411409, 0.0, 0.0, 0.0, 0.0, 0.0, 0.0, 99999.0, 0.0, 0.0, 0.0, 0.0, 0.0, 0.0, 99999.0, 0.0, 0.0, 0.0, 0.0, 0.0, 0.0, 99999.0)",-0.03,-0.09,-0.03,0.0,0.0,0.0,"(-1.0, 0.0, 0.0, 0.0, 0.0, 0.0, 0.0, 0.0, 0.0, 0.0, 0.0, 0.0, 0.0, 0.0, 0.0, 0.0, 0.0, 0.0, 0.0, 0.0, 0.0, 0.0, 0.0, 0.0, 0.0, 0.0, 0.0, 0.0, 0.0, 0.0, 0.0, 0.0, 0.0, 0.0, 0.0, 0.0)"
1729690898.76051,1693,1729690898,753065664,map,base_link,2.4123560485053326,7.054793419725972,2.696,-0.025162355854856912,0.04800638429022761,-0.338411020948825,-0.9394361201356838,"(1.8523209999999999, 0.0, 0.0, 0.0, 0.0, 0.0, 0.0, 1.8523209999999999, 0.0, 0.0, 0.0, 0.0, 0.0, 0.0, 3.4151040000000004, 0.0, 0.0, 0.0, 0.0, 0.0, 0.0, 99999.0, 0.0, 0.0, 0.0, 0.0, 0.0, 0.0, 99999.0, 0.0, 0.0, 0.0, 0.0, 0.0, 0.0, 99999.0)",-0.01,-0.14,0.06,0.0,0.0,0.0,"(-1.0, 0.0, 0.0, 0.0, 0.0, 0.0, 0.0, 0.0, 0.0, 0.0, 0.0, 0.0, 0.0, 0.0, 0.0, 0.0, 0.0, 0.0, 0.0, 0.0, 0.0, 0.0, 0.0, 0.0, 0.0, 0.0, 0.0, 0.0, 0.0, 0.0, 0.0, 0.0, 0.0, 0.0, 0.0, 0.0)"
1729690898.8576097,1694,1729690898,855066432,map,base_link,2.4123560513173956,7.043700977229861,2.69,-0.022808693711011886,0.05348855715363723,-0.344156860024499,-0.9371098086365848,"(1.8523209999999999, 0.0, 0.0, 0.0, 0.0, 0.0, 0.0, 1.8523209999999999, 0.0, 0.0, 0.0, 0.0, 0.0, 0.0, 3.4151040000000004, 0.0, 0.0, 0.0, 0.0, 0.0, 0.0, 99999.0, 0.0, 0.0, 0.0, 0.0, 0.0, 0.0, 99999.0, 0.0, 0.0, 0.0, 0.0, 0.0, 0.0, 99999.0)",-0.01,-0.16,0.02,0.0,0.0,0.0,"(-1.0, 0.0, 0.0, 0.0, 0.0, 0.0, 0.0, 0.0, 0.0, 0.0, 0.0, 0.0, 0.0, 0.0, 0.0, 0.0, 0.0, 0.0, 0.0, 0.0, 0.0, 0.0, 0.0, 0.0, 0.0, 0.0, 0.0, 0.0, 0.0, 0.0, 0.0, 0.0, 0.0, 0.0, 0.0, 0.0)"
