Time,header.seq,header.stamp.secs,header.stamp.nsecs,header.frame_id,airspeed,groundspeed,heading,throttle,altitude,climb
1737285429.2299938,12560,1737285429,229165003,,0.09173471480607986,0.09170462936162949,7,0.12999999523162842,588.5,-0.002348674926906824
1737285429.3371193,12561,1737285429,335169021,,0.10450650006532669,0.1036548912525177,19,0.14000000059604645,588.5,0.013314394280314445
1737285429.4368303,12562,1737285429,436105521,,0.12486828118562698,0.11000070720911026,19,0.14000000059604645,588.5,0.05909255892038345
1737285429.5358298,12563,1737285429,535284206,,0.1195281371474266,0.0827179029583931,15,0.12999999523162842,588.489990234375,0.08628280460834503
1737285429.6343625,12564,1737285429,633201947,,0.10444214940071106,0.09014012664556503,9,0.11999999731779099,588.489990234375,0.05275340750813484
1737285429.7315414,12565,1737285429,728185151,,0.10074309259653091,0.09741349518299103,6,0.11999999731779099,588.489990234375,0.025686196982860565
1737285429.8333304,12566,1737285429,829275077,,0.14829334616661072,0.1316855102777481,7,0.12999999523162842,588.489990234375,0.06818976253271103
1737285429.93039,12567,1737285429,928313632,,0.09971325844526291,0.09854035079479218,11,0.14000000059604645,588.47998046875,0.015249043703079224
1737285430.0298798,12568,1737285430,29330669,,0.0829102098941803,0.08281205594539642,16,0.15000000596046448,588.47998046875,-0.004033141303807497
1737285430.1318667,12569,1737285430,128280021,,0.10367152094841003,0.09787026792764664,19,0.15000000596046448,588.4599609375,-0.0341934934258461
1737285430.2293637,12570,1737285430,228274965,,0.10090779513120651,0.09097786992788315,21,0.15000000596046448,588.4400024414062,0.043650999665260315
1737285430.3316936,12571,1737285430,331253317,,0.10508427768945694,0.0846247747540474,21,0.15000000596046448,588.4400024414062,0.06230050325393677
1737285430.4288087,12572,1737285430,428317984,,0.10050129890441895,0.08904868364334106,20,0.14000000059604645,588.4299926757812,0.04659230262041092
1737285430.5317326,12573,1737285430,531267835,,0.13392043113708496,0.08617815375328064,19,0.15000000596046448,588.4400024414062,0.10250858962535858
1737285430.6287804,12574,1737285430,627754261,,0.09708129614591599,0.09106332808732986,18,0.14000000059604645,588.4500122070312,0.03364890068769455
1737285430.7297397,12575,1737285430,729292909,,0.12772324681282043,0.09979993849992752,18,0.12999999523162842,588.4599609375,0.07970696687698364
1737285430.8309865,12576,1737285430,830387539,,0.16189013421535492,0.10447859764099121,18,0.14000000059604645,588.469970703125,0.12366340309381485
1737285430.9333758,12577,1737285430,931707372,,0.10754363983869553,0.0954115241765976,18,0.14000000059604645,588.469970703125,0.049621306359767914
1737285431.0288756,12578,1737285431,28446835,,0.1609770655632019,0.10258395969867706,19,0.14000000059604645,588.47998046875,0.12405702471733093
1737285431.1320188,12579,1737285431,131353835,,0.148799329996109,0.10189823806285858,19,0.12999999523162842,588.47998046875,0.10843425244092941
1737285431.229163,12580,1737285431,228443409,,0.12547582387924194,0.08235540241003036,19,0.14000000059604645,588.489990234375,0.09466663002967834
1737285431.3314788,12581,1737285431,330433409,,0.08773630112409592,0.08698108792304993,19,0.14000000059604645,588.489990234375,0.011486862786114216
1737285431.432436,12582,1737285431,431675928,,0.07945374399423599,0.07427887618541718,19,0.14000000059604645,588.489990234375,0.028205418959259987
1737285431.5311248,12583,1737285431,530464131,,0.09062618762254715,0.08671686798334122,19,0.14000000059604645,588.5,0.026330411434173584
1737285431.6291022,12584,1737285431,628594039,,0.11460287868976593,0.08905454725027084,19,0.14000000059604645,588.5,0.07213256508111954
1737285431.7309704,12585,1737285431,730463038,,0.12616677582263947,0.08669719099998474,18,0.12999999523162842,588.510009765625,0.0916605293750763
1737285431.829069,12586,1737285431,828585705,,0.0986596941947937,0.09818779677152634,18,0.12999999523162842,588.5199584960938,0.00963805615901947
1737285431.9309742,12587,1737285431,930516168,,0.1044423058629036,0.09493858367204666,18,0.14000000059604645,588.5199584960938,-0.04353000223636627
1737285432.0290504,12588,1737285432,28527001,,0.11532812565565109,0.10799910128116608,19,0.14000000059604645,588.5199584960938,0.04045701026916504
1737285432.1344216,12589,1737285432,130561631,,0.1202680915594101,0.11318901181221008,19,0.14000000059604645,588.5199584960938,0.04065292701125145
1737285432.230113,12590,1737285432,229569612,,0.1154060959815979,0.10811488330364227,20,0.14000000059604645,588.5199584960938,-0.04037001356482506
1737285432.3312342,12591,1737285432,330656779,,0.12459435313940048,0.1200876384973526,20,0.14000000059604645,588.5199584960938,0.03320707008242607
1737285432.4300132,12592,1737285432,429672927,,0.11420810222625732,0.113363116979599,20,0.15000000596046448,588.5199584960938,-0.013867013156414032
1737285432.5291731,12593,1737285432,528707779,,0.10228390991687775,0.10223487764596939,20,0.15000000596046448,588.5199584960938,-0.003166578710079193
1737285432.6319976,12594,1737285432,631556649,,0.11016274988651276,0.1063976064324379,20,0.14000000059604645,588.510009765625,-0.028554867953062057
1737285432.7281628,12595,1737285432,727608686,,0.11841394007205963,0.10691294074058533,19,0.14000000059604645,588.510009765625,0.05090660974383354
1737285432.8302572,12596,1737285432,829743056,,0.08106712996959686,0.08104009926319122,19,0.15000000596046448,588.5,0.002093356102705002
1737285432.931094,12597,1737285432,930639741,,0.10843508690595627,0.09645619988441467,19,0.14000000059604645,588.5,0.04954160004854202
1737285433.0303078,12598,1737285433,29727778,,0.09360700845718384,0.09032086282968521,19,0.14000000059604645,588.489990234375,-0.0245848186314106
1737285433.1335695,12599,1737285433,130741704,,0.09923487156629562,0.09909622371196747,18,0.14000000059604645,588.489990234375,0.005244016647338867
1737285433.2283154,12600,1737285433,227776667,,0.10576605796813965,0.10285459458827972,18,0.14000000059604645,588.489990234375,0.02464533969759941
1737285433.3301635,12601,1737285433,329707797,,0.08021369576454163,0.07662368565797806,19,0.15000000596046448,588.5,0.0237286239862442
1737285433.4281383,12602,1737285433,427761167,,0.11112392693758011,0.11073870211839676,19,0.15000000596046448,588.5,0.009244829416275024
1737285433.5304818,12603,1737285433,529858704,,0.08495674282312393,0.07562845945358276,19,0.14000000059604645,588.510009765625,-0.03870381414890289
1737285433.6281977,12604,1737285433,627763852,,0.09197377413511276,0.09162377566099167,19,0.14000000059604645,588.510009765625,-0.008016098290681839
1737285433.7321053,12605,1737285433,731705556,,0.08632231503725052,0.08253796398639679,20,0.15000000596046448,588.510009765625,-0.0252789668738842
1737285433.8294387,12606,1737285433,828890982,,0.08068543672561646,0.08058954030275345,20,0.15000000596046448,588.510009765625,0.0039326404221355915
1737285433.9304733,12607,1737285433,929899370,,0.09795475006103516,0.08303684741258621,20,0.15000000596046448,588.510009765625,0.05196166783571243
1737285434.028639,12608,1737285434,27935556,,0.07533715665340424,0.07277458161115646,20,0.15000000596046448,588.510009765625,0.019481994211673737
1737285434.1356287,12609,1737285434,133946870,,0.1011030524969101,0.09002282470464706,21,0.15000000596046448,588.510009765625,0.04601867124438286
1737285434.2293673,12610,1737285434,228825093,,0.10028325021266937,0.09912790358066559,21,0.15000000596046448,588.5199584960938,0.015178581699728966
1737285434.3285456,12611,1737285434,327851778,,0.09764239937067032,0.09706311672925949,21,0.14000000059604645,588.5199584960938,0.010620232671499252
1737285434.4304044,12612,1737285434,429843370,,0.11878564953804016,0.09226823598146439,20,0.14000000059604645,588.5199584960938,0.0748104527592659
1737285434.5292776,12613,1737285434,528875889,,0.10018689930438995,0.09811663627624512,20,0.15000000596046448,588.5199584960938,0.02026180922985077
1737285434.628643,12614,1737285434,627922111,,0.10063086450099945,0.09365264326334,20,0.15000000596046448,588.510009765625,-0.03682054579257965
1737285434.7296646,12615,1737285434,729044889,,0.11271470785140991,0.09995094686746597,19,0.14000000059604645,588.510009765625,-0.05210002511739731
1737285434.8313007,12616,1737285434,830939129,,0.10666991025209427,0.10614236444234848,19,0.14000000059604645,588.5,0.010595646686851978
1737285434.9316735,12617,1737285434,930930407,,0.11132321506738663,0.10771337151527405,19,0.14000000059604645,588.5,-0.02811921015381813
1737285435.0287044,12618,1737285435,28045981,,0.10229981690645218,0.09888045489788055,19,0.14000000059604645,588.489990234375,0.02622799389064312
1737285435.1314538,12619,1737285435,130843944,,0.11544820666313171,0.09603438526391983,19,0.14000000059604645,588.489990234375,0.06407561898231506
1737285435.229584,12620,1737285435,229043833,,0.09615295380353928,0.09030108898878098,19,0.14000000059604645,588.5,-0.03303183987736702
1737285435.3293664,12621,1737285435,328970129,,0.09589307755231857,0.08076569437980652,20,0.15000000596046448,588.5,0.051695115864276886
1737285435.428713,12622,1737285435,428063777,,0.10168756544589996,0.10163538157939911,20,0.14000000059604645,588.489990234375,0.00325741246342659
1737285435.5305936,12623,1737285435,530005536,,0.11440061777830124,0.08608769625425339,20,0.14000000059604645,588.5,0.07534195482730865
1737285435.6285794,12624,1737285435,628082944,,0.09144306182861328,0.08910208195447922,20,0.14000000059604645,588.5,0.020558519288897514
1737285435.7308161,12625,1737285435,730040925,,0.08480697870254517,0.07992139458656311,20,0.15000000596046448,588.5,-0.028368882834911346
1737285435.8297842,12626,1737285435,829143388,,0.07054942101240158,0.052295006811618805,20,0.15000000596046448,588.5,0.04735454544425011
1737285435.9335706,12627,1737285435,933030814,,0.0628041997551918,0.059331804513931274,20,0.14000000059604645,588.5,0.02059379406273365
1737285436.02969,12628,1737285436,29084740,,0.08136816322803497,0.06490883231163025,20,0.14000000059604645,588.510009765625,0.049067527055740356
1737285436.1336489,12629,1737285436,133089628,,0.07507098466157913,0.0738910511136055,20,0.15000000596046448,588.5,0.013257637619972229
1737285436.2317338,12630,1737285436,231096480,,0.07211282104253769,0.06768269836902618,20,0.15000000596046448,588.5,-0.024885961785912514
1737285436.335587,12631,1737285436,335152906,,0.07565593719482422,0.07340069115161896,20,0.14000000059604645,588.5,0.018334675580263138
1737285436.435583,12632,1737285436,435161091,,0.07354284077882767,0.0733879953622818,20,0.14000000059604645,588.5,0.00476973969489336
1737285436.5341463,12633,1737285436,533245665,,0.07082584500312805,0.06505525857210159,20,0.15000000596046448,588.510009765625,0.028002046048641205
1737285436.6319456,12634,1737285436,631259313,,0.08642134815454483,0.08505423367023468,20,0.15000000596046448,588.510009765625,0.015311007387936115
1737285436.7329218,12635,1737285436,732284221,,0.07671725749969482,0.07668940722942352,20,0.14000000059604645,588.510009765625,0.002067156136035919
1737285436.8290212,12636,1737285436,828163943,,0.09487766772508621,0.07214687764644623,20,0.15000000596046448,588.5199584960938,0.06161655858159065
1737285436.9325266,12637,1737285436,932133554,,0.07868723571300507,0.06812668591737747,19,0.14000000059604645,588.5199584960938,0.03937557339668274
1737285437.0277593,12638,1737285437,27295498,,0.08341830968856812,0.07835755497217178,19,0.14000000059604645,588.5299682617188,-0.028613094240427017
1737285437.1314182,12639,1737285437,130810665,,0.08231841027736664,0.07990434020757675,19,0.14000000059604645,588.5299682617188,-0.01978931576013565
1737285437.227781,12640,1737285437,227299609,,0.08369225263595581,0.0774550512433052,19,0.14000000059604645,588.5299682617188,0.031703442335128784
1737285437.331,12641,1737285437,330375943,,0.09550559520721436,0.07491863518953323,19,0.14000000059604645,588.5299682617188,0.05923273786902428
1737285437.4288752,12642,1737285437,428259480,,0.10284630954265594,0.07808662950992584,19,0.14000000059604645,588.5299682617188,-0.06693162769079208
1737285437.5289655,12643,1737285437,527797294,,0.09079961478710175,0.07608211040496826,19,0.14000000059604645,588.5299682617188,0.04955887049436569
1737285437.6319523,12644,1737285437,631311813,,0.07410498708486557,0.06139077991247177,20,0.15000000596046448,588.5299682617188,-0.04150567203760147
1737285437.7288835,12645,1737285437,728342979,,0.06605247408151627,0.06593714654445648,20,0.15000000596046448,588.5299682617188,0.003901563584804535
1737285437.8300908,12646,1737285437,829361350,,0.06687331199645996,0.06376617401838303,20,0.14000000059604645,588.5299682617188,0.020147323608398438
1737285437.9316366,12647,1737285437,931283016,,0.07727249711751938,0.0554218515753746,20,0.14000000059604645,588.5399780273438,0.05384661257266998
1737285438.0303411,12648,1737285438,29453387,,0.07940728962421417,0.0737622082233429,19,0.15000000596046448,588.5299682617188,-0.02940499782562256
1737285438.134761,12649,1737285438,130830257,,0.06267605721950531,0.04805362969636917,19,0.15000000596046448,588.5399780273438,-0.04023849964141846
1737285438.2301614,12650,1737285438,229518386,,0.04833687096834183,0.04746021330356598,19,0.14000000059604645,588.5399780273438,0.009164117276668549
1737285438.327778,12651,1737285438,327364627,,0.048927053809165955,0.04829191043972969,19,0.14000000059604645,588.5399780273438,0.007857982069253922
1737285438.4301388,12652,1737285438,429484960,,0.059382643550634384,0.05656906217336655,19,0.15000000596046448,588.5299682617188,0.018062103539705276
1737285438.5293007,12653,1737285438,528527146,,0.10279511660337448,0.057481799274683,20,0.15000000596046448,588.5299682617188,-0.08522135019302368
1737285438.630154,12654,1737285438,629458183,,0.048904966562986374,0.041171811521053314,20,0.15000000596046448,588.5199584960938,-0.02639276348054409
1737285438.7283964,12655,1737285438,727511719,,0.061672408133745193,0.041210342198610306,20,0.15000000596046448,588.5199584960938,-0.045882388949394226
1737285438.8303597,12656,1737285438,829489182,,0.024967866018414497,0.024158259853720665,20,0.15000000596046448,588.5199584960938,0.006306568626314402
1737285438.9301407,12657,1737285438,929492479,,0.048874031752347946,0.028104552999138832,20,0.15000000596046448,588.5199584960938,0.0399850569665432
1737285439.0282745,12658,1737285439,27574812,,0.041160449385643005,0.040335118770599365,20,0.15000000596046448,588.5199584960938,-0.008201254531741142
1737285439.1365795,12659,1737285439,133702793,,0.03567381203174591,0.024671295657753944,20,0.15000000596046448,588.5299682617188,0.025767184793949127
1737285439.228534,12660,1737285439,227613738,,0.03256262466311455,0.021901201456785202,20,0.15000000596046448,588.5299682617188,-0.024096926674246788
1737285439.329662,12661,1737285439,328697849,,0.037893179804086685,0.017838701605796814,20,0.14000000059604645,588.5299682617188,-0.03343162685632706
1737285439.4291344,12662,1737285439,427593441,,0.020819973200559616,0.01994975097477436,20,0.14000000059604645,588.5299682617188,-0.0059564001858234406
1737285439.5303986,12663,1737285439,529562163,,0.03792363032698631,0.02075176127254963,20,0.14000000059604645,588.5299682617188,-0.03174218162894249
1737285439.6299129,12664,1737285439,627577034,,0.02030670829117298,0.011275225318968296,19,0.15000000596046448,588.5299682617188,0.016888804733753204
1737285439.7330296,12665,1737285439,732586237,,0.02925945073366165,0.012387488968670368,19,0.14000000059604645,588.5299682617188,-0.026507839560508728
1737285439.829182,12666,1737285439,828657737,,0.015683947131037712,0.0033903862349689007,19,0.14000000059604645,588.5199584960938,-0.01531311497092247
1737285439.9332507,12667,1737285439,932620311,,0.04224313050508499,0.017008384689688683,19,0.15000000596046448,588.5199584960938,-0.03866777569055557
1737285440.0293088,12668,1737285440,28634034,,0.03964532911777496,0.030463017523288727,19,0.15000000596046448,588.5199584960938,-0.025372354313731194
1737285440.1281636,12669,1737285440,127613793,,0.020868457853794098,0.017752008512616158,19,0.14000000059604645,588.5199584960938,-0.010970812290906906
1737285440.229206,12670,1737285440,228683459,,0.033536702394485474,0.031028030440211296,19,0.15000000596046448,588.5199584960938,-0.012726811692118645
1737285440.3294868,12671,1737285440,328813719,,0.0606955960392952,0.011658178642392159,19,0.15000000596046448,588.5199584960938,-0.05956544727087021
1737285440.430506,12672,1737285440,429795478,,0.027080610394477844,0.025261545553803444,19,0.15000000596046448,588.5199584960938,-0.00975775346159935
1737285440.5293314,12673,1737285440,528710941,,0.03202752396464348,0.02393052540719509,19,0.15000000596046448,588.510009765625,0.02128596045076847
1737285440.630499,12674,1737285440,629811866,,0.028307879343628883,0.023889213800430298,19,0.15000000596046448,588.510009765625,-0.015186883509159088
1737285440.729615,12675,1737285440,728835959,,0.03415572643280029,0.03081958182156086,19,0.15000000596046448,588.510009765625,0.014723008498549461
1737285440.8287992,12676,1737285440,827785866,,0.06248511001467705,0.03134220466017723,19,0.15000000596046448,588.510009765625,0.05405603349208832
1737285440.9285362,12677,1737285440,927820163,,0.042724672704935074,0.04115573689341545,19,0.15000000596046448,588.510009765625,0.011471820063889027
1737285441.0326734,12678,1737285441,31768163,,0.04811253026127815,0.04793891683220863,19,0.14000000059604645,588.510009765625,-0.004083581268787384
1737285441.1293094,12679,1737285441,128764088,,0.04569990560412407,0.04291633144021034,18,0.14000000059604645,588.5199584960938,0.015705730766057968
1737285441.228358,12680,1737285441,227803885,,0.055041782557964325,0.04511679708957672,18,0.15000000596046448,588.5199584960938,0.031528912484645844
1737285441.3297675,12681,1737285441,328944236,,0.06576479971408844,0.03443053364753723,19,0.15000000596046448,588.5199584960938,0.05603165924549103
1737285441.4284902,12682,1737285441,427953088,,0.04664392024278641,0.04494757577776909,19,0.15000000596046448,588.5199584960938,-0.012464780360460281
1737285441.528703,12683,1737285441,527920903,,0.02630949579179287,0.02565988525748253,19,0.15000000596046448,588.5199584960938,-0.005810316652059555
1737285441.6295705,12684,1737285441,628924329,,0.07386365532875061,0.040538106113672256,19,0.15000000596046448,588.5299682617188,-0.06174545735120773
1737285441.7286153,12685,1737285441,727929310,,0.04590853676199913,0.02973044291138649,19,0.15000000596046448,588.5299682617188,0.034981343895196915
1737285441.829788,12686,1737285441,828985181,,0.03822377324104309,0.03695148229598999,19,0.14000000059604645,588.5299682617188,-0.009779814630746841
1737285441.9313436,12687,1737285441,930909421,,0.03891192749142647,0.023050472140312195,19,0.15000000596046448,588.5299682617188,0.03134986385703087
1737285442.0308266,12688,1737285442,28981440,,0.038575880229473114,0.03356074169278145,18,0.15000000596046448,588.5299682617188,-0.019020382314920425
1737285442.1287138,12689,1737285442,128017347,,0.03499159216880798,0.032446663826704025,18,0.15000000596046448,588.5299682617188,-0.013100599870085716
1737285442.230597,12690,1737285442,228938903,,0.05114435777068138,0.04652359336614609,18,0.15000000596046448,588.5199584960938,0.021243838593363762
1737285442.3319628,12691,1737285442,330920088,,0.05070206895470619,0.05056626349687576,19,0.15000000596046448,588.5199584960938,-0.0037085311487317085
1737285442.4310985,12692,1737285442,429944588,,0.018984053283929825,0.018980229273438454,19,0.15000000596046448,588.5199584960938,-0.0003809445188380778
1737285442.5290482,12693,1737285442,527994495,,0.05906786397099495,0.026807956397533417,18,0.14000000059604645,588.5299682617188,0.05263407528400421
1737285442.6308897,12694,1737285442,630038550,,0.02558743581175804,0.016057856380939484,19,0.15000000596046448,588.5299682617188,-0.019921397790312767
1737285442.7304902,12695,1737285442,729008069,,0.01371182594448328,0.01147039607167244,19,0.15000000596046448,588.5299682617188,0.007512934505939484
1737285442.8288414,12696,1737285442,828115476,,0.06286603957414627,0.040017977356910706,19,0.15000000596046448,588.5399780273438,-0.04848401993513107
1737285442.9320054,12697,1737285442,931035254,,0.04272349178791046,0.039457354694604874,19,0.15000000596046448,588.5399780273438,0.016383346170186996
1737285443.0279036,12698,1737285443,27091902,,0.024476485326886177,0.021598348394036293,19,0.14000000059604645,588.5299682617188,-0.011515624821186066
1737285443.1318538,12699,1737285443,131104884,,0.02007353864610195,0.01587873138487339,18,0.15000000596046448,588.5399780273438,-0.01228058710694313
1737285443.233153,12700,1737285443,232278217,,0.03862973675131798,0.011657959781587124,18,0.15000000596046448,588.5299682617188,0.03682864084839821
1737285443.3317592,12701,1737285443,331186680,,0.03614908456802368,0.014455864205956459,18,0.15000000596046448,588.5299682617188,-0.033132828772068024
1737285443.4307587,12702,1737285443,430205550,,0.008784686215221882,0.007431043777614832,18,0.15000000596046448,588.5199584960938,-0.004685115069150925
1737285443.5285614,12703,1737285443,528180087,,0.018528876826167107,0.011099880561232567,19,0.15000000596046448,588.5199584960938,-0.01483616977930069
1737285443.6296477,12704,1737285443,629140068,,0.04254918172955513,0.04072517529129982,19,0.15000000596046448,588.5199584960938,0.012324507348239422
1737285443.7304842,12705,1737285443,730137994,,0.025415660813450813,0.015168954618275166,19,0.15000000596046448,588.5199584960938,0.020392609760165215
1737285443.8288314,12706,1737285443,828207439,,0.03718822821974754,0.026535561308264732,19,0.15000000596046448,588.5199584960938,0.02605433389544487
1737285443.9391272,12707,1737285443,938445587,,0.0697537437081337,0.01970425248146057,19,0.15000000596046448,588.510009765625,-0.06691282987594604
1737285444.0301046,12708,1737285444,29317439,,0.043182533234357834,0.03835799917578697,19,0.15000000596046448,588.510009765625,0.019834190607070923
1737285444.1278806,12709,1737285444,127205883,,0.035798344761133194,0.024698449298739433,18,0.15000000596046448,588.510009765625,0.025913476943969727
1737285444.2291417,12710,1737285444,228235198,,0.05616084486246109,0.010439394041895866,18,0.15000000596046448,588.5,-0.05518205836415291
1737285444.330895,12711,1737285444,330321587,,0.021020591259002686,0.011991630308330059,18,0.15000000596046448,588.5,-0.01726458966732025
1737285444.429919,12712,1737285444,428530957,,0.02416137047111988,0.01405107881873846,19,0.1599999964237213,588.489990234375,0.019655510783195496
1737285444.53146,12713,1737285444,529777716,,0.02885063923895359,0.011272415518760681,19,0.15000000596046448,588.489990234375,-0.026557333767414093
1737285444.6301029,12714,1737285444,629361790,,0.01385683286935091,0.013086722232401371,19,0.15000000596046448,588.489990234375,0.004555165767669678
1737285444.7281282,12715,1737285444,727307512,,0.05170512571930885,0.028735294938087463,19,0.1599999964237213,588.489990234375,0.042984914034605026
1737285444.8352642,12716,1737285444,834265938,,0.03274313732981682,0.015377209521830082,19,0.15000000596046448,588.489990234375,-0.028907690197229385
1737285444.9288735,12717,1737285444,928331827,,0.10531531274318695,0.0359138585627079,19,0.14000000059604645,588.489990234375,0.09900257736444473
1737285445.0311518,12718,1737285445,30429882,,0.058586690574884415,0.025540068745613098,18,0.15000000596046448,588.489990234375,0.05272670090198517
1737285445.133794,12719,1737285445,128429401,,0.08649661391973495,0.026332782581448555,18,0.15000000596046448,588.5,0.08239082992076874
1737285445.2300603,12720,1737285445,229347586,,0.03642101213335991,0.020339742302894592,18,0.15000000596046448,588.5,-0.03021233156323433
1737285445.3292139,12721,1737285445,328510567,,0.041031453758478165,0.034009650349617004,18,0.15000000596046448,588.5,0.022954825311899185
1737285445.4304345,12722,1737285445,429885623,,0.025645814836025238,0.020140644162893295,19,0.15000000596046448,588.5,0.015876468271017075
1737285445.53026,12723,1737285445,529447252,,0.043408796191215515,0.03454215079545975,19,0.15000000596046448,588.5,-0.026289982721209526
1737285445.6294315,12724,1737285445,628451438,,0.06834128499031067,0.035657718777656555,19,0.15000000596046448,588.510009765625,0.05830144137144089
1737285445.730135,12725,1737285445,729507493,,0.044811684638261795,0.031103825196623802,20,0.1599999964237213,588.510009765625,0.032258935272693634
1737285445.8312676,12726,1737285445,830427586,,0.032794903963804245,0.031256187707185745,20,0.15000000596046448,588.510009765625,-0.00992756336927414
1737285445.9307272,12727,1737285445,927539326,,0.03592672571539879,0.03589211776852608,20,0.15000000596046448,588.510009765625,0.0015766024589538574
1737285446.0301056,12728,1737285446,29535123,,0.044986292719841,0.03584883362054825,20,0.1599999964237213,588.510009765625,0.027177704498171806
1737285446.129157,12729,1737285446,128531252,,0.016810571774840355,0.015172714367508888,20,0.15000000596046448,588.510009765625,-0.007237687706947327
1737285446.2340991,12730,1737285446,229491308,,0.025776101276278496,0.02570999041199684,20,0.15000000596046448,588.510009765625,0.0018449147464707494
1737285446.329069,12731,1737285446,328576252,,0.01227964460849762,0.012163099832832813,20,0.15000000596046448,588.510009765625,0.0016877965535968542
1737285446.4357224,12732,1737285446,430617474,,0.03984226658940315,0.01430671289563179,19,0.15000000596046448,588.5199584960938,-0.037185002118349075
1737285446.5293312,12733,1737285446,528648326,,0.03550431504845619,0.029403964057564735,19,0.15000000596046448,588.5199584960938,0.019898824393749237
1737285446.6301725,12734,1737285446,629566085,,0.039161112159490585,0.005055154208093882,19,0.14000000059604645,588.5199584960938,-0.03883346542716026
1737285446.7281651,12735,1737285446,727656863,,0.024948960170149803,0.024900177493691444,19,0.14000000059604645,588.5199584960938,-0.001559404656291008
1737285446.829191,12736,1737285446,828647567,,0.02362024411559105,0.014336532913148403,19,0.14000000059604645,588.5199584960938,-0.018771782517433167
1737285446.9311285,12737,1737285446,930631011,,0.03062245436012745,0.029270006343722343,19,0.14000000059604645,588.5299682617188,0.009000079706311226
1737285447.0302985,12738,1737285447,29612844,,0.05978815630078316,0.02427319623529911,19,0.15000000596046448,588.5299682617188,0.05463913828134537
1737285447.129356,12739,1737285447,128739214,,0.045499786734580994,0.024208571761846542,19,0.14000000059604645,588.5299682617188,0.03852500021457672
1737285447.2285156,12740,1737285447,227751751,,0.05086743086576462,0.02108251303434372,19,0.15000000596046448,588.5299682617188,0.04629279673099518
1737285447.330433,12741,1737285447,329728714,,0.06499571353197098,0.052121687680482864,19,0.15000000596046448,588.5299682617188,-0.038830045610666275
1737285447.4294658,12742,1737285447,428707603,,0.06197219714522362,0.026958391070365906,20,0.1599999964237213,588.5299682617188,-0.05580142140388489
1737285447.5281658,12743,1737285447,527643048,,0.03915465623140335,0.032504841685295105,20,0.15000000596046448,588.5299682617188,-0.021829398348927498
1737285447.6274161,12744,1737285447,626784325,,0.08052665740251541,0.0652683824300766,20,0.15000000596046448,588.5299682617188,-0.04716545715928078
1737285447.7293353,12745,1737285447,728752973,,0.044642701745033264,0.03999830782413483,20,0.15000000596046448,588.5199584960938,-0.019826900213956833
1737285447.8459544,12746,1737285447,827877751,,0.08415563404560089,0.07143359631299973,20,0.1599999964237213,588.5299682617188,-0.04449057951569557
1737285447.933161,12747,1737285447,932749918,,0.08798385411500931,0.08388850837945938,20,0.15000000596046448,588.5299682617188,-0.026530690491199493
1737285448.028435,12748,1737285448,27755566,,0.10541343688964844,0.09364613890647888,20,0.15000000596046448,588.5299682617188,-0.048398278653621674
1737285448.130418,12749,1737285448,129862251,,0.06033468618988991,0.05765913426876068,20,0.15000000596046448,588.5299682617188,-0.017767904326319695
1737285448.2296643,12750,1737285448,228884140,,0.08332335948944092,0.07651564478874207,20,0.15000000596046448,588.5199584960938,0.03298693522810936
1737285448.3284602,12751,1737285448,327913288,,0.06864970922470093,0.06495872884988785,19,0.15000000596046448,588.5199584960938,0.022206883877515793
1737285448.4273698,12752,1737285448,426873529,,0.07311412692070007,0.0523771271109581,19,0.15000000596046448,588.510009765625,0.05101286619901657
1737285448.5296361,12753,1737285448,528893028,,0.06769406050443649,0.03741655498743057,18,0.15000000596046448,588.510009765625,0.05641353875398636
1737285448.6277487,12754,1737285448,626874399,,0.055849410593509674,0.05580313131213188,18,0.15000000596046448,588.5,0.002273149788379669
1737285448.7322748,12755,1737285448,731840676,,0.07463746517896652,0.06656743586063385,18,0.15000000596046448,588.489990234375,-0.033756908029317856
1737285448.8293033,12756,1737285448,827981695,,0.05359644070267677,0.05357575789093971,19,0.1599999964237213,588.489990234375,-0.001488635316491127
1737285448.9305203,12757,1737285448,929905899,,0.05299365520477295,0.05211535841226578,20,0.1599999964237213,588.5,0.009608160704374313
1737285449.0296538,12758,1737285449,28935954,,0.08852382749319077,0.07017719000577927,20,0.14000000059604645,588.5,0.053959522396326065
1737285449.1291313,12759,1737285449,127916658,,0.10525282472372055,0.08433620631694794,19,0.14000000059604645,588.5,0.06297268718481064
1737285449.2323718,12760,1737285449,231906269,,0.1263304203748703,0.08562762290239334,19,0.1599999964237213,588.5,0.09288317710161209
1737285449.3324752,12761,1737285449,331933806,,0.12800119817256927,0.10427448153495789,20,0.1599999964237213,588.5,0.07423705607652664
1737285449.4288125,12762,1737285449,427956695,,0.16710737347602844,0.12441710382699966,20,0.15000000596046448,588.510009765625,0.11155831813812256
1737285449.528665,12763,1737285449,527995102,,0.18282900750637054,0.13417288661003113,20,0.1599999964237213,588.5299682617188,0.12419372797012329
1737285449.6296887,12764,1737285449,629020676,,0.1823059767484665,0.1418721079826355,20,0.15000000596046448,588.5399780273438,0.11448919028043747
1737285449.7286448,12765,1737285449,728059343,,0.17679625749588013,0.16139060258865356,20,0.15000000596046448,588.5499877929688,0.07218027114868164
1737285449.8355377,12766,1737285449,835009731,,0.21863797307014465,0.1779842972755432,20,0.15000000596046448,588.5700073242188,0.12698093056678772
1737285449.9376743,12767,1737285449,937057194,,0.25575748085975647,0.19254910945892334,20,0.15000000596046448,588.5800170898438,0.1683351695537567
1737285450.0304964,12768,1737285450,30073324,,0.2587364614009857,0.22518223524093628,20,0.15000000596046448,588.5899658203125,0.12742653489112854
1737285450.1311712,12769,1737285450,130714565,,0.3072150945663452,0.29223713278770447,20,0.1599999964237213,588.5999755859375,0.09475533664226532
1737285450.2276938,12770,1737285450,227132564,,0.3788870573043823,0.3418656289577484,20,0.15000000596046448,588.6099853515625,0.16335022449493408
1737285450.3291004,12771,1737285450,328183527,,0.42756378650665283,0.3989672362804413,20,0.15000000596046448,588.6199951171875,0.15373985469341278
1737285450.4280086,12772,1737285450,427201490,,0.4786573648452759,0.46341171860694885,19,0.15000000596046448,588.6199951171875,0.11984343081712723
1737285450.5309155,12773,1737285450,530221583,,0.5271523594856262,0.5179827809333801,19,0.15000000596046448,588.6199951171875,0.09789513051509857
1737285450.6297636,12774,1737285450,629115194,,0.5556818246841431,0.5495771765708923,19,0.15000000596046448,588.6300048828125,0.08214124292135239
1737285450.7291808,12775,1737285450,728286786,,0.612695574760437,0.6076857447624207,19,0.1599999964237213,588.6300048828125,0.07819142937660217
1737285450.8313234,12776,1737285450,827251546,,0.6706668734550476,0.6571480631828308,19,0.1599999964237213,588.6400146484375,0.13397905230522156
1737285450.9315686,12777,1737285450,931096009,,0.685186505317688,0.6585083603858948,19,0.15000000596046448,588.6499633789062,0.18933361768722534
1737285451.030625,12778,1737285451,30159453,,0.7019466757774353,0.6941691040992737,19,0.15000000596046448,588.6699829101562,0.10420377552509308
1737285451.1296794,12779,1737285451,129117971,,0.6926140189170837,0.688060462474823,19,0.1599999964237213,588.6900024414062,0.07929020375013351
1737285451.2319689,12780,1737285451,231192138,,0.6668033003807068,0.663823127746582,19,0.15000000596046448,588.7000122070312,0.06297216564416885
1737285451.3290467,12781,1737285451,328231453,,0.6688738465309143,0.6562145352363586,19,0.15000000596046448,588.7000122070312,0.129517063498497
1737285451.4278486,12782,1737285451,427312897,,0.6628087162971497,0.6488324403762817,19,0.1599999964237213,588.7099609375,0.13539493083953857
1737285451.5318024,12783,1737285451,531225434,,0.6688350439071655,0.6522176861763,19,0.1599999964237213,588.719970703125,0.14816348254680634
1737285451.6289496,12784,1737285451,628280341,,0.6576672792434692,0.6543534994125366,19,0.15000000596046448,588.739990234375,0.0659368485212326
1737285451.728061,12785,1737285451,727372656,,0.6957718133926392,0.6774039268493652,19,0.15000000596046448,588.75,0.15881559252738953
1737285451.8300538,12786,1737285451,829382564,,0.724760890007019,0.7138444185256958,19,0.15000000596046448,588.760009765625,0.12531796097755432
1737285451.9355478,12787,1737285451,929358675,,0.7503123879432678,0.74636310338974,19,0.15000000596046448,588.7699584960938,0.07688215374946594
1737285452.0291462,12788,1737285452,28403397,,0.7915790677070618,0.7754198908805847,19,0.15000000596046448,588.7799682617188,0.15912677347660065
1737285452.127849,12789,1737285452,127315508,,0.8125882744789124,0.8097020983695984,19,0.15000000596046448,588.7899780273438,0.0684276819229126
1737285452.2316055,12790,1737285452,228371934,,0.8400259017944336,0.8375571370124817,20,0.15000000596046448,588.7999877929688,0.06435435265302658
1737285452.3282032,12791,1737285452,327442397,,0.8643336296081543,0.8553479313850403,20,0.1599999964237213,588.8200073242188,0.12430770695209503
1737285452.4292872,12792,1737285452,428427341,,0.8948642611503601,0.8883398771286011,21,0.15000000596046448,588.8300170898438,0.1078624427318573
1737285452.529137,12793,1737285452,528467322,,0.9164368510246277,0.9123345613479614,21,0.15000000596046448,588.8499755859375,0.08661530911922455
1737285452.628367,12794,1737285452,627549489,,0.9445643424987793,0.9320846199989319,21,0.15000000596046448,588.8699951171875,0.15303641557693481
1737285452.7302892,12795,1737285452,729521544,,0.9716018438339233,0.9611842036247253,21,0.15000000596046448,588.8800048828125,0.14189831912517548
1737285452.8293598,12796,1737285452,828441452,,0.980854868888855,0.9787359833717346,21,0.1599999964237213,588.8900146484375,0.06443752348423004
1737285452.9314945,12797,1737285452,930438192,,0.9942177534103394,0.9937597513198853,21,0.1599999964237213,588.8900146484375,0.03017238713800907
1737285453.0303476,12798,1737285453,29388341,,0.9958783388137817,0.9914388060569763,22,0.1599999964237213,588.8900146484375,0.09393061697483063
1737285453.1274638,12799,1737285453,126567711,,1.0116817951202393,1.005264163017273,22,0.1599999964237213,588.8900146484375,0.11377247422933578
1737285453.2296786,12800,1737285453,228593970,,1.0220144987106323,1.0184930562973022,21,0.1599999964237213,588.8900146484375,0.08476665616035461
1737285453.3282893,12801,1737285453,327591859,,1.0199013948440552,1.0183186531066895,21,0.1599999964237213,588.8999633789062,0.056798119097948074
1737285453.4290416,12802,1737285453,428556100,,1.0305911302566528,1.022409200668335,21,0.1599999964237213,588.9099731445312,0.12960413098335266
1737285453.5326474,12803,1737285453,531511674,,1.0473047494888306,1.045082449913025,20,0.15000000596046448,588.9199829101562,0.06818734854459763
1737285453.6284814,12804,1737285453,627538266,,1.0767616033554077,1.0687811374664307,20,0.15000000596046448,588.9299926757812,0.1308525800704956
1737285453.727308,12805,1737285453,726637266,,1.080352544784546,1.0759367942810059,19,0.14000000059604645,588.9500122070312,0.09757811576128006
1737285453.8292427,12806,1737285453,828571933,,1.088753581047058,1.0743006467819214,18,0.14000000059604645,588.969970703125,0.1768116056919098
1737285453.9327877,12807,1737285453,931584507,,1.0860140323638916,1.0829154253005981,19,0.15000000596046448,588.97998046875,0.08197885006666183
1737285454.0275586,12808,1737285454,26631692,,1.0919694900512695,1.0876753330230713,19,0.15000000596046448,589.0,0.09674669057130814
1737285454.1466715,12809,1737285454,129668821,,1.1151615381240845,1.1122560501098633,19,0.15000000596046448,589.010009765625,0.0804470106959343
1737285454.2290237,12810,1737285454,228630062,,1.1259944438934326,1.1243913173675537,20,0.1599999964237213,589.0199584960938,0.06006249412894249
1737285454.3284082,12811,1737285454,327626025,,1.12357497215271,1.1199915409088135,20,0.15000000596046448,589.0299682617188,0.08966285735368729
1737285454.4272346,12812,1737285454,426695488,,1.1000715494155884,1.0972520112991333,20,0.15000000596046448,589.0299682617188,0.07871197164058685
1737285454.531267,12813,1737285454,530646580,,1.083055019378662,1.081151008605957,19,0.1599999964237213,589.0299682617188,0.06419309973716736
1737285454.62748,12814,1737285454,626797803,,1.0542656183242798,1.052635669708252,19,0.1599999964237213,589.0199584960938,0.058602362871170044
1737285454.7279837,12815,1737285454,726810673,,1.0301518440246582,1.0231547355651855,19,0.1599999964237213,589.0199584960938,0.11986277997493744
1737285454.8293557,12816,1737285454,828806062,,1.0048456192016602,1.0001078844070435,19,0.15000000596046448,589.010009765625,0.0974624752998352
1737285454.936147,12817,1737285454,935668839,,0.9719834327697754,0.9576055407524109,19,0.1599999964237213,589.0199584960938,0.16656363010406494
1737285455.0283499,12818,1737285455,27806673,,0.9394865036010742,0.9295018911361694,19,0.15000000596046448,589.0399780273438,0.13660576939582825
1737285455.1272752,12819,1737285455,126743487,,0.8746755719184875,0.8647851347923279,19,0.15000000596046448,589.0499877929688,0.13116416335105896
1737285455.2295651,12820,1737285455,228780284,,0.8160027861595154,0.7956510186195374,19,0.1599999964237213,589.0599975585938,0.18110774457454681
1737285455.3283072,12821,1737285455,327759117,,0.7416133284568787,0.7187250256538391,19,0.15000000596046448,589.0700073242188,0.1828237622976303
1737285455.4324524,12822,1737285455,431784950,,0.6348790526390076,0.6198939681053162,19,0.15000000596046448,589.0800170898438,0.13712352514266968
1737285455.5342543,12823,1737285455,533847450,,0.5162760019302368,0.4919534921646118,19,0.1599999964237213,589.0800170898438,0.1565970778465271
1737285455.6353154,12824,1737285455,634907913,,0.40898969769477844,0.38460806012153625,19,0.1599999964237213,589.0899658203125,0.13910141587257385
1737285455.7354877,12825,1737285455,734851506,,0.30298370122909546,0.2825063169002533,19,0.1599999964237213,589.0999755859375,0.10949569940567017
1737285455.8344882,12826,1737285455,833960061,,0.19874495267868042,0.16126638650894165,19,0.15000000596046448,589.0999755859375,0.116158127784729
1737285455.9275596,12827,1737285455,926884357,,0.125277578830719,0.05511629953980446,19,0.15000000596046448,589.0999755859375,0.1125018447637558
1737285456.026475,12828,1737285456,25849450,,0.17459452152252197,0.07050145417451859,18,0.1599999964237213,589.1099853515625,0.15972724556922913
1737285456.1285117,12829,1737285456,127978931,,0.23580770194530487,0.18823669850826263,18,0.1599999964237213,589.1099853515625,0.14202894270420074
1737285456.2283497,12830,1737285456,227928098,,0.3740323781967163,0.3261970579624176,18,0.15000000596046448,589.1199951171875,0.18301832675933838
1737285456.3275948,12831,1737285456,326971357,,0.45466578006744385,0.4233660101890564,18,0.15000000596046448,589.1400146484375,0.16577759385108948
1737285456.428823,12832,1737285456,427948542,,0.5571293830871582,0.5373921990394592,19,0.15000000596046448,589.1599731445312,0.14697887003421783
1737285456.5293741,12833,1737285456,527226801,,0.6861274242401123,0.6642695665359497,19,0.14000000059604645,589.1799926757812,0.17180460691452026
1737285456.6314971,12834,1737285456,629622264,,0.782514750957489,0.7619076371192932,18,0.15000000596046448,589.1900024414062,0.17839866876602173
1737285456.7303207,12835,1737285456,729067912,,0.8815867304801941,0.873820424079895,18,0.15000000596046448,589.2000122070312,0.11676013469696045
1737285456.828449,12836,1737285456,827086598,,0.9884940981864929,0.9728846549987793,18,0.14000000059604645,589.2000122070312,0.1749744713306427
1737285456.9352233,12837,1737285456,933514949,,1.0529626607894897,1.0474351644515991,18,0.14000000059604645,589.2000122070312,0.10775057226419449
1737285457.0286205,12838,1737285457,27985042,,1.1308468580245972,1.119952917098999,18,0.15000000596046448,589.2000122070312,0.15658918023109436
1737285457.134554,12839,1737285457,130027579,,1.1716582775115967,1.1684154272079468,19,0.1599999964237213,589.2099609375,0.0871124267578125
1737285457.229801,12840,1737285457,229115949,,1.217363715171814,1.2062406539916992,19,0.15000000596046448,589.219970703125,0.1641886681318283
1737285457.328791,12841,1737285457,328124671,,1.2135071754455566,1.2050725221633911,19,0.15000000596046448,589.25,0.14282868802547455
1737285457.427597,12842,1737285457,427036245,,1.214978575706482,1.2064257860183716,20,0.1599999964237213,589.2699584960938,0.14390945434570312
1737285457.5279133,12843,1737285457,527173097,,1.1805349588394165,1.1708263158798218,19,0.15000000596046448,589.2899780273438,0.1510908007621765
1737285457.6290152,12844,1737285457,628108486,,1.1540765762329102,1.1484043598175049,19,0.15000000596046448,589.3200073242188,0.11428099870681763
1737285457.728687,12845,1737285457,726755375,,1.1760658025741577,1.1692795753479004,19,0.15000000596046448,589.3399658203125,0.1261589527130127
1737285457.8290446,12846,1737285457,828226745,,1.180747389793396,1.1736537218093872,19,0.15000000596046448,589.3699951171875,0.12923379242420197
1737285457.9290767,12847,1737285457,928242227,,1.205363392829895,1.1970386505126953,19,0.14000000059604645,589.3900146484375,0.14141811430454254
1737285458.027313,12848,1737285458,26241301,,1.2273327112197876,1.2257243394851685,19,0.14000000059604645,589.4099731445312,0.06281124800443649
1737285458.1289809,12849,1737285458,128175134,,1.2649213075637817,1.2640247344970703,19,0.14000000059604645,589.4299926757812,0.04761682450771332
1737285458.2281826,12850,1737285458,227202356,,1.3000915050506592,1.2991427183151245,19,0.14000000059604645,589.4500122070312,0.049659714102745056
1737285458.3273175,12851,1737285458,326305282,,1.3142249584197998,1.3086334466934204,19,0.14000000059604645,589.469970703125,0.1211022436618805
1737285458.4307406,12852,1737285458,430155597,,1.3050282001495361,1.3050063848495483,19,0.15000000596046448,589.47998046875,-0.007541663944721222
1737285458.528283,12853,1737285458,527339726,,1.308694839477539,1.306168556213379,19,0.15000000596046448,589.489990234375,0.08127842843532562
1737285458.6289532,12854,1737285458,628305930,,1.3067110776901245,1.3059453964233398,19,0.15000000596046448,589.510009765625,0.04472174495458603
1737285458.7283194,12855,1737285458,727368374,,1.302227258682251,1.302063226699829,19,0.15000000596046448,589.5299682617188,0.020668894052505493
1737285458.8303146,12856,1737285458,829372541,,1.3154574632644653,1.3151524066925049,19,0.15000000596046448,589.5499877929688,-0.02833223156630993
1737285458.9299853,12857,1737285458,929345782,,1.3323543071746826,1.3306536674499512,19,0.1599999964237213,589.5599975585938,-0.0672948807477951
1737285459.0357132,12858,1737285459,28346133,,1.3557533025741577,1.3554075956344604,20,0.1599999964237213,589.5599975585938,-0.03061492182314396
1737285459.1277432,12859,1737285459,127313189,,1.3642046451568604,1.3639699220657349,19,0.15000000596046448,589.5599975585938,-0.02531096339225769
1737285459.2289426,12860,1737285459,228370929,,1.3948979377746582,1.3948974609375,19,0.15000000596046448,589.5599975585938,-0.0011595562100410461
1737285459.328995,12861,1737285459,328400429,,1.4154596328735352,1.4154388904571533,19,0.15000000596046448,589.5599975585938,0.007663704454898834
1737285459.4281015,12862,1737285459,427414503,,1.4528261423110962,1.4528096914291382,19,0.15000000596046448,589.5599975585938,-0.0068890685215592384
1737285459.5273619,12863,1737285459,526438448,,1.492715835571289,1.4921491146087646,19,0.1599999964237213,589.5599975585938,-0.04112799093127251
1737285459.6292083,12864,1737285459,628490689,,1.5315585136413574,1.5310461521148682,19,0.1599999964237213,589.5499877929688,-0.039616312831640244
1737285459.7281795,12865,1737285459,727369540,,1.562277913093567,1.5619614124298096,20,0.17000000178813934,589.5299682617188,-0.03144773468375206
1737285459.8301535,12866,1737285459,829484929,,1.5968064069747925,1.5955181121826172,20,0.1599999964237213,589.5199584960938,0.06412990391254425
1737285459.9313173,12867,1737285459,930397614,,1.635110855102539,1.634704351425171,20,0.1599999964237213,589.5199584960938,0.03645588457584381
1737285460.027414,12868,1737285460,26531059,,1.652699589729309,1.652340054512024,20,0.1599999964237213,589.5399780273438,0.034467801451683044
1737285460.12733,12869,1737285460,126491818,,1.6851502656936646,1.6845439672470093,19,0.1599999964237213,589.5399780273438,0.04520254209637642
1737285460.2284288,12870,1737285460,227477040,,1.7257481813430786,1.7201809883117676,19,0.1599999964237213,589.5499877929688,0.1385081708431244
1737285460.3285797,12871,1737285460,327472577,,1.7534669637680054,1.7477450370788574,18,0.15000000596046448,589.5599975585938,0.14153863489627838
1737285460.4302037,12872,1737285460,429504688,,1.790178894996643,1.7818604707717896,18,0.15000000596046448,589.5800170898438,0.17237639427185059
1737285460.5320191,12873,1737285460,530453595,,1.8124487400054932,1.8063212633132935,19,0.1599999964237213,589.5899658203125,0.14890848100185394
1737285460.6313467,12874,1737285460,630497855,,1.8479992151260376,1.8417017459869385,19,0.15000000596046448,589.5999755859375,0.15243206918239594
1737285460.7296712,12875,1737285460,728483336,,1.8555415868759155,1.8502694368362427,19,0.15000000596046448,589.6099853515625,0.1397773027420044
1737285460.828851,12876,1737285460,827539058,,1.8780159950256348,1.8741395473480225,20,0.1599999964237213,589.6199951171875,0.1206045001745224
1737285460.9279938,12877,1737285460,927477966,,1.9025903940200806,1.897086262702942,20,0.1599999964237213,589.6300048828125,0.144616961479187
1737285461.0358593,12878,1737285461,34539540,,1.9162766933441162,1.908816933631897,19,0.15000000596046448,589.6300048828125,0.1689225733280182
1737285461.1273913,12879,1737285461,126613373,,1.906302571296692,1.9035896062850952,19,0.15000000596046448,589.6400146484375,0.10166364163160324
1737285461.2382617,12880,1737285461,237320817,,1.9114562273025513,1.9081783294677734,19,0.15000000596046448,589.6400146484375,0.11189503222703934
1737285461.3353105,12881,1737285461,334624336,,1.9298951625823975,1.9271794557571411,19,0.15000000596046448,589.6499633789062,0.1023498922586441
1737285461.4282131,12882,1737285461,427605910,,1.9617902040481567,1.9551782608032227,19,0.15000000596046448,589.6699829101562,0.1609293669462204
1737285461.532293,12883,1737285461,531728854,,1.9665502309799194,1.9641942977905273,19,0.1599999964237213,589.6900024414062,0.09623287618160248
1737285461.6338406,12884,1737285461,628116039,,1.9712870121002197,1.9697123765945435,19,0.15000000596046448,589.719970703125,0.07877392321825027
1737285461.7291741,12885,1737285461,727674595,,1.987677812576294,1.9855550527572632,19,0.15000000596046448,589.72998046875,0.09183964133262634
1737285461.8283558,12886,1737285461,827106835,,1.990921974182129,1.9873534440994263,19,0.15000000596046448,589.75,0.11915246397256851
1737285461.9293551,12887,1737285461,928776335,,2.008019208908081,2.0015480518341064,19,0.15000000596046448,589.760009765625,0.1610792577266693
1737285462.0284123,12888,1737285462,27771224,,1.9757250547409058,1.9704091548919678,18,0.14000000059604645,589.7699584960938,0.14483585953712463
1737285462.1276698,12889,1737285462,126759168,,1.9402101039886475,1.9390857219696045,18,0.15000000596046448,589.7899780273438,0.06604532152414322
1737285462.228851,12890,1737285462,227763076,,1.894643783569336,1.894240379333496,19,0.15000000596046448,589.7999877929688,0.0390934981405735
1737285462.3303692,12891,1737285462,326717668,,1.8468133211135864,1.8450920581817627,19,0.14000000059604645,589.8099975585938,0.07971594482660294
1737285462.429734,12892,1737285462,428769076,,1.794547438621521,1.793242335319519,19,0.15000000596046448,589.8099975585938,0.06842779368162155
1737285462.53259,12893,1737285462,530346890,,1.7511366605758667,1.7492083311080933,19,0.15000000596046448,589.8200073242188,0.0821579098701477
1737285462.6284761,12894,1737285462,626818853,,1.701863408088684,1.6980421543121338,19,0.15000000596046448,589.8200073242188,0.11398075520992279
1737285462.7281325,12895,1737285462,725909724,,1.6796799898147583,1.67491614818573,19,0.15000000596046448,589.8200073242188,0.12641528248786926
1737285462.8279724,12896,1737285462,826850242,,1.6290329694747925,1.624042272567749,19,0.1599999964237213,589.8300170898438,0.127416729927063
1737285462.9288735,12897,1737285462,926786057,,1.5722336769104004,1.564084529876709,19,0.15000000596046448,589.8300170898438,0.1598694920539856
1737285463.0286326,12898,1737285463,25696038,,1.5148727893829346,1.5085761547088623,19,0.15000000596046448,589.8399658203125,0.137976735830307
1737285463.134384,12899,1737285463,128216723,,1.4376739263534546,1.4358159303665161,19,0.1599999964237213,589.8499755859375,0.07306608557701111
1737285463.2279158,12900,1737285463,226973242,,1.357949137687683,1.3556444644927979,19,0.15000000596046448,589.8599853515625,0.07908226549625397
1737285463.3318949,12901,1737285463,330901316,,1.2757484912872314,1.27091646194458,19,0.15000000596046448,589.8800048828125,0.11092972010374069
1737285463.4290104,12902,1737285463,428011112,,1.1939051151275635,1.1901735067367554,19,0.15000000596046448,589.8900146484375,0.09432108700275421
1737285463.5303702,12903,1737285463,529879168,,1.103247880935669,1.0940839052200317,19,0.15000000596046448,589.8999633789062,0.14190223813056946
1737285463.633012,12904,1737285463,625924019,,1.0178786516189575,1.0144747495651245,19,0.1599999964237213,589.9099731445312,0.08317454159259796
1737285463.7311387,12905,1737285463,729045649,,0.9148784875869751,0.9125111699104309,19,0.1599999964237213,589.9199829101562,0.0657721534371376
1737285463.8279696,12906,1737285463,826953797,,0.8128266334533691,0.8041456937789917,19,0.15000000596046448,589.9299926757812,0.11847693473100662
1737285463.927747,12907,1737285463,926996908,,0.7121133208274841,0.7062681913375854,19,0.15000000596046448,589.9400024414062,0.09105247259140015
1737285464.0291145,12908,1737285464,28058871,,0.6023021340370178,0.5956714153289795,19,0.1599999964237213,589.9400024414062,0.08912549167871475
1737285464.1363032,12909,1737285464,128028260,,0.47971823811531067,0.47970160841941833,19,0.17000000178813934,589.9400024414062,0.003991663455963135
1737285464.2277303,12910,1737285464,227030501,,0.3793932795524597,0.3651901185512543,19,0.1599999964237213,589.9299926757812,0.10283682495355606
1737285464.3285494,12911,1737285464,328018223,,0.2523234486579895,0.23763038218021393,19,0.15000000596046448,589.9299926757812,0.08484643697738647
1737285464.4284058,12912,1737285464,427041612,,0.19606123864650726,0.1137753427028656,18,0.1599999964237213,589.9299926757812,0.1596720963716507
1737285464.5280702,12913,1737285464,527123704,,0.18659046292304993,0.01669306308031082,18,0.1599999964237213,589.9299926757812,0.18584224581718445
1737285464.6316235,12914,1737285464,631026019,,0.2121354341506958,0.14526541531085968,18,0.17000000178813934,589.9400024414062,0.1545943021774292
1737285464.7289956,12915,1737285464,728170556,,0.3024251163005829,0.2622244358062744,18,0.17000000178813934,589.9400024414062,0.1506628543138504
1737285464.8278716,12916,1737285464,827179482,,0.41012370586395264,0.3939816951751709,19,0.1599999964237213,589.9500122070312,0.11392929404973984
1737285464.9280457,12917,1737285464,927203889,,0.5302078723907471,0.5147809982299805,19,0.1599999964237213,589.9599609375,0.12696805596351624
1737285465.0291479,12918,1737285465,28321963,,0.6573600769042969,0.636855959892273,18,0.15000000596046448,589.969970703125,0.1629011034965515
1737285465.1281161,12919,1737285465,127236926,,0.7748608589172363,0.7575749158859253,18,0.17000000178813934,589.969970703125,0.16275638341903687
1737285465.228135,12920,1737285465,227254444,,0.8639726042747498,0.8513898849487305,19,0.17000000178813934,589.969970703125,0.14691466093063354
1737285465.3280332,12921,1737285465,327244870,,0.9607930779457092,0.9430230259895325,18,0.1599999964237213,589.97998046875,0.1839318573474884
1737285465.4275885,12922,1737285465,427184000,,1.019894003868103,1.0023798942565918,18,0.1599999964237213,589.989990234375,0.1881970316171646
1737285465.5276675,12923,1737285465,527195963,,1.0521656274795532,1.0310252904891968,19,0.1599999964237213,589.989990234375,0.20985545217990875
1737285465.6267798,12924,1737285465,626195722,,1.0627802610397339,1.0565911531448364,19,0.1599999964237213,590.0,0.11452894657850266
1737285465.7290552,12925,1737285465,728203685,,1.034584641456604,1.0191526412963867,19,0.1599999964237213,590.0,0.1780262142419815
1737285465.8279324,12926,1737285465,827269537,,1.0264604091644287,1.006345510482788,19,0.1599999964237213,590.0,0.2022123783826828
1737285465.9271796,12927,1737285465,926282814,,0.9879399538040161,0.9709293842315674,20,0.1599999964237213,590.010009765625,0.1825418621301651
1737285466.0282261,12928,1737285466,27351925,,0.983453094959259,0.9466379284858704,19,0.1599999964237213,590.0199584960938,0.26656442880630493
1737285466.1352794,12929,1737285466,132159148,,0.9552239179611206,0.927186906337738,19,0.1599999964237213,590.0299682617188,0.22973306477069855
1737285466.2290297,12930,1737285466,228367666,,0.9319027662277222,0.919572114944458,19,0.17000000178813934,590.0399780273438,0.15109598636627197
1737285466.3282223,12931,1737285466,327385518,,0.9149408340454102,0.8814316987991333,19,0.1599999964237213,590.0399780273438,0.24534651637077332
1737285466.4348352,12932,1737285466,434310203,,0.8783224821090698,0.8570988774299622,19,0.1599999964237213,590.0499877929688,0.1919163018465042
1737285466.527009,12933,1737285466,526319333,,0.8119704127311707,0.7975056767463684,19,0.1599999964237213,590.0599975585938,0.15257993340492249
1737285466.636164,12934,1737285466,635351314,,0.7560533881187439,0.7059187293052673,19,0.15000000596046448,590.0800170898438,0.2707313895225525
1737285466.7354286,12935,1737285466,734402036,,0.666263997554779,0.6387498378753662,19,0.1599999964237213,590.0899658203125,0.18948952853679657
1737285466.828322,12936,1737285466,827443999,,0.6050337553024292,0.545178234577179,19,0.1599999964237213,590.0999755859375,0.26238617300987244
1737285466.9282174,12937,1737285466,927474388,,0.5137492418289185,0.4727414846420288,19,0.1599999964237213,590.1099853515625,0.20113126933574677
1737285467.0280805,12938,1737285467,27374758,,0.4293454587459564,0.40463489294052124,19,0.1599999964237213,590.1199951171875,0.14355531334877014
1737285467.128186,12939,1737285467,127399443,,0.405059278011322,0.33877626061439514,19,0.1599999964237213,590.1400146484375,0.22204428911209106
1737285467.229237,12940,1737285467,228511906,,0.34655675292015076,0.29474300146102905,19,0.15000000596046448,590.1499633789062,0.1822858452796936
1737285467.3283165,12941,1737285467,327455869,,0.376633882522583,0.2535662353038788,18,0.15000000596046448,590.1699829101562,0.27849099040031433
1737285467.4273288,12942,1737285467,426464351,,0.2829313278198242,0.23470669984817505,18,0.1599999964237213,590.1799926757812,0.1579965502023697
1737285467.5290666,12943,1737285467,528486221,,0.2455955296754837,0.18501240015029907,18,0.1599999964237213,590.2000122070312,0.1615164875984192
1737285467.628128,12944,1737285467,627458480,,0.21728920936584473,0.17607255280017853,19,0.1599999964237213,590.2000122070312,0.1273304969072342
1737285467.7283943,12945,1737285467,727393091,,0.23430918157100677,0.14520272612571716,19,0.15000000596046448,590.219970703125,0.18389388918876648
1737285467.829261,12946,1737285467,828564091,,0.2471649944782257,0.12043660134077072,19,0.1599999964237213,590.22998046875,0.21583688259124756
1737285467.9313645,12947,1737285467,930612184,,0.2030797004699707,0.09952498227357864,19,0.1599999964237213,590.239990234375,0.17702016234397888
1737285468.027434,12948,1737285468,26552813,,0.18328283727169037,0.09834907203912735,19,0.1599999964237213,590.260009765625,0.1546611189842224
1737285468.1271384,12949,1737285468,126569702,,0.22659556567668915,0.0754222571849823,19,0.1599999964237213,590.2699584960938,0.21367506682872772
1737285468.2312357,12950,1737285468,230519665,,0.21569447219371796,0.0809662863612175,18,0.15000000596046448,590.2799682617188,0.1999213993549347
1737285468.3283794,12951,1737285468,327664387,,0.18588843941688538,0.05419445410370827,18,0.15000000596046448,590.2999877929688,0.17781302332878113
1737285468.4284513,12952,1737285468,427026109,,0.19296090304851532,0.06256646662950516,17,0.15000000596046448,590.3099975585938,0.18253588676452637
1737285468.5293353,12953,1737285468,528733109,,0.1884312778711319,0.0576130747795105,18,0.17000000178813934,590.3200073242188,0.17940758168697357
1737285468.6300254,12954,1737285468,629576035,,0.13641104102134705,0.07858330011367798,18,0.1599999964237213,590.3300170898438,0.11150172352790833
1737285468.7300339,12955,1737285468,729598053,,0.1726154237985611,0.036690231412649155,19,0.1599999964237213,590.3499755859375,0.16867102682590485
1737285468.831059,12956,1737285468,830631627,,0.1488531529903412,0.07060497999191284,19,0.1599999964237213,590.3699951171875,0.1310427337884903
1737285468.9300752,12957,1737285468,929671387,,0.14254048466682434,0.0837843045592308,19,0.1599999964237213,590.3800048828125,0.11531686037778854
1737285469.0293164,12958,1737285469,28802424,,0.15524819493293762,0.06986749917268753,19,0.15000000596046448,590.3900146484375,0.13863813877105713
1737285469.1282823,12959,1737285469,127812035,,0.14522822201251984,0.07778720557689667,18,0.15000000596046448,590.3999633789062,0.1226392611861229
1737285469.227438,12960,1737285469,226813349,,0.2013402283191681,0.10700566321611404,18,0.15000000596046448,590.4199829101562,0.1705510914325714
1737285469.3272047,12961,1737285469,326760590,,0.1656133234500885,0.1340777724981308,18,0.1599999964237213,590.4199829101562,0.09721586108207703
1737285469.429409,12962,1737285469,428846886,,0.2535054385662079,0.20192553102970123,18,0.1599999964237213,590.4299926757812,0.1532680094242096
1737285469.5283644,12963,1737285469,527855201,,0.26550379395484924,0.2601779103279114,19,0.1599999964237213,590.4400024414062,0.05291244760155678
1737285469.6273386,12964,1737285469,626780757,,0.35007351636886597,0.323393851518631,19,0.1599999964237213,590.4400024414062,0.1340443342924118
1737285469.7274559,12965,1737285469,726879442,,0.42346808314323425,0.39190709590911865,19,0.1599999964237213,590.4500122070312,0.1604183316230774
1737285469.8282733,12966,1737285469,827795664,,0.4718373119831085,0.45418867468833923,19,0.1599999964237213,590.469970703125,0.1278400868177414
1737285469.9282744,12967,1737285469,927902442,,0.5630082488059998,0.5446577668190002,19,0.1599999964237213,590.47998046875,0.1425701379776001
1737285470.0273228,12968,1737285470,26925293,,0.6240767240524292,0.607866644859314,19,0.17000000178813934,590.489990234375,0.14131487905979156
1737285470.127793,12969,1737285470,126858219,,0.7000848054885864,0.6833429336547852,19,0.1599999964237213,590.5,0.1521879881620407
1737285470.2297366,12970,1737285470,228902719,,0.7878091335296631,0.7690563201904297,19,0.1599999964237213,590.5199584960938,0.17086759209632874
