Time,header.seq,header.stamp.secs,header.stamp.nsecs,header.frame_id,status.status,status.service,latitude,longitude,altitude,position_covariance_0,position_covariance_1,position_covariance_2,position_covariance_3,position_covariance_4,position_covariance_5,position_covariance_6,position_covariance_7,position_covariance_8,position_covariance_type
1737285429.1284769,12541,1737285428,826811712,base_link,0,1,33.6371275,72.9912543,541.7360557368764,1.077444,0.0,0.0,0.0,1.077444,0.0,0.0,0.0,2.019241,2
1737285429.1285567,12542,1737285428,924809664,base_link,0,1,33.6371275,72.9912543,541.7460557368764,1.077444,0.0,0.0,0.0,1.077444,0.0,0.0,0.0,2.019241,2
1737285429.128779,12543,1737285429,25805056,base_link,0,1,33.6371275,72.9912543,541.7560557368764,1.083681,0.0,0.0,0.0,1.083681,0.0,0.0,0.0,2.024929,2
1737285429.1290696,12544,1737285429,126797888,base_link,0,1,33.6371275,72.9912543,541.7660557368764,1.083681,0.0,0.0,0.0,1.083681,0.0,0.0,0.0,2.024929,2
1737285429.227363,12545,1737285429,224794816,base_link,0,1,33.6371275,72.9912543,541.7760557368764,1.089936,0.0,0.0,0.0,1.089936,0.0,0.0,0.0,2.033476,2
1737285429.327594,12546,1737285429,324791232,base_link,0,1,33.6371276,72.9912543,541.7760563498317,1.089936,0.0,0.0,0.0,1.089936,0.0,0.0,0.0,2.033476,2
1737285429.434623,12547,1737285429,432787392,base_link,0,1,33.6371276,72.9912543,541.7760563498317,1.0962089999999998,0.0,0.0,0.0,1.0962089999999998,0.0,0.0,0.0,2.0391839999999997,2
1737285429.532935,12548,1737285429,530784832,base_link,0,1,33.6371276,72.9912543,541.7660563498317,1.0962089999999998,0.0,0.0,0.0,1.0962089999999998,0.0,0.0,0.0,2.0391839999999997,2
1737285429.6328301,12549,1737285429,629780992,base_link,0,1,33.6371276,72.9912543,541.7660563498317,1.104601,0.0,0.0,0.0,1.104601,0.0,0.0,0.0,2.047761,2
1737285429.728786,12550,1737285429,725775872,base_link,0,1,33.6371276,72.9912543,541.7660563498317,1.104601,0.0,0.0,0.0,1.104601,0.0,0.0,0.0,2.047761,2
1737285429.8284733,12551,1737285429,825769216,base_link,0,1,33.6371277,72.9912543,541.766056962787,1.108809,0.0,0.0,0.0,1.108809,0.0,0.0,0.0,2.0534890000000003,2
1737285429.9285753,12552,1737285429,924764352,base_link,0,1,33.6371277,72.9912544,541.7560573599666,1.108809,0.0,0.0,0.0,1.108809,0.0,0.0,0.0,2.0534890000000003,2
1737285430.02854,12553,1737285430,25755648,base_link,0,1,33.6371277,72.9912544,541.7560573599666,1.1151360000000001,0.0,0.0,0.0,1.1151360000000001,0.0,0.0,0.0,2.062096,2
1737285430.1281235,12554,1737285430,125748736,base_link,0,1,33.6371277,72.9912543,541.7360569627871,1.1151360000000001,0.0,0.0,0.0,1.1151360000000001,0.0,0.0,0.0,2.062096,2
1737285430.2267776,12555,1737285430,224745920,base_link,0,1,33.6371277,72.9912543,541.7160569627871,1.121481,0.0,0.0,0.0,1.121481,0.0,0.0,0.0,2.0707210000000003,2
1737285430.327386,12556,1737285430,324740288,base_link,0,1,33.6371277,72.9912543,541.7160569627871,1.121481,0.0,0.0,0.0,1.121481,0.0,0.0,0.0,2.0707210000000003,2
1737285430.4261603,12557,1737285430,424734656,base_link,0,1,33.6371277,72.9912542,541.7060565656075,1.1236000000000002,0.0,0.0,0.0,1.1236000000000002,0.0,0.0,0.0,2.0764810000000002,2
1737285430.5284882,12558,1737285430,525730304,base_link,0,1,33.6371277,72.9912541,541.7160561684282,1.1236000000000002,0.0,0.0,0.0,1.1236000000000002,0.0,0.0,0.0,2.0764810000000002,2
1737285430.6280115,12559,1737285430,624726208,base_link,0,1,33.6371277,72.9912541,541.7260561684282,1.125721,0.0,0.0,0.0,1.125721,0.0,0.0,0.0,2.082249,2
1737285430.7283213,12560,1737285430,725722112,base_link,0,1,33.6371276,72.9912541,541.7360555554728,1.125721,0.0,0.0,0.0,1.125721,0.0,0.0,0.0,2.082249,2
1737285430.8294282,12561,1737285430,826717504,base_link,0,1,33.6371276,72.991254,541.7460551582934,1.125721,0.0,0.0,0.0,1.125721,0.0,0.0,0.0,2.085136,2
1737285430.9320903,12562,1737285430,927710592,base_link,0,1,33.6371276,72.991254,541.7460551582934,1.125721,0.0,0.0,0.0,1.125721,0.0,0.0,0.0,2.085136,2
1737285431.0260193,12563,1737285431,24706496,base_link,0,1,33.6371276,72.991254,541.7560551582934,1.127844,0.0,0.0,0.0,1.127844,0.0,0.0,0.0,2.088025,2
1737285431.1285548,12564,1737285431,125693952,base_link,0,1,33.6371276,72.9912539,541.756054761114,1.127844,0.0,0.0,0.0,1.127844,0.0,0.0,0.0,2.088025,2
1737285431.227233,12565,1737285431,224688832,base_link,0,1,33.6371277,72.9912539,541.7660553740691,1.1299689999999998,0.0,0.0,0.0,1.1299689999999998,0.0,0.0,0.0,2.0938090000000003,2
1737285431.3281755,12566,1737285431,326681152,base_link,0,1,33.6371277,72.9912539,541.7660553740691,1.1299689999999998,0.0,0.0,0.0,1.1299689999999998,0.0,0.0,0.0,2.0938090000000003,2
1737285431.4272304,12567,1737285431,424673984,base_link,0,1,33.6371277,72.9912539,541.7660553740691,1.1320960000000002,0.0,0.0,0.0,1.1320960000000002,0.0,0.0,0.0,2.0938090000000003,2
1737285431.5282319,12568,1737285431,526670144,base_link,0,1,33.6371277,72.9912539,541.7760553740691,1.1320960000000002,0.0,0.0,0.0,1.1320960000000002,0.0,0.0,0.0,2.0938090000000003,2
1737285431.6260865,12569,1737285431,624666560,base_link,0,1,33.6371277,72.991254,541.7760557712486,1.1320960000000002,0.0,0.0,0.0,1.1320960000000002,0.0,0.0,0.0,2.096704,2
1737285431.7283514,12570,1737285431,726659904,base_link,0,1,33.6371277,72.991254,541.7860557712486,1.1320960000000002,0.0,0.0,0.0,1.1320960000000002,0.0,0.0,0.0,2.096704,2
1737285431.8272786,12571,1737285431,825655040,base_link,0,1,33.6371277,72.991254,541.7960557712486,1.1342249999999998,0.0,0.0,0.0,1.1342249999999998,0.0,0.0,0.0,2.0996010000000003,2
1737285431.92866,12572,1737285431,926643776,base_link,0,1,33.6371278,72.9912541,541.7960567813834,1.1342249999999998,0.0,0.0,0.0,1.1342249999999998,0.0,0.0,0.0,2.0996010000000003,2
1737285432.0273697,12573,1737285432,25638912,base_link,0,1,33.6371278,72.9912541,541.7960567813834,1.1363560000000001,0.0,0.0,0.0,1.1363560000000001,0.0,0.0,0.0,2.0996010000000003,2
1737285432.1308436,12574,1737285432,126636352,base_link,0,1,33.6371278,72.9912541,541.7960567813834,1.1363560000000001,0.0,0.0,0.0,1.1363560000000001,0.0,0.0,0.0,2.0996010000000003,2
1737285432.2272284,12575,1737285432,225632512,base_link,0,1,33.6371277,72.9912541,541.7960561684281,1.1363560000000001,0.0,0.0,0.0,1.1363560000000001,0.0,0.0,0.0,2.0996010000000003,2
1737285432.3283126,12576,1737285432,326625856,base_link,0,1,33.6371277,72.9912541,541.7960561684281,1.1363560000000001,0.0,0.0,0.0,1.1363560000000001,0.0,0.0,0.0,2.0996010000000003,2
1737285432.427191,12577,1737285432,425620736,base_link,0,1,33.6371277,72.9912541,541.7960561684281,1.1363560000000001,0.0,0.0,0.0,1.1363560000000001,0.0,0.0,0.0,2.0996010000000003,2
1737285432.5265036,12578,1737285432,524620736,base_link,0,1,33.6371277,72.9912541,541.7960561684281,1.1363560000000001,0.0,0.0,0.0,1.1363560000000001,0.0,0.0,0.0,2.0996010000000003,2
1737285432.6272597,12579,1737285432,625617408,base_link,0,1,33.6371277,72.9912541,541.7860561684281,1.1384889999999999,0.0,0.0,0.0,1.1384889999999999,0.0,0.0,0.0,2.0996010000000003,2
1737285432.7264345,12580,1737285432,724612800,base_link,0,1,33.6371277,72.9912542,541.7860565656075,1.1384889999999999,0.0,0.0,0.0,1.1384889999999999,0.0,0.0,0.0,2.0996010000000003,2
1737285432.8272762,12581,1737285432,825609728,base_link,0,1,33.6371278,72.9912542,541.7760571785628,1.1384889999999999,0.0,0.0,0.0,1.1384889999999999,0.0,0.0,0.0,2.0996010000000003,2
1737285432.9269288,12582,1737285432,924605632,base_link,0,1,33.6371278,72.9912543,541.7760575757425,1.1384889999999999,0.0,0.0,0.0,1.1384889999999999,0.0,0.0,0.0,2.0996010000000003,2
1737285433.0284116,12583,1737285433,26601536,base_link,0,1,33.6371278,72.9912543,541.7660575757425,1.1384889999999999,0.0,0.0,0.0,1.1384889999999999,0.0,0.0,0.0,2.1025,2
1737285433.1272907,12584,1737285433,125594880,base_link,0,1,33.6371278,72.9912544,541.7660579729221,1.1384889999999999,0.0,0.0,0.0,1.1384889999999999,0.0,0.0,0.0,2.1025,2
1737285433.2263973,12585,1737285433,224589504,base_link,0,1,33.6371278,72.9912544,541.7660579729221,1.140624,0.0,0.0,0.0,1.140624,0.0,0.0,0.0,2.1025,2
1737285433.3274689,12586,1737285433,325588736,base_link,0,1,33.6371278,72.9912545,541.7760583701016,1.140624,0.0,0.0,0.0,1.140624,0.0,0.0,0.0,2.1025,2
1737285433.426516,12587,1737285433,424582080,base_link,0,1,33.6371278,72.9912546,541.7760587672813,1.140624,0.0,0.0,0.0,1.140624,0.0,0.0,0.0,2.1025,2
1737285433.5273979,12588,1737285433,525578240,base_link,0,1,33.6371278,72.9912547,541.7860591644609,1.140624,0.0,0.0,0.0,1.140624,0.0,0.0,0.0,2.1025,2
1737285433.6264002,12589,1737285433,624570048,base_link,0,1,33.6371278,72.9912547,541.7860591644609,1.140624,0.0,0.0,0.0,1.140624,0.0,0.0,0.0,2.1025,2
1737285433.727478,12590,1737285433,725567232,base_link,0,1,33.6371278,72.9912548,541.7860595616405,1.140624,0.0,0.0,0.0,1.140624,0.0,0.0,0.0,2.1025,2
1737285433.8264241,12591,1737285433,824563904,base_link,0,1,33.6371278,72.9912549,541.7860599588203,1.140624,0.0,0.0,0.0,1.140624,0.0,0.0,0.0,2.105401,2
1737285433.927715,12592,1737285433,926560576,base_link,0,1,33.6371278,72.991255,541.7860603559999,1.140624,0.0,0.0,0.0,1.140624,0.0,0.0,0.0,2.105401,2
1737285434.0264955,12593,1737285434,24557248,base_link,0,1,33.6371278,72.991255,541.7860603559999,1.1384889999999999,0.0,0.0,0.0,1.1384889999999999,0.0,0.0,0.0,2.105401,2
1737285434.1339748,12594,1737285434,126556224,base_link,0,1,33.6371278,72.991255,541.7860603559999,1.1384889999999999,0.0,0.0,0.0,1.1384889999999999,0.0,0.0,0.0,2.105401,2
1737285434.2276905,12595,1737285434,225552128,base_link,0,1,33.6371278,72.991255,541.7960603559999,1.1384889999999999,0.0,0.0,0.0,1.1384889999999999,0.0,0.0,0.0,2.105401,2
1737285434.3265164,12596,1737285434,325547520,base_link,0,1,33.6371278,72.9912551,541.7960607531797,1.1384889999999999,0.0,0.0,0.0,1.1384889999999999,0.0,0.0,0.0,2.105401,2
1737285434.428486,12597,1737285434,426544192,base_link,0,1,33.6371278,72.9912551,541.7960607531797,1.1384889999999999,0.0,0.0,0.0,1.1384889999999999,0.0,0.0,0.0,2.105401,2
1737285434.5266302,12598,1737285434,524536768,base_link,0,1,33.6371278,72.9912551,541.7960607531797,1.1384889999999999,0.0,0.0,0.0,1.1384889999999999,0.0,0.0,0.0,2.105401,2
1737285434.6257749,12599,1737285434,624532416,base_link,0,1,33.6371278,72.991255,541.7860603559999,1.1384889999999999,0.0,0.0,0.0,1.1384889999999999,0.0,0.0,0.0,2.105401,2
1737285434.727598,12600,1737285434,725529088,base_link,0,1,33.6371278,72.991255,541.7860603559999,1.1384889999999999,0.0,0.0,0.0,1.1384889999999999,0.0,0.0,0.0,2.105401,2
1737285434.8261516,12601,1737285434,824521920,base_link,0,1,33.6371278,72.991255,541.7760603559999,1.1363560000000001,0.0,0.0,0.0,1.1363560000000001,0.0,0.0,0.0,2.105401,2
1737285434.9268675,12602,1737285434,925518080,base_link,0,1,33.6371278,72.9912551,541.7760607531798,1.1363560000000001,0.0,0.0,0.0,1.1363560000000001,0.0,0.0,0.0,2.105401,2
1737285435.0261784,12603,1737285435,24512704,base_link,0,1,33.6371278,72.9912551,541.7760607531798,1.1363560000000001,0.0,0.0,0.0,1.1363560000000001,0.0,0.0,0.0,2.105401,2
1737285435.1276608,12604,1737285435,126508864,base_link,0,1,33.6371278,72.9912551,541.7660607531798,1.1363560000000001,0.0,0.0,0.0,1.1363560000000001,0.0,0.0,0.0,2.105401,2
1737285435.2270308,12605,1737285435,224504768,base_link,0,1,33.6371277,72.9912551,541.776060140224,1.1363560000000001,0.0,0.0,0.0,1.1363560000000001,0.0,0.0,0.0,2.105401,2
1737285435.3276343,12606,1737285435,325500160,base_link,0,1,33.6371277,72.9912551,541.776060140224,1.1363560000000001,0.0,0.0,0.0,1.1363560000000001,0.0,0.0,0.0,2.105401,2
1737285435.426626,12607,1737285435,425494016,base_link,0,1,33.6371276,72.9912551,541.7660595272683,1.1363560000000001,0.0,0.0,0.0,1.1363560000000001,0.0,0.0,0.0,2.108304,2
1737285435.527791,12608,1737285435,525487104,base_link,0,1,33.6371276,72.991255,541.7760591300886,1.1363560000000001,0.0,0.0,0.0,1.1363560000000001,0.0,0.0,0.0,2.108304,2
1737285435.6266186,12609,1737285435,624479936,base_link,0,1,33.6371276,72.991255,541.7760591300886,1.1363560000000001,0.0,0.0,0.0,1.1363560000000001,0.0,0.0,0.0,2.108304,2
1737285435.7277906,12610,1737285435,726475840,base_link,0,1,33.6371276,72.991255,541.7760591300886,1.1363560000000001,0.0,0.0,0.0,1.1363560000000001,0.0,0.0,0.0,2.108304,2
1737285435.8266854,12611,1737285435,825470464,base_link,0,1,33.6371276,72.9912549,541.776058732909,1.1363560000000001,0.0,0.0,0.0,1.1363560000000001,0.0,0.0,0.0,2.108304,2
1737285435.929156,12612,1737285435,927464576,base_link,0,1,33.6371276,72.9912549,541.776058732909,1.1363560000000001,0.0,0.0,0.0,1.1363560000000001,0.0,0.0,0.0,2.108304,2
1737285436.0279434,12613,1737285436,26459968,base_link,0,1,33.6371276,72.9912549,541.7860587329089,1.1363560000000001,0.0,0.0,0.0,1.1363560000000001,0.0,0.0,0.0,2.108304,2
1737285436.1319196,12614,1737285436,130455616,base_link,0,1,33.6371276,72.9912549,541.776058732909,1.1363560000000001,0.0,0.0,0.0,1.1363560000000001,0.0,0.0,0.0,2.108304,2
1737285436.2299054,12615,1737285436,228450496,base_link,0,1,33.6371276,72.9912549,541.776058732909,1.1363560000000001,0.0,0.0,0.0,1.1363560000000001,0.0,0.0,0.0,2.108304,2
1737285436.3339765,12616,1737285436,332443840,base_link,0,1,33.6371276,72.9912549,541.776058732909,1.1363560000000001,0.0,0.0,0.0,1.1363560000000001,0.0,0.0,0.0,2.108304,2
1737285436.4330354,12617,1737285436,431440768,base_link,0,1,33.6371276,72.991255,541.7760591300886,1.1342249999999998,0.0,0.0,0.0,1.1342249999999998,0.0,0.0,0.0,2.108304,2
1737285436.531786,12618,1737285436,529436928,base_link,0,1,33.6371276,72.991255,541.7860591300886,1.1342249999999998,0.0,0.0,0.0,1.1342249999999998,0.0,0.0,0.0,2.108304,2
1737285436.6287854,12619,1737285436,627433088,base_link,0,1,33.6371276,72.991255,541.7860591300886,1.1342249999999998,0.0,0.0,0.0,1.1342249999999998,0.0,0.0,0.0,2.108304,2
1737285436.7309349,12620,1737285436,728430272,base_link,0,1,33.6371276,72.991255,541.7860591300886,1.1342249999999998,0.0,0.0,0.0,1.1342249999999998,0.0,0.0,0.0,2.108304,2
1737285436.8269696,12621,1737285436,825426432,base_link,0,1,33.6371275,72.991255,541.796058517133,1.1342249999999998,0.0,0.0,0.0,1.1342249999999998,0.0,0.0,0.0,2.108304,2
1737285436.9280205,12622,1737285436,925420288,base_link,0,1,33.6371275,72.9912551,541.7960589143127,1.1342249999999998,0.0,0.0,0.0,1.1342249999999998,0.0,0.0,0.0,2.108304,2
1737285437.0260382,12623,1737285437,24416960,base_link,0,1,33.6371275,72.9912551,541.8060589143126,1.1320960000000002,0.0,0.0,0.0,1.1320960000000002,0.0,0.0,0.0,2.108304,2
1737285437.12683,12624,1737285437,125407744,base_link,0,1,33.6371274,72.9912551,541.8060583013571,1.1320960000000002,0.0,0.0,0.0,1.1320960000000002,0.0,0.0,0.0,2.108304,2
1737285437.225876,12625,1737285437,224401600,base_link,0,1,33.6371274,72.9912552,541.8060586985367,1.1299689999999998,0.0,0.0,0.0,1.1299689999999998,0.0,0.0,0.0,2.108304,2
1737285437.3279893,12626,1737285437,326398784,base_link,0,1,33.6371274,72.9912552,541.8060586985367,1.1299689999999998,0.0,0.0,0.0,1.1299689999999998,0.0,0.0,0.0,2.108304,2
1737285437.4271436,12627,1737285437,425395200,base_link,0,1,33.6371273,72.9912552,541.8060580855813,1.1299689999999998,0.0,0.0,0.0,1.1299689999999998,0.0,0.0,0.0,2.108304,2
1737285437.527989,12628,1737285437,524390336,base_link,0,1,33.6371273,72.9912552,541.8060580855813,1.1299689999999998,0.0,0.0,0.0,1.1299689999999998,0.0,0.0,0.0,2.108304,2
1737285437.6290796,12629,1737285437,625387008,base_link,0,1,33.6371273,72.9912551,541.8060576884018,1.127844,0.0,0.0,0.0,1.127844,0.0,0.0,0.0,2.105401,2
1737285437.726307,12630,1737285437,724384192,base_link,0,1,33.6371272,72.9912551,541.8060570754465,1.127844,0.0,0.0,0.0,1.127844,0.0,0.0,0.0,2.105401,2
1737285437.8274972,12631,1737285437,825378304,base_link,0,1,33.6371272,72.9912551,541.8060570754465,1.125721,0.0,0.0,0.0,1.125721,0.0,0.0,0.0,2.105401,2
1737285437.926218,12632,1737285437,924373696,base_link,0,1,33.6371272,72.9912551,541.8160570754465,1.125721,0.0,0.0,0.0,1.125721,0.0,0.0,0.0,2.105401,2
1737285438.027032,12633,1737285438,25367296,base_link,0,1,33.6371271,72.9912551,541.8060564624911,1.125721,0.0,0.0,0.0,1.125721,0.0,0.0,0.0,2.105401,2
1737285438.1260004,12634,1737285438,124361152,base_link,0,1,33.6371271,72.9912551,541.8160564624911,1.125721,0.0,0.0,0.0,1.125721,0.0,0.0,0.0,2.105401,2
1737285438.226959,12635,1737285438,225354752,base_link,0,1,33.637127,72.9912551,541.816055849536,1.1236000000000002,0.0,0.0,0.0,1.1236000000000002,0.0,0.0,0.0,2.1025,2
1737285438.3262308,12636,1737285438,324349888,base_link,0,1,33.637127,72.991255,541.8160554523566,1.1236000000000002,0.0,0.0,0.0,1.1236000000000002,0.0,0.0,0.0,2.1025,2
1737285438.4269466,12637,1737285438,425341952,base_link,0,1,33.637127,72.991255,541.8060554523566,1.1236000000000002,0.0,0.0,0.0,1.1236000000000002,0.0,0.0,0.0,2.1025,2
1737285438.5261464,12638,1737285438,524332736,base_link,0,1,33.637127,72.991255,541.8060554523566,1.1236000000000002,0.0,0.0,0.0,1.1236000000000002,0.0,0.0,0.0,2.1025,2
1737285438.6271114,12639,1737285438,625326080,base_link,0,1,33.637127,72.9912549,541.7960550551772,1.121481,0.0,0.0,0.0,1.121481,0.0,0.0,0.0,2.1025,2
1737285438.727799,12640,1737285438,725321984,base_link,0,1,33.637127,72.9912549,541.7960550551772,1.121481,0.0,0.0,0.0,1.121481,0.0,0.0,0.0,2.1025,2
1737285438.8273718,12641,1737285438,825317120,base_link,0,1,33.6371269,72.9912548,541.796054045043,1.121481,0.0,0.0,0.0,1.121481,0.0,0.0,0.0,2.1025,2
1737285438.927767,12642,1737285438,925310720,base_link,0,1,33.6371269,72.9912548,541.796054045043,1.121481,0.0,0.0,0.0,1.121481,0.0,0.0,0.0,2.1025,2
1737285439.0265799,12643,1737285439,24306624,base_link,0,1,33.6371269,72.9912548,541.796054045043,1.119364,0.0,0.0,0.0,1.119364,0.0,0.0,0.0,2.1025,2
1737285439.1275861,12644,1737285439,125306624,base_link,0,1,33.6371269,72.9912548,541.806054045043,1.119364,0.0,0.0,0.0,1.119364,0.0,0.0,0.0,2.1025,2
1737285439.2268078,12645,1737285439,224294848,base_link,0,1,33.6371269,72.9912548,541.806054045043,1.117249,0.0,0.0,0.0,1.117249,0.0,0.0,0.0,2.0996010000000003,2
1737285439.3275104,12646,1737285439,325280512,base_link,0,1,33.6371269,72.9912548,541.806054045043,1.117249,0.0,0.0,0.0,1.117249,0.0,0.0,0.0,2.0996010000000003,2
1737285439.4271817,12647,1737285439,424269504,base_link,0,1,33.6371269,72.9912548,541.806054045043,1.117249,0.0,0.0,0.0,1.117249,0.0,0.0,0.0,2.1025,2
1737285439.527654,12648,1737285439,525270272,base_link,0,1,33.6371268,72.9912548,541.8060534320881,1.117249,0.0,0.0,0.0,1.117249,0.0,0.0,0.0,2.1025,2
1737285439.629459,12649,1737285439,624264896,base_link,0,1,33.6371268,72.9912548,541.8060534320881,1.117249,0.0,0.0,0.0,1.117249,0.0,0.0,0.0,2.105401,2
1737285439.7287598,12650,1737285439,726259008,base_link,0,1,33.6371268,72.9912548,541.8060534320881,1.117249,0.0,0.0,0.0,1.117249,0.0,0.0,0.0,2.105401,2
1737285439.8264909,12651,1737285439,824252096,base_link,0,1,33.6371268,72.9912548,541.7960534320881,1.1151360000000001,0.0,0.0,0.0,1.1151360000000001,0.0,0.0,0.0,2.105401,2
1737285439.927969,12652,1737285439,926246720,base_link,0,1,33.6371266,72.9912549,541.7960526033579,1.1151360000000001,0.0,0.0,0.0,1.1151360000000001,0.0,0.0,0.0,2.105401,2
1737285440.0265462,12653,1737285440,25242624,base_link,0,1,33.6371266,72.9912549,541.7960526033579,1.1151360000000001,0.0,0.0,0.0,1.1151360000000001,0.0,0.0,0.0,2.108304,2
1737285440.1264267,12654,1737285440,124236736,base_link,0,1,33.6371266,72.9912549,541.7960526033579,1.1151360000000001,0.0,0.0,0.0,1.1151360000000001,0.0,0.0,0.0,2.108304,2
1737285440.22792,12655,1737285440,226232128,base_link,0,1,33.6371266,72.991255,541.7960530005371,1.1151360000000001,0.0,0.0,0.0,1.1151360000000001,0.0,0.0,0.0,2.111209,2
1737285440.327219,12656,1737285440,324224192,base_link,0,1,33.6371266,72.991255,541.7960530005371,1.1151360000000001,0.0,0.0,0.0,1.1151360000000001,0.0,0.0,0.0,2.111209,2
1737285440.42743,12657,1737285440,425223168,base_link,0,1,33.6371266,72.991255,541.7960530005371,1.1151360000000001,0.0,0.0,0.0,1.1151360000000001,0.0,0.0,0.0,2.1141159999999997,2
1737285440.5265915,12658,1737285440,525219840,base_link,0,1,33.6371266,72.991255,541.7860530005371,1.1151360000000001,0.0,0.0,0.0,1.1151360000000001,0.0,0.0,0.0,2.1141159999999997,2
1737285440.6278892,12659,1737285440,626213184,base_link,0,1,33.6371266,72.991255,541.7860530005371,1.1151360000000001,0.0,0.0,0.0,1.1151360000000001,0.0,0.0,0.0,2.1170250000000004,2
1737285440.7265499,12660,1737285440,725208064,base_link,0,1,33.6371266,72.991255,541.7860530005371,1.1151360000000001,0.0,0.0,0.0,1.1151360000000001,0.0,0.0,0.0,2.1170250000000004,2
1737285440.8259404,12661,1737285440,824201920,base_link,0,1,33.6371266,72.991255,541.7860530005371,1.1151360000000001,0.0,0.0,0.0,1.1151360000000001,0.0,0.0,0.0,2.1228490000000004,2
1737285440.9262733,12662,1737285440,924199872,base_link,0,1,33.6371266,72.9912551,541.7860533977164,1.1151360000000001,0.0,0.0,0.0,1.1151360000000001,0.0,0.0,0.0,2.1228490000000004,2
1737285441.027717,12663,1737285441,25195776,base_link,0,1,33.6371266,72.9912551,541.7860533977164,1.113025,0.0,0.0,0.0,1.113025,0.0,0.0,0.0,2.1257639999999998,2
1737285441.1271539,12664,1737285441,124189376,base_link,0,1,33.6371266,72.9912551,541.7960533977164,1.113025,0.0,0.0,0.0,1.113025,0.0,0.0,0.0,2.1257639999999998,2
1737285441.2264566,12665,1737285441,224186816,base_link,0,1,33.6371267,72.9912551,541.7960540106711,1.113025,0.0,0.0,0.0,1.113025,0.0,0.0,0.0,2.1286810000000003,2
1737285441.327439,12666,1737285441,325181440,base_link,0,1,33.6371267,72.9912551,541.7960540106711,1.113025,0.0,0.0,0.0,1.113025,0.0,0.0,0.0,2.1286810000000003,2
1737285441.4265277,12667,1737285441,424176320,base_link,0,1,33.6371267,72.9912551,541.7960540106711,1.113025,0.0,0.0,0.0,1.113025,0.0,0.0,0.0,2.1315999999999997,2
1737285441.526024,12668,1737285441,524171712,base_link,0,1,33.6371268,72.9912551,541.796054623626,1.113025,0.0,0.0,0.0,1.113025,0.0,0.0,0.0,2.1315999999999997,2
1737285441.6280224,12669,1737285441,625169408,base_link,0,1,33.6371268,72.9912551,541.806054623626,1.110916,0.0,0.0,0.0,1.110916,0.0,0.0,0.0,2.1345210000000003,2
1737285441.7256021,12670,1737285441,724165568,base_link,0,1,33.6371268,72.9912551,541.806054623626,1.110916,0.0,0.0,0.0,1.110916,0.0,0.0,0.0,2.1345210000000003,2
1737285441.8277295,12671,1737285441,826162752,base_link,0,1,33.6371268,72.991255,541.8060542264466,1.110916,0.0,0.0,0.0,1.110916,0.0,0.0,0.0,2.1345210000000003,2
1737285441.9269114,12672,1737285441,924158912,base_link,0,1,33.6371269,72.9912549,541.8060544422223,1.110916,0.0,0.0,0.0,1.110916,0.0,0.0,0.0,2.1345210000000003,2
1737285442.028233,12673,1737285442,26153280,base_link,0,1,33.6371269,72.9912549,541.8060544422223,1.110916,0.0,0.0,0.0,1.110916,0.0,0.0,0.0,2.1345210000000003,2
1737285442.1273255,12674,1737285442,124144576,base_link,0,1,33.6371269,72.9912549,541.8060544422223,1.110916,0.0,0.0,0.0,1.110916,0.0,0.0,0.0,2.1345210000000003,2
1737285442.2284026,12675,1737285442,225140480,base_link,0,1,33.6371269,72.9912548,541.796054045043,1.108809,0.0,0.0,0.0,1.108809,0.0,0.0,0.0,2.1345210000000003,2
1737285442.3260682,12676,1737285442,324134336,base_link,0,1,33.6371269,72.9912548,541.796054045043,1.108809,0.0,0.0,0.0,1.108809,0.0,0.0,0.0,2.1345210000000003,2
1737285442.42855,12677,1737285442,426130496,base_link,0,1,33.6371269,72.9912547,541.7960536478637,1.108809,0.0,0.0,0.0,1.108809,0.0,0.0,0.0,2.1345210000000003,2
1737285442.5273626,12678,1737285442,525130240,base_link,0,1,33.6371269,72.9912547,541.8060536478637,1.108809,0.0,0.0,0.0,1.108809,0.0,0.0,0.0,2.1345210000000003,2
1737285442.6283789,12679,1737285442,626126912,base_link,0,1,33.6371269,72.9912547,541.8060536478637,1.108809,0.0,0.0,0.0,1.108809,0.0,0.0,0.0,2.1345210000000003,2
1737285442.728461,12680,1737285442,726122816,base_link,0,1,33.6371269,72.9912546,541.8060532506845,1.108809,0.0,0.0,0.0,1.108809,0.0,0.0,0.0,2.1345210000000003,2
1737285442.8263106,12681,1737285442,824116672,base_link,0,1,33.6371269,72.9912546,541.8160532506845,1.108809,0.0,0.0,0.0,1.108809,0.0,0.0,0.0,2.137444,2
1737285442.93045,12682,1737285442,928113088,base_link,0,1,33.6371269,72.9912546,541.8160532506845,1.108809,0.0,0.0,0.0,1.108809,0.0,0.0,0.0,2.137444,2
1737285443.0262601,12683,1737285443,24110016,base_link,0,1,33.6371269,72.9912546,541.8060532506845,1.108809,0.0,0.0,0.0,1.108809,0.0,0.0,0.0,2.137444,2
1737285443.1292646,12684,1737285443,127106944,base_link,0,1,33.637127,72.9912546,541.8160538636394,1.108809,0.0,0.0,0.0,1.108809,0.0,0.0,0.0,2.137444,2
1737285443.2318988,12685,1737285443,229104128,base_link,0,1,33.637127,72.9912546,541.8060538636394,1.108809,0.0,0.0,0.0,1.108809,0.0,0.0,0.0,2.140369,2
1737285443.3287673,12686,1737285443,327097216,base_link,0,1,33.637127,72.9912546,541.8060538636394,1.108809,0.0,0.0,0.0,1.108809,0.0,0.0,0.0,2.140369,2
1737285443.4278247,12687,1737285443,426091072,base_link,0,1,33.637127,72.9912546,541.7960538636394,1.108809,0.0,0.0,0.0,1.108809,0.0,0.0,0.0,2.140369,2
1737285443.5268233,12688,1737285443,525082624,base_link,0,1,33.6371269,72.9912546,541.7960532506845,1.108809,0.0,0.0,0.0,1.108809,0.0,0.0,0.0,2.140369,2
1737285443.6280146,12689,1737285443,625075200,base_link,0,1,33.6371269,72.9912546,541.7960532506845,1.108809,0.0,0.0,0.0,1.108809,0.0,0.0,0.0,2.143296,2
1737285443.726462,12690,1737285443,724071616,base_link,0,1,33.6371269,72.9912546,541.7960532506845,1.108809,0.0,0.0,0.0,1.108809,0.0,0.0,0.0,2.143296,2
1737285443.8274748,12691,1737285443,825064960,base_link,0,1,33.6371269,72.9912546,541.7960532506845,1.110916,0.0,0.0,0.0,1.110916,0.0,0.0,0.0,2.1462250000000003,2
1737285443.9370573,12692,1737285443,935056256,base_link,0,1,33.6371269,72.9912545,541.7860528535052,1.110916,0.0,0.0,0.0,1.110916,0.0,0.0,0.0,2.1462250000000003,2
1737285444.0272138,12693,1737285444,25049856,base_link,0,1,33.6371269,72.9912545,541.7860528535052,1.110916,0.0,0.0,0.0,1.110916,0.0,0.0,0.0,2.1462250000000003,2
1737285444.1260676,12694,1737285444,124044992,base_link,0,1,33.6371269,72.9912545,541.7860528535052,1.110916,0.0,0.0,0.0,1.110916,0.0,0.0,0.0,2.1462250000000003,2
1737285444.2261791,12695,1737285444,225039360,base_link,0,1,33.6371269,72.9912545,541.7760528535052,1.110916,0.0,0.0,0.0,1.110916,0.0,0.0,0.0,2.1462250000000003,2
1737285444.3279972,12696,1737285444,326031424,base_link,0,1,33.6371268,72.9912545,541.7760522405505,1.110916,0.0,0.0,0.0,1.110916,0.0,0.0,0.0,2.1462250000000003,2
1737285444.4295747,12697,1737285444,425025024,base_link,0,1,33.6371268,72.9912545,541.7660522405505,1.110916,0.0,0.0,0.0,1.110916,0.0,0.0,0.0,2.1462250000000003,2
1737285444.5263848,12698,1737285444,524018112,base_link,0,1,33.6371268,72.9912546,541.7660526377298,1.110916,0.0,0.0,0.0,1.110916,0.0,0.0,0.0,2.1462250000000003,2
1737285444.6273928,12699,1737285444,625012736,base_link,0,1,33.6371267,72.9912546,541.7660520247751,1.110916,0.0,0.0,0.0,1.110916,0.0,0.0,0.0,2.149156,2
1737285444.726341,12700,1737285444,724009408,base_link,0,1,33.6371267,72.9912546,541.7660520247751,1.110916,0.0,0.0,0.0,1.110916,0.0,0.0,0.0,2.149156,2
1737285444.8280525,12701,1737285444,826002752,base_link,0,1,33.6371267,72.9912547,541.7660524219542,1.110916,0.0,0.0,0.0,1.110916,0.0,0.0,0.0,2.149156,2
1737285444.926747,12702,1737285444,924997120,base_link,0,1,33.6371267,72.9912547,541.7660524219542,1.110916,0.0,0.0,0.0,1.110916,0.0,0.0,0.0,2.149156,2
1737285445.0280254,12703,1737285445,25989440,base_link,0,1,33.6371267,72.9912547,541.7660524219542,1.113025,0.0,0.0,0.0,1.113025,0.0,0.0,0.0,2.149156,2
1737285445.127181,12704,1737285445,124986112,base_link,0,1,33.6371267,72.9912548,541.7760528191334,1.113025,0.0,0.0,0.0,1.113025,0.0,0.0,0.0,2.149156,2
1737285445.2261345,12705,1737285445,223982528,base_link,0,1,33.6371267,72.9912548,541.7760528191334,1.113025,0.0,0.0,0.0,1.113025,0.0,0.0,0.0,2.149156,2
1737285445.3272517,12706,1737285445,324977152,base_link,0,1,33.6371267,72.9912549,541.7760532163127,1.113025,0.0,0.0,0.0,1.113025,0.0,0.0,0.0,2.149156,2
1737285445.4250832,12707,1737285445,423965376,base_link,0,1,33.6371267,72.9912549,541.7760532163127,1.113025,0.0,0.0,0.0,1.113025,0.0,0.0,0.0,2.149156,2
1737285445.5273376,12708,1737285445,525957952,base_link,0,1,33.6371267,72.9912549,541.7760532163127,1.113025,0.0,0.0,0.0,1.113025,0.0,0.0,0.0,2.149156,2
1737285445.6264668,12709,1737285445,624954112,base_link,0,1,33.6371267,72.991255,541.7860536134918,1.113025,0.0,0.0,0.0,1.113025,0.0,0.0,0.0,2.152089,2
1737285445.7282708,12710,1737285445,725953344,base_link,0,1,33.6371267,72.991255,541.7860536134918,1.113025,0.0,0.0,0.0,1.113025,0.0,0.0,0.0,2.152089,2
1737285445.8262913,12711,1737285445,824948992,base_link,0,1,33.6371267,72.991255,541.7860536134918,1.113025,0.0,0.0,0.0,1.113025,0.0,0.0,0.0,2.152089,2
1737285445.9266863,12712,1737285445,923948992,base_link,0,1,33.6371267,72.991255,541.7860536134918,1.113025,0.0,0.0,0.0,1.113025,0.0,0.0,0.0,2.152089,2
1737285446.0272617,12713,1737285446,25938752,base_link,0,1,33.6371267,72.991255,541.7860536134918,1.113025,0.0,0.0,0.0,1.113025,0.0,0.0,0.0,2.152089,2
1737285446.1261508,12714,1737285446,124927744,base_link,0,1,33.6371267,72.991255,541.7860536134918,1.113025,0.0,0.0,0.0,1.113025,0.0,0.0,0.0,2.152089,2
1737285446.228262,12715,1737285446,225924160,base_link,0,1,33.6371267,72.991255,541.7860536134918,1.113025,0.0,0.0,0.0,1.113025,0.0,0.0,0.0,2.152089,2
1737285446.3261333,12716,1737285446,324917760,base_link,0,1,33.6371267,72.9912551,541.7860540106711,1.113025,0.0,0.0,0.0,1.113025,0.0,0.0,0.0,2.152089,2
1737285446.4283934,12717,1737285446,425911616,base_link,0,1,33.6371266,72.9912551,541.7960533977164,1.1151360000000001,0.0,0.0,0.0,1.1151360000000001,0.0,0.0,0.0,2.155024,2
1737285446.526294,12718,1737285446,524904960,base_link,0,1,33.6371266,72.9912551,541.7960533977164,1.1151360000000001,0.0,0.0,0.0,1.1151360000000001,0.0,0.0,0.0,2.155024,2
1737285446.627423,12719,1737285446,624901888,base_link,0,1,33.6371266,72.9912552,541.7960537948956,1.1151360000000001,0.0,0.0,0.0,1.1151360000000001,0.0,0.0,0.0,2.155024,2
1737285446.726273,12720,1737285446,723896256,base_link,0,1,33.6371267,72.9912552,541.7960544078504,1.1151360000000001,0.0,0.0,0.0,1.1151360000000001,0.0,0.0,0.0,2.155024,2
1737285446.8275423,12721,1737285446,824892672,base_link,0,1,33.6371267,72.9912552,541.7960544078504,1.1151360000000001,0.0,0.0,0.0,1.1151360000000001,0.0,0.0,0.0,2.1579610000000002,2
1737285446.926408,12722,1737285446,923886784,base_link,0,1,33.6371267,72.9912552,541.8060544078504,1.1151360000000001,0.0,0.0,0.0,1.1151360000000001,0.0,0.0,0.0,2.1579610000000002,2
1737285447.0274954,12723,1737285447,25881408,base_link,0,1,33.6371267,72.9912552,541.8060544078504,1.1151360000000001,0.0,0.0,0.0,1.1151360000000001,0.0,0.0,0.0,2.1579610000000002,2
1737285447.1264985,12724,1737285447,124881408,base_link,0,1,33.6371267,72.9912552,541.8060544078504,1.1151360000000001,0.0,0.0,0.0,1.1151360000000001,0.0,0.0,0.0,2.1579610000000002,2
1737285447.2255836,12725,1737285447,223876544,base_link,0,1,33.6371267,72.9912552,541.8060544078504,1.1151360000000001,0.0,0.0,0.0,1.1151360000000001,0.0,0.0,0.0,2.1579610000000002,2
1737285447.3273969,12726,1737285447,325872192,base_link,0,1,33.6371267,72.9912552,541.8060544078504,1.1151360000000001,0.0,0.0,0.0,1.1151360000000001,0.0,0.0,0.0,2.1579610000000002,2
1737285447.4264805,12727,1737285447,424866560,base_link,0,1,33.6371267,72.9912553,541.8060548050297,1.1151360000000001,0.0,0.0,0.0,1.1151360000000001,0.0,0.0,0.0,2.1579610000000002,2
1737285447.5265708,12728,1737285447,523861952,base_link,0,1,33.6371267,72.9912553,541.8060548050297,1.1151360000000001,0.0,0.0,0.0,1.1151360000000001,0.0,0.0,0.0,2.1579610000000002,2
1737285447.6257815,12729,1737285447,623858880,base_link,0,1,33.6371267,72.9912552,541.8060544078504,1.117249,0.0,0.0,0.0,1.117249,0.0,0.0,0.0,2.1609,2
1737285447.726469,12730,1737285447,724852224,base_link,0,1,33.6371268,72.9912552,541.7960550208053,1.117249,0.0,0.0,0.0,1.117249,0.0,0.0,0.0,2.1609,2
1737285447.8254833,12731,1737285447,823847872,base_link,0,1,33.6371268,72.9912552,541.8060550208053,1.1151360000000001,0.0,0.0,0.0,1.1151360000000001,0.0,0.0,0.0,2.1609,2
1737285447.9281166,12732,1737285447,925839424,base_link,0,1,33.6371268,72.9912552,541.8060550208053,1.1151360000000001,0.0,0.0,0.0,1.1151360000000001,0.0,0.0,0.0,2.1609,2
1737285448.0267243,12733,1737285448,24832512,base_link,0,1,33.6371269,72.9912552,541.8060556337603,1.1151360000000001,0.0,0.0,0.0,1.1151360000000001,0.0,0.0,0.0,2.1609,2
1737285448.1278226,12734,1737285448,125827648,base_link,0,1,33.6371269,72.9912551,541.806055236581,1.1151360000000001,0.0,0.0,0.0,1.1151360000000001,0.0,0.0,0.0,2.1609,2
1737285448.2266667,12735,1737285448,224823040,base_link,0,1,33.6371269,72.9912551,541.796055236581,1.1151360000000001,0.0,0.0,0.0,1.1151360000000001,0.0,0.0,0.0,2.1609,2
1737285448.3256752,12736,1737285448,323816384,base_link,0,1,33.6371269,72.991255,541.7960548394016,1.1151360000000001,0.0,0.0,0.0,1.1151360000000001,0.0,0.0,0.0,2.1609,2
1737285448.4259086,12737,1737285448,423812800,base_link,0,1,33.6371269,72.991255,541.7860548394016,1.1151360000000001,0.0,0.0,0.0,1.1151360000000001,0.0,0.0,0.0,2.1609,2
1737285448.5269232,12738,1737285448,524809216,base_link,0,1,33.6371269,72.9912549,541.7860544422223,1.1151360000000001,0.0,0.0,0.0,1.1151360000000001,0.0,0.0,0.0,2.1609,2
1737285448.6261168,12739,1737285448,623803584,base_link,0,1,33.6371269,72.9912549,541.7760544422223,1.113025,0.0,0.0,0.0,1.113025,0.0,0.0,0.0,2.1609,2
1737285448.7270415,12740,1737285448,724801792,base_link,0,1,33.6371269,72.9912548,541.776054045043,1.113025,0.0,0.0,0.0,1.113025,0.0,0.0,0.0,2.1609,2
1737285448.8260496,12741,1737285448,823798464,base_link,0,1,33.6371269,72.9912547,541.7660536478637,1.113025,0.0,0.0,0.0,1.113025,0.0,0.0,0.0,2.1609,2
1737285448.9291832,12742,1737285448,926796672,base_link,0,1,33.6371269,72.9912546,541.7760532506845,1.113025,0.0,0.0,0.0,1.113025,0.0,0.0,0.0,2.1609,2
1737285449.0267396,12743,1737285449,24790016,base_link,0,1,33.6371269,72.9912545,541.7760528535052,1.110916,0.0,0.0,0.0,1.110916,0.0,0.0,0.0,2.1609,2
1737285449.1271598,12744,1737285449,124785664,base_link,0,1,33.6371269,72.9912544,541.776052456326,1.110916,0.0,0.0,0.0,1.110916,0.0,0.0,0.0,2.1609,2
1737285449.2278006,12745,1737285449,225782848,base_link,0,1,33.6371269,72.9912544,541.776052456326,1.110916,0.0,0.0,0.0,1.110916,0.0,0.0,0.0,2.1609,2
1737285449.3266644,12746,1737285449,324776960,base_link,0,1,33.6371269,72.9912543,541.7760520591469,1.110916,0.0,0.0,0.0,1.110916,0.0,0.0,0.0,2.1609,2
1737285449.4267292,12747,1737285449,424771840,base_link,0,1,33.6371269,72.9912542,541.7860516619677,1.108809,0.0,0.0,0.0,1.108809,0.0,0.0,0.0,2.1609,2
1737285449.525652,12748,1737285449,523768512,base_link,0,1,33.6371269,72.9912541,541.8060512647886,1.108809,0.0,0.0,0.0,1.108809,0.0,0.0,0.0,2.1609,2
1737285449.6271205,12749,1737285449,625760832,base_link,0,1,33.6371268,72.991254,541.8160502546549,1.1067040000000001,0.0,0.0,0.0,1.1067040000000001,0.0,0.0,0.0,2.1609,2
1737285449.7276773,12750,1737285449,725754432,base_link,0,1,33.6371267,72.9912539,541.8260492445215,1.1067040000000001,0.0,0.0,0.0,1.1067040000000001,0.0,0.0,0.0,2.1609,2
1737285449.8341908,12751,1737285449,831749056,base_link,0,1,33.6371267,72.9912538,541.8460488473427,1.1067040000000001,0.0,0.0,0.0,1.1067040000000001,0.0,0.0,0.0,2.1609,2
1737285449.9331934,12752,1737285449,930743168,base_link,0,1,33.6371265,72.9912537,541.8560472242553,1.1067040000000001,0.0,0.0,0.0,1.1067040000000001,0.0,0.0,0.0,2.1609,2
1737285450.028774,12753,1737285450,26736256,base_link,0,1,33.6371264,72.9912536,541.8660462141225,1.1067040000000001,0.0,0.0,0.0,1.1067040000000001,0.0,0.0,0.0,2.163841,2
1737285450.1258101,12754,1737285450,124728832,base_link,0,1,33.6371262,72.9912535,541.8760445910361,1.1067040000000001,0.0,0.0,0.0,1.1067040000000001,0.0,0.0,0.0,2.163841,2
1737285450.2252955,12755,1737285450,223720640,base_link,0,1,33.6371259,72.9912533,541.8860419578184,1.1067040000000001,0.0,0.0,0.0,1.1067040000000001,0.0,0.0,0.0,2.163841,2
1737285450.3273098,12756,1737285450,324714240,base_link,0,1,33.6371256,72.9912532,541.8860397217804,1.1067040000000001,0.0,0.0,0.0,1.1067040000000001,0.0,0.0,0.0,2.163841,2
1737285450.4263268,12757,1737285450,423705280,base_link,0,1,33.6371252,72.991253,541.8960364756127,1.1067040000000001,0.0,0.0,0.0,1.1067040000000001,0.0,0.0,0.0,2.166784,2
1737285450.5282493,12758,1737285450,525699136,base_link,0,1,33.6371248,72.9912527,541.8960328322693,1.1067040000000001,0.0,0.0,0.0,1.1067040000000001,0.0,0.0,0.0,2.166784,2
1737285450.6272984,12759,1737285450,625695040,base_link,0,1,33.6371244,72.9912525,541.8960295861062,1.1067040000000001,0.0,0.0,0.0,1.1067040000000001,0.0,0.0,0.0,2.166784,2
1737285450.726303,12760,1737285450,724692224,base_link,0,1,33.6371239,72.9912522,541.9060253298168,1.1067040000000001,0.0,0.0,0.0,1.1067040000000001,0.0,0.0,0.0,2.166784,2
1737285450.8264325,12761,1737285450,823686592,base_link,0,1,33.6371234,72.9912519,541.916021073531,1.104601,0.0,0.0,0.0,1.104601,0.0,0.0,0.0,2.1697290000000002,2
1737285450.92749,12762,1737285450,924681984,base_link,0,1,33.6371228,72.9912517,541.926016601476,1.104601,0.0,0.0,0.0,1.104601,0.0,0.0,0.0,2.1697290000000002,2
1737285451.0269039,12763,1737285451,23680192,base_link,0,1,33.6371222,72.9912514,541.9460117322488,1.104601,0.0,0.0,0.0,1.104601,0.0,0.0,0.0,2.172676,2
1737285451.1249595,12764,1737285451,123673280,base_link,0,1,33.6371217,72.9912512,541.9660078731515,1.104601,0.0,0.0,0.0,1.104601,0.0,0.0,0.0,2.172676,2
1737285451.2268884,12765,1737285451,224669440,base_link,0,1,33.6371211,72.991251,541.9760034011092,1.1025,0.0,0.0,0.0,1.1025,0.0,0.0,0.0,2.172676,2
1737285451.3264697,12766,1737285451,324661504,base_link,0,1,33.6371206,72.9912508,541.9759995420187,1.1025,0.0,0.0,0.0,1.1025,0.0,0.0,0.0,2.172676,2
1737285451.4262323,12767,1737285451,423655872,base_link,0,1,33.63712,72.9912506,541.9859950699844,1.1025,0.0,0.0,0.0,1.1025,0.0,0.0,0.0,2.178576,2
1737285451.528033,12768,1737285451,525652032,base_link,0,1,33.6371194,72.9912504,541.9959905979545,1.1025,0.0,0.0,0.0,1.1025,0.0,0.0,0.0,2.178576,2
1737285451.626212,12769,1737285451,624646912,base_link,0,1,33.6371189,72.9912502,542.0059867388745,1.104601,0.0,0.0,0.0,1.104601,0.0,0.0,0.0,2.184484,2
1737285451.7260787,12770,1737285451,723662528,base_link,0,1,33.6371183,72.99125,542.0259822668527,1.104601,0.0,0.0,0.0,1.104601,0.0,0.0,0.0,2.184484,2
1737285451.8270016,12771,1737285451,825658176,base_link,0,1,33.6371176,72.9912499,542.0359775790647,1.1067040000000001,0.0,0.0,0.0,1.1067040000000001,0.0,0.0,0.0,2.1933610000000003,2
1737285451.9284823,12772,1737285451,925649984,base_link,0,1,33.637117,72.9912497,542.0459731070519,1.1067040000000001,0.0,0.0,0.0,1.1067040000000001,0.0,0.0,0.0,2.1933610000000003,2
1737285452.0261457,12773,1737285452,24646144,base_link,0,1,33.6371164,72.9912495,542.0559686350432,1.110916,0.0,0.0,0.0,1.110916,0.0,0.0,0.0,2.2022559999999998,2
1737285452.1250105,12774,1737285452,123646144,base_link,0,1,33.6371157,72.9912492,542.0659631529234,1.110916,0.0,0.0,0.0,1.110916,0.0,0.0,0.0,2.2022559999999998,2
1737285452.226471,12775,1737285452,224646144,base_link,0,1,33.637115,72.991249,542.0759580679827,1.113025,0.0,0.0,0.0,1.113025,0.0,0.0,0.0,2.208196,2
1737285452.3256757,12776,1737285452,323632064,base_link,0,1,33.6371142,72.9912487,542.0959519729342,1.113025,0.0,0.0,0.0,1.113025,0.0,0.0,0.0,2.208196,2
1737285452.4275453,12777,1737285452,424629248,base_link,0,1,33.6371135,72.9912484,542.105946490834,1.1151360000000001,0.0,0.0,0.0,1.1151360000000001,0.0,0.0,0.0,2.208196,2
1737285452.5266993,12778,1737285452,524625152,base_link,0,1,33.6371126,72.9912481,542.1259397828615,1.1151360000000001,0.0,0.0,0.0,1.1151360000000001,0.0,0.0,0.0,2.208196,2
1737285452.6255093,12779,1737285452,623620032,base_link,0,1,33.6371118,72.9912478,542.1459336878369,1.113025,0.0,0.0,0.0,1.113025,0.0,0.0,0.0,2.2111690000000004,2
1737285452.727551,12780,1737285452,725611328,base_link,0,1,33.637111,72.9912474,542.1559271956497,1.113025,0.0,0.0,0.0,1.113025,0.0,0.0,0.0,2.2111690000000004,2
1737285452.826665,12781,1737285452,824605184,base_link,0,1,33.6371102,72.991247,542.1659207034714,1.113025,0.0,0.0,0.0,1.113025,0.0,0.0,0.0,2.2111690000000004,2
1737285452.9267583,12782,1737285452,924600320,base_link,0,1,33.6371094,72.9912465,542.1659138141322,1.113025,0.0,0.0,0.0,1.113025,0.0,0.0,0.0,2.2111690000000004,2
1737285453.0256696,12783,1737285453,23598784,base_link,0,1,33.6371086,72.9912461,542.165907321972,1.110916,0.0,0.0,0.0,1.110916,0.0,0.0,0.0,2.2111690000000004,2
1737285453.125823,12784,1737285453,123593408,base_link,0,1,33.6371078,72.9912456,542.1659004326519,1.110916,0.0,0.0,0.0,1.110916,0.0,0.0,0.0,2.2111690000000004,2
1737285453.2266603,12785,1737285453,224587008,base_link,0,1,33.637107,72.991245,542.1658931461732,1.108809,0.0,0.0,0.0,1.108809,0.0,0.0,0.0,2.2111690000000004,2
1737285453.325622,12786,1737285453,323583936,base_link,0,1,33.6371063,72.9912445,542.1758868698049,1.108809,0.0,0.0,0.0,1.108809,0.0,0.0,0.0,2.2111690000000004,2
1737285453.4277103,12787,1737285453,425578560,base_link,0,1,33.6371055,72.991244,542.1858799805136,1.108809,0.0,0.0,0.0,1.108809,0.0,0.0,0.0,2.2111690000000004,2
1737285453.5266688,12788,1737285453,524571648,base_link,0,1,33.6371047,72.9912435,542.195873091232,1.108809,0.0,0.0,0.0,1.108809,0.0,0.0,0.0,2.2111690000000004,2
1737285453.6267965,12789,1737285453,623568064,base_link,0,1,33.6371039,72.9912431,542.2058665991267,1.108809,0.0,0.0,0.0,1.108809,0.0,0.0,0.0,2.2111690000000004,2
1737285453.7258801,12790,1737285453,723560384,base_link,0,1,33.637103,72.9912426,542.225859096936,1.108809,0.0,0.0,0.0,1.108809,0.0,0.0,0.0,2.2111690000000004,2
1737285453.8278425,12791,1737285453,825552448,base_link,0,1,33.6371021,72.9912422,542.2458519919223,1.108809,0.0,0.0,0.0,1.108809,0.0,0.0,0.0,2.2111690000000004,2
1737285453.9297671,12792,1737285453,927548096,base_link,0,1,33.6371012,72.9912417,542.2558444897544,1.108809,0.0,0.0,0.0,1.108809,0.0,0.0,0.0,2.2111690000000004,2
1737285454.0256317,12793,1737285454,23543232,base_link,0,1,33.6371004,72.9912413,542.275837997688,1.110916,0.0,0.0,0.0,1.110916,0.0,0.0,0.0,2.2111690000000004,2
1737285454.1274014,12794,1737285454,125537344,base_link,0,1,33.6370995,72.9912409,542.285830892706,1.110916,0.0,0.0,0.0,1.110916,0.0,0.0,0.0,2.2111690000000004,2
1737285454.2264612,12795,1737285454,224531968,base_link,0,1,33.6370986,72.9912405,542.2958237877348,1.110916,0.0,0.0,0.0,1.110916,0.0,0.0,0.0,2.214144,2
1737285454.3254175,12796,1737285454,323526848,base_link,0,1,33.6370977,72.9912401,542.3058166827742,1.110916,0.0,0.0,0.0,1.110916,0.0,0.0,0.0,2.214144,2
1737285454.4253879,12797,1737285454,423521216,base_link,0,1,33.6370967,72.9912397,542.3058089649029,1.113025,0.0,0.0,0.0,1.113025,0.0,0.0,0.0,2.217121,2
1737285454.526476,12798,1737285454,524515840,base_link,0,1,33.6370958,72.9912392,542.3058014628026,1.113025,0.0,0.0,0.0,1.113025,0.0,0.0,0.0,2.217121,2
1737285454.6257079,12799,1737285454,623513280,base_link,0,1,33.6370949,72.9912388,542.2957943578757,1.113025,0.0,0.0,0.0,1.113025,0.0,0.0,0.0,2.217121,2
1737285454.7256317,12800,1737285454,723508928,base_link,0,1,33.637094,72.9912384,542.2857872529595,1.113025,0.0,0.0,0.0,1.113025,0.0,0.0,0.0,2.217121,2
1737285454.8274937,12801,1737285454,825504320,base_link,0,1,33.6370931,72.991238,542.285780148054,1.113025,0.0,0.0,0.0,1.113025,0.0,0.0,0.0,2.2201,2
1737285454.9312122,12802,1737285454,929500736,base_link,0,1,33.6370922,72.9912375,542.295772645999,1.113025,0.0,0.0,0.0,1.113025,0.0,0.0,0.0,2.2201,2
1737285455.0265472,12803,1737285455,24496640,base_link,0,1,33.6370914,72.9912371,542.315766154031,1.110916,0.0,0.0,0.0,1.110916,0.0,0.0,0.0,2.226064,2
1737285455.1245632,12804,1737285455,123487424,base_link,0,1,33.6370906,72.9912367,542.3257596620717,1.110916,0.0,0.0,0.0,1.110916,0.0,0.0,0.0,2.226064,2
1737285455.226688,12805,1737285455,224482560,base_link,0,1,33.6370899,72.9912364,542.3357541801942,1.110916,0.0,0.0,0.0,1.110916,0.0,0.0,0.0,2.2290490000000003,2
1737285455.32576,12806,1737285455,324479232,base_link,0,1,33.6370893,72.9912361,542.3457493112363,1.110916,0.0,0.0,0.0,1.110916,0.0,0.0,0.0,2.2290490000000003,2
1737285455.4306247,12807,1737285455,428476928,base_link,0,1,33.6370887,72.9912358,542.3557444422834,1.113025,0.0,0.0,0.0,1.113025,0.0,0.0,0.0,2.2350250000000003,2
1737285455.5256815,12808,1737285455,523472832,base_link,0,1,33.6370883,72.9912356,542.3557411963175,1.113025,0.0,0.0,0.0,1.113025,0.0,0.0,0.0,2.2350250000000003,2
1737285455.633587,12809,1737285455,631466944,base_link,0,1,33.6370878,72.9912354,542.3657373374422,1.1151360000000001,0.0,0.0,0.0,1.1151360000000001,0.0,0.0,0.0,2.2350250000000003,2
1737285455.7336485,12810,1737285455,731464640,base_link,0,1,33.6370876,72.9912353,542.3757357144614,1.1151360000000001,0.0,0.0,0.0,1.1151360000000001,0.0,0.0,0.0,2.2350250000000003,2
1737285455.8325763,12811,1737285455,830457472,base_link,0,1,33.6370874,72.9912352,542.3757340914811,1.1151360000000001,0.0,0.0,0.0,1.1151360000000001,0.0,0.0,0.0,2.2350250000000003,2
1737285455.9259303,12812,1737285455,923452352,base_link,0,1,33.6370873,72.9912352,542.37573347857,1.1151360000000001,0.0,0.0,0.0,1.1151360000000001,0.0,0.0,0.0,2.2350250000000003,2
1737285456.0246587,12813,1737285456,23447232,base_link,0,1,33.6370873,72.9912352,542.38573347857,1.117249,0.0,0.0,0.0,1.117249,0.0,0.0,0.0,2.2350250000000003,2
1737285456.1272056,12814,1737285456,124440832,base_link,0,1,33.6370873,72.9912352,542.38573347857,1.117249,0.0,0.0,0.0,1.117249,0.0,0.0,0.0,2.2350250000000003,2
1737285456.2262843,12815,1737285456,224439040,base_link,0,1,33.6370875,72.9912353,542.3957351015499,1.117249,0.0,0.0,0.0,1.117249,0.0,0.0,0.0,2.232036,2
1737285456.3251522,12816,1737285456,323433664,base_link,0,1,33.6370878,72.9912355,542.4157377345999,1.117249,0.0,0.0,0.0,1.117249,0.0,0.0,0.0,2.232036,2
1737285456.4269733,12817,1737285456,424428032,base_link,0,1,33.6370882,72.9912357,542.4357409805633,1.1151360000000001,0.0,0.0,0.0,1.1151360000000001,0.0,0.0,0.0,2.2290490000000003,2
1737285456.5289505,12818,1737285456,523423168,base_link,0,1,33.6370887,72.991236,542.4557452365999,1.1151360000000001,0.0,0.0,0.0,1.1151360000000001,0.0,0.0,0.0,2.2290490000000003,2
1737285456.6309261,12819,1737285456,625416000,base_link,0,1,33.6370894,72.9912362,542.4657503213083,1.117249,0.0,0.0,0.0,1.117249,0.0,0.0,0.0,2.232036,2
1737285456.7269444,12820,1737285456,725413440,base_link,0,1,33.6370901,72.9912365,542.4757558031813,1.117249,0.0,0.0,0.0,1.117249,0.0,0.0,0.0,2.232036,2
1737285456.8266525,12821,1737285456,824409856,base_link,0,1,33.6370909,72.9912367,542.4757615008162,1.119364,0.0,0.0,0.0,1.119364,0.0,0.0,0.0,2.2350250000000003,2
1737285456.9276843,12822,1737285456,925401152,base_link,0,1,33.6370918,72.9912371,542.475768605694,1.119364,0.0,0.0,0.0,1.119364,0.0,0.0,0.0,2.2350250000000003,2
1737285457.0262053,12823,1737285457,24391680,base_link,0,1,33.6370927,72.9912375,542.4757757105825,1.121481,0.0,0.0,0.0,1.121481,0.0,0.0,0.0,2.2410090000000005,2
1737285457.125867,12824,1737285457,123391680,base_link,0,1,33.6370937,72.9912379,542.4857834283996,1.121481,0.0,0.0,0.0,1.121481,0.0,0.0,0.0,2.2410090000000005,2
1737285457.2278306,12825,1737285457,225380672,base_link,0,1,33.6370947,72.9912383,542.4957911462295,1.1236000000000002,0.0,0.0,0.0,1.1236000000000002,0.0,0.0,0.0,2.2410090000000005,2
1737285457.3267415,12826,1737285457,324370944,base_link,0,1,33.6370957,72.9912388,542.525799261234,1.1236000000000002,0.0,0.0,0.0,1.1236000000000002,0.0,0.0,0.0,2.2410090000000005,2
1737285457.425847,12827,1737285457,424364032,base_link,0,1,33.6370966,72.9912392,542.5458063661688,1.125721,0.0,0.0,0.0,1.125721,0.0,0.0,0.0,2.244004,2
1737285457.5249047,12828,1737285457,523364032,base_link,0,1,33.6370976,72.9912397,542.5658144811994,1.125721,0.0,0.0,0.0,1.125721,0.0,0.0,0.0,2.244004,2
1737285457.6272933,12829,1737285457,625364032,base_link,0,1,33.6370986,72.9912401,542.5958221990803,1.127844,0.0,0.0,0.0,1.127844,0.0,0.0,0.0,2.2470010000000005,2
1737285457.7282205,12830,1737285457,723364800,base_link,0,1,33.6370995,72.9912404,542.6158289068856,1.127844,0.0,0.0,0.0,1.127844,0.0,0.0,0.0,2.2470010000000005,2
1737285457.8268852,12831,1737285457,825358656,base_link,0,1,33.6371005,72.9912408,542.6458366247904,1.127844,0.0,0.0,0.0,1.127844,0.0,0.0,0.0,2.2470010000000005,2
1737285457.9261706,12832,1737285457,924352256,base_link,0,1,33.6371015,72.9912412,542.6658443427079,1.127844,0.0,0.0,0.0,1.127844,0.0,0.0,0.0,2.2470010000000005,2
1737285458.0252101,12833,1737285458,23347136,base_link,0,1,33.6371025,72.9912416,542.6858520606381,1.1299689999999998,0.0,0.0,0.0,1.1299689999999998,0.0,0.0,0.0,2.25,2
1737285458.1272442,12834,1737285458,124340480,base_link,0,1,33.6371036,72.9912421,542.7058607886759,1.1299689999999998,0.0,0.0,0.0,1.1299689999999998,0.0,0.0,0.0,2.25,2
1737285458.226327,12835,1737285458,224338176,base_link,0,1,33.6371048,72.9912425,542.7258697324929,1.1299689999999998,0.0,0.0,0.0,1.1299689999999998,0.0,0.0,0.0,2.253001,2
1737285458.3253174,12836,1737285458,323333568,base_link,0,1,33.6371059,72.9912429,542.7458780633962,1.1299689999999998,0.0,0.0,0.0,1.1299689999999998,0.0,0.0,0.0,2.253001,2
1737285458.42626,12837,1737285458,424330240,base_link,0,1,33.637107,72.9912434,542.7558867914823,1.127844,0.0,0.0,0.0,1.127844,0.0,0.0,0.0,2.253001,2
1737285458.525523,12838,1737285458,523327424,base_link,0,1,33.6371081,72.9912438,542.765895122416,1.127844,0.0,0.0,0.0,1.127844,0.0,0.0,0.0,2.253001,2
1737285458.6261353,12839,1737285458,624322304,base_link,0,1,33.6371092,72.9912442,542.7859034533648,1.127844,0.0,0.0,0.0,1.127844,0.0,0.0,0.0,2.253001,2
1737285458.7250865,12840,1737285458,723319488,base_link,0,1,33.6371103,72.9912446,542.8059117843285,1.127844,0.0,0.0,0.0,1.127844,0.0,0.0,0.0,2.253001,2
1737285458.827273,12841,1737285458,825315904,base_link,0,1,33.6371114,72.991245,542.8259201153071,1.127844,0.0,0.0,0.0,1.127844,0.0,0.0,0.0,2.256004,2
1737285458.9273763,12842,1737285458,925310016,base_link,0,1,33.6371126,72.9912455,542.8359294564098,1.127844,0.0,0.0,0.0,1.127844,0.0,0.0,0.0,2.256004,2
1737285459.0261734,12843,1737285459,24308224,base_link,0,1,33.6371137,72.9912459,542.83593778742,1.127844,0.0,0.0,0.0,1.127844,0.0,0.0,0.0,2.256004,2
1737285459.1261966,12844,1737285459,124308224,base_link,0,1,33.6371148,72.9912463,542.8359461184452,1.127844,0.0,0.0,0.0,1.127844,0.0,0.0,0.0,2.256004,2
1737285459.227622,12845,1737285459,225303616,base_link,0,1,33.637116,72.9912467,542.8359550624272,1.127844,0.0,0.0,0.0,1.127844,0.0,0.0,0.0,2.259009,2
1737285459.3263667,12846,1737285459,324299264,base_link,0,1,33.6371172,72.9912472,542.8359644035997,1.127844,0.0,0.0,0.0,1.127844,0.0,0.0,0.0,2.259009,2
1737285459.425178,12847,1737285459,423294400,base_link,0,1,33.6371185,72.9912477,542.8359743577352,1.127844,0.0,0.0,0.0,1.127844,0.0,0.0,0.0,2.262016,2
1737285459.5252886,12848,1737285459,523286208,base_link,0,1,33.6371197,72.9912481,542.8359833017716,1.127844,0.0,0.0,0.0,1.127844,0.0,0.0,0.0,2.262016,2
1737285459.6262443,12849,1737285459,624280832,base_link,0,1,33.637121,72.9912486,542.8259932559475,1.127844,0.0,0.0,0.0,1.127844,0.0,0.0,0.0,2.2650249999999996,2
1737285459.725418,12850,1737285459,723274688,base_link,0,1,33.6371224,72.9912491,542.8060038230932,1.127844,0.0,0.0,0.0,1.127844,0.0,0.0,0.0,2.2650249999999996,2
1737285459.827285,12851,1737285459,825267776,base_link,0,1,33.6371238,72.9912497,542.7960147874395,1.127844,0.0,0.0,0.0,1.127844,0.0,0.0,0.0,2.2650249999999996,2
1737285459.9264007,12852,1737285459,924264704,base_link,0,1,33.6371251,72.9912502,542.7960247416828,1.127844,0.0,0.0,0.0,1.127844,0.0,0.0,0.0,2.2650249999999996,2
1737285460.0253465,12853,1737285460,23258560,base_link,0,1,33.6371265,72.9912508,542.8160357060782,1.127844,0.0,0.0,0.0,1.127844,0.0,0.0,0.0,2.268036,2
1737285460.1257155,12854,1737285460,123253184,base_link,0,1,33.6371279,72.9912515,542.816047067678,1.127844,0.0,0.0,0.0,1.127844,0.0,0.0,0.0,2.268036,2
1737285460.2266612,12855,1737285460,224249600,base_link,0,1,33.6371294,72.9912521,542.8260586450812,1.127844,0.0,0.0,0.0,1.127844,0.0,0.0,0.0,2.268036,2
1737285460.3256416,12856,1737285460,324243712,base_link,0,1,33.6371308,72.9912527,542.8360696095556,1.127844,0.0,0.0,0.0,1.127844,0.0,0.0,0.0,2.268036,2
1737285460.4273403,12857,1737285460,425235264,base_link,0,1,33.6371323,72.9912533,542.8560811870145,1.127844,0.0,0.0,0.0,1.127844,0.0,0.0,0.0,2.268036,2
1737285460.526367,12858,1737285460,524228352,base_link,0,1,33.6371339,72.991254,542.866093774645,1.127844,0.0,0.0,0.0,1.127844,0.0,0.0,0.0,2.268036,2
1737285460.6253986,12859,1737285460,623222464,base_link,0,1,33.6371355,72.9912546,542.8761059651262,1.1299689999999998,0.0,0.0,0.0,1.1299689999999998,0.0,0.0,0.0,2.268036,2
1737285460.7255247,12860,1737285460,723214784,base_link,0,1,33.6371371,72.9912552,542.8861181556392,1.1299689999999998,0.0,0.0,0.0,1.1299689999999998,0.0,0.0,0.0,2.268036,2
1737285460.826734,12861,1737285460,825210944,base_link,0,1,33.6371388,72.9912559,542.8961313563349,1.1299689999999998,0.0,0.0,0.0,1.1299689999999998,0.0,0.0,0.0,2.2710489999999997,2
1737285460.9261184,12862,1737285460,924207104,base_link,0,1,33.6371404,72.9912566,542.9061439441,1.1299689999999998,0.0,0.0,0.0,1.1299689999999998,0.0,0.0,0.0,2.2710489999999997,2
1737285461.0274346,12863,1737285461,25199168,base_link,0,1,33.6371421,72.9912572,542.9061567476818,1.1320960000000002,0.0,0.0,0.0,1.1320960000000002,0.0,0.0,0.0,2.274064,2
1737285461.1255853,12864,1737285461,123191744,base_link,0,1,33.6371437,72.9912579,542.9061693355152,1.1320960000000002,0.0,0.0,0.0,1.1320960000000002,0.0,0.0,0.0,2.274064,2
1737285461.2265065,12865,1737285461,225186112,base_link,0,1,33.6371454,72.9912586,542.9161825363551,1.1342249999999998,0.0,0.0,0.0,1.1342249999999998,0.0,0.0,0.0,2.277081,2
1737285461.3252718,12866,1737285461,324181248,base_link,0,1,33.637147,72.9912593,542.9261951242574,1.1342249999999998,0.0,0.0,0.0,1.1342249999999998,0.0,0.0,0.0,2.277081,2
1737285461.425335,12867,1737285461,423174336,base_link,0,1,33.6371487,72.99126,542.9462083251699,1.1384889999999999,0.0,0.0,0.0,1.1384889999999999,0.0,0.0,0.0,2.2801,2
1737285461.527275,12868,1737285461,525168704,base_link,0,1,33.6371504,72.9912608,542.9662219233107,1.1384889999999999,0.0,0.0,0.0,1.1384889999999999,0.0,0.0,0.0,2.2801,2
1737285461.6265523,12869,1737285461,624166144,base_link,0,1,33.6371521,72.9912615,542.9862351242986,1.140624,0.0,0.0,0.0,1.140624,0.0,0.0,0.0,2.2831209999999995,2
1737285461.7289302,12870,1737285461,724162560,base_link,0,1,33.6371538,72.9912623,543.0062487225164,1.140624,0.0,0.0,0.0,1.140624,0.0,0.0,0.0,2.2831209999999995,2
1737285461.8281727,12871,1737285461,823158720,base_link,0,1,33.6371555,72.991263,543.0262619235795,1.142761,0.0,0.0,0.0,1.142761,0.0,0.0,0.0,2.286144,2
1737285461.9272068,12872,1737285461,925151296,base_link,0,1,33.6371572,72.9912638,543.0362755218744,1.142761,0.0,0.0,0.0,1.142761,0.0,0.0,0.0,2.286144,2
1737285462.025901,12873,1737285462,24145152,base_link,0,1,33.6371589,72.9912645,543.0462887230129,1.142761,0.0,0.0,0.0,1.142761,0.0,0.0,0.0,2.286144,2
1737285462.125977,12874,1737285462,123140544,base_link,0,1,33.6371606,72.9912652,543.0663019241887,1.142761,0.0,0.0,0.0,1.142761,0.0,0.0,0.0,2.286144,2
1737285462.2270896,12875,1737285462,224135936,base_link,0,1,33.6371622,72.9912658,543.0763141152131,1.142761,0.0,0.0,0.0,1.142761,0.0,0.0,0.0,2.289169,2
1737285462.3300278,12876,1737285462,323129536,base_link,0,1,33.6371638,72.9912665,543.0863267034676,1.142761,0.0,0.0,0.0,1.142761,0.0,0.0,0.0,2.289169,2
1737285462.4282882,12877,1737285462,425126976,base_link,0,1,33.6371654,72.9912671,543.086338894557,1.142761,0.0,0.0,0.0,1.142761,0.0,0.0,0.0,2.289169,2
1737285462.5267339,12878,1737285462,524123136,base_link,0,1,33.6371669,72.9912677,543.0963504726822,1.142761,0.0,0.0,0.0,1.142761,0.0,0.0,0.0,2.289169,2
1737285462.6251736,12879,1737285462,623119552,base_link,0,1,33.6371683,72.9912683,543.0963614378384,1.140624,0.0,0.0,0.0,1.140624,0.0,0.0,0.0,2.292196,2
1737285462.7254136,12880,1737285462,723114688,base_link,0,1,33.6371698,72.9912689,543.0963730160192,1.140624,0.0,0.0,0.0,1.140624,0.0,0.0,0.0,2.292196,2
1737285462.8260252,12881,1737285462,824114688,base_link,0,1,33.6371712,72.9912695,543.1063839812281,1.140624,0.0,0.0,0.0,1.140624,0.0,0.0,0.0,2.295225,2
1737285462.926703,12882,1737285462,924103424,base_link,0,1,33.6371726,72.9912701,543.1063949464625,1.140624,0.0,0.0,0.0,1.140624,0.0,0.0,0.0,2.295225,2
1737285463.027657,12883,1737285463,23096256,base_link,0,1,33.6371739,72.9912706,543.1164049015155,1.1384889999999999,0.0,0.0,0.0,1.1384889999999999,0.0,0.0,0.0,2.295225,2
1737285463.1273332,12884,1737285463,125091904,base_link,0,1,33.6371752,72.9912712,543.1264152537938,1.1384889999999999,0.0,0.0,0.0,1.1384889999999999,0.0,0.0,0.0,2.295225,2
1737285463.2252676,12885,1737285463,223086272,base_link,0,1,33.6371764,72.9912717,543.1364245958836,1.1384889999999999,0.0,0.0,0.0,1.1384889999999999,0.0,0.0,0.0,2.295225,2
1737285463.3269212,12886,1737285463,325078592,base_link,0,1,33.6371775,72.9912722,543.1564333249844,1.1384889999999999,0.0,0.0,0.0,1.1384889999999999,0.0,0.0,0.0,2.295225,2
1737285463.4259017,12887,1737285463,424072960,base_link,0,1,33.6371786,72.9912726,543.1664416568956,1.1363560000000001,0.0,0.0,0.0,1.1363560000000001,0.0,0.0,0.0,2.298256,2
1737285463.5262454,12888,1737285463,524075776,base_link,0,1,33.6371796,72.991273,543.1764493758119,1.1363560000000001,0.0,0.0,0.0,1.1363560000000001,0.0,0.0,0.0,2.298256,2
1737285463.6248503,12889,1737285463,623071168,base_link,0,1,33.6371805,72.9912734,543.1864564817301,1.1363560000000001,0.0,0.0,0.0,1.1363560000000001,0.0,0.0,0.0,2.298256,2
1737285463.7273529,12890,1737285463,725067072,base_link,0,1,33.6371814,72.9912738,543.1964635876593,1.1363560000000001,0.0,0.0,0.0,1.1363560000000001,0.0,0.0,0.0,2.298256,2
1737285463.8262324,12891,1737285463,824063488,base_link,0,1,33.6371821,72.9912741,543.2064690703662,1.1363560000000001,0.0,0.0,0.0,1.1363560000000001,0.0,0.0,0.0,2.3012889999999997,2
1737285463.9255464,12892,1737285463,923058880,base_link,0,1,33.6371828,72.9912743,543.2164741558715,1.1363560000000001,0.0,0.0,0.0,1.1363560000000001,0.0,0.0,0.0,2.3012889999999997,2
1737285464.0261316,12893,1737285464,24054528,base_link,0,1,33.6371834,72.9912745,543.2164786283687,1.1384889999999999,0.0,0.0,0.0,1.1384889999999999,0.0,0.0,0.0,2.3012889999999997,2
1737285464.1261945,12894,1737285464,124051456,base_link,0,1,33.6371839,72.9912747,543.2164824878557,1.1384889999999999,0.0,0.0,0.0,1.1384889999999999,0.0,0.0,0.0,2.3012889999999997,2
1737285464.2253017,12895,1737285464,223047104,base_link,0,1,33.6371843,72.9912748,543.2064853371223,1.1384889999999999,0.0,0.0,0.0,1.1384889999999999,0.0,0.0,0.0,2.3043240000000003,2
1737285464.3268287,12896,1737285464,325038144,base_link,0,1,33.6371846,72.991275,543.2064879705848,1.1384889999999999,0.0,0.0,0.0,1.1384889999999999,0.0,0.0,0.0,2.3043240000000003,2
1737285464.4258244,12897,1737285464,424032768,base_link,0,1,33.6371848,72.991275,543.206489196615,1.140624,0.0,0.0,0.0,1.140624,0.0,0.0,0.0,2.3043240000000003,2
1737285464.52495,12898,1737285464,523029184,base_link,0,1,33.6371849,72.9912751,543.2064902068395,1.140624,0.0,0.0,0.0,1.140624,0.0,0.0,0.0,2.3043240000000003,2
1737285464.6267912,12899,1737285464,625017920,base_link,0,1,33.6371848,72.9912751,543.2164895938242,1.140624,0.0,0.0,0.0,1.140624,0.0,0.0,0.0,2.3012889999999997,2
1737285464.7259169,12900,1737285464,724016896,base_link,0,1,33.6371847,72.991275,543.2164885835999,1.140624,0.0,0.0,0.0,1.140624,0.0,0.0,0.0,2.3012889999999997,2
1737285464.8249497,12901,1737285464,823012544,base_link,0,1,33.6371844,72.9912749,543.226486347346,1.140624,0.0,0.0,0.0,1.140624,0.0,0.0,0.0,2.3012889999999997,2
1737285464.9252348,12902,1737285464,923005632,base_link,0,1,33.6371841,72.9912748,543.2364841110932,1.140624,0.0,0.0,0.0,1.140624,0.0,0.0,0.0,2.3012889999999997,2
1737285465.027058,12903,1737285465,24998976,base_link,0,1,33.6371836,72.9912746,543.2464802516048,1.1384889999999999,0.0,0.0,0.0,1.1384889999999999,0.0,0.0,0.0,2.298256,2
1737285465.1261177,12904,1737285465,123994112,base_link,0,1,33.6371831,72.9912745,543.2464767893279,1.1384889999999999,0.0,0.0,0.0,1.1384889999999999,0.0,0.0,0.0,2.298256,2
