Time,header.seq,header.stamp.secs,header.stamp.nsecs,header.frame_id,twist.linear.x,twist.linear.y,twist.linear.z,twist.angular.x,twist.angular.y,twist.angular.z
1737285429.1289887,12558,1737285429,35805056,base_link,0.07298613339662552,-0.0657455325126648,0.11128120869398117,0.4463145685150463,0.2111060706471252,0.015758257207475826
1737285429.1381733,12559,1737285429,136797888,base_link,0.08010678738355637,-0.06884187459945679,0.11428304016590118,-0.19004840126555583,-0.030461247776661798,0.24016073650790756
1737285429.2370467,12560,1737285429,234794816,base_link,0.07243067026138306,-0.06473782658576965,0.04691605642437935,0.3151462824449492,-0.009878139564925644,-0.04202160315257929
1737285429.346482,12561,1737285429,343791232,base_link,0.06634420156478882,-0.08073662221431732,0.010712235234677792,0.06786287284120616,0.05175185428091938,-0.24685076353671204
1737285429.446869,12562,1737285429,444787392,base_link,0.07935827970504761,-0.0809677317738533,0.0401185005903244,-0.37826156184866805,-0.22939879871265106,0.12744091742145075
1737285429.5447686,12563,1737285429,543784832,base_link,0.0534554086625576,-0.07465872168540955,0.07795253396034241,-0.34096614809807724,-0.1356369692940973,-0.05862289040568673
1737285429.6469634,12564,1737285429,644780992,base_link,0.06576002389192581,-0.07351969927549362,0.12017469853162766,0.1529113589964887,-0.00010562520028078873,-0.1783790693297203
1737285429.7433836,12565,1737285429,740775872,base_link,0.050129495561122894,-0.08213111013174057,0.0572659969329834,0.2909971862437866,-0.00922789682434943,-0.35858316464411366
1737285429.8475251,12566,1737285429,845769216,base_link,0.04731733724474907,-0.07273206859827042,-0.0007016323506832123,-0.06895874257788139,-0.15439380299569383,-0.42318137908638354
1737285429.9480119,12567,1737285429,945764352,base_link,0.10413888096809387,-0.0725429356098175,0.012753290124237537,0.07141002154379536,-0.05389235170990704,-0.6697216795424487
1737285430.0467546,12568,1737285430,45755648,base_link,0.07646919786930084,-0.08109129965305328,-0.025311272591352463,0.09741264652644996,0.2574321946883461,-0.8247356931099475
1737285430.148295,12569,1737285430,143748736,base_link,0.014462970197200775,-0.0751011073589325,-0.03590473160147667,0.23197761450920779,0.08654027711535295,-0.4606814374278353
1737285430.2437897,12570,1737285430,242745920,base_link,0.03751809149980545,-0.09714256972074509,0.06110373139381409,-0.015256230034870925,-0.005931485333785993,-0.13922448243113242
1737285430.342986,12571,1737285430,340740288,base_link,0.0008892007172107697,-0.07839661091566086,-0.0007232911884784698,-0.2903999653030974,-0.1829379182726235,0.07429983099108925
1737285430.4439647,12572,1737285430,442734656,base_link,0.013409373350441456,-0.09249553084373474,0.12111969292163849,-0.14898883130879007,-0.11155090145117566,0.003870417793462386
1737285430.5422654,12573,1737285430,540730304,base_link,0.0061905537731945515,-0.08724021911621094,0.10612474381923676,0.16841190218613208,0.10995168857181763,0.18105432033399782
1737285430.6391296,12574,1737285430,636726208,base_link,0.005289997905492783,-0.09334690123796463,0.04035550728440285,0.3553342494687023,0.045111338688839785,0.0713879074364864
1737285430.7378066,12575,1737285430,735722112,base_link,0.01173571590334177,-0.0934860110282898,0.10224501043558121,0.052827837735651556,-0.20616069183374375,0.0961558695219409
1737285430.837909,12576,1737285430,836717504,base_link,0.004242061637341976,-0.08923710137605667,0.09869663417339325,-0.36392393579184834,-0.18245876713958115,0.044955786029040844
1737285430.9430175,12577,1737285430,940710592,base_link,-0.00416157953441143,-0.0951211154460907,0.027202041819691658,0.31812098034463887,0.032426248786128126,-0.13892325376361558
1737285431.0388193,12578,1737285431,36706496,base_link,0.034445296972990036,-0.09538666903972626,0.1288970708847046,-0.5051782260401478,-0.10062845737532186,-0.04303775582094367
1737285431.1414876,12579,1737285431,138693952,base_link,0.04405423253774643,-0.08731886744499207,0.08263661712408066,-0.30213214682469774,-0.29739949565321305,-0.024124715700833584
1737285431.2371085,12580,1737285431,234688832,base_link,0.027684593573212624,-0.08696827292442322,0.0220163706690073,-0.006061283725301636,0.10964737884192341,0.04282321402463961
1737285431.337992,12581,1737285431,336681152,base_link,0.010599087923765182,-0.07530728727579117,-0.027065575122833252,0.31417230980261684,0.12319782215109318,-0.03477706291454951
1737285431.4392593,12582,1737285431,437673984,base_link,0.01678212359547615,-0.06943640857934952,-0.004190459847450256,0.298361522947452,0.11403008483798602,-0.060043930465150726
1737285431.539308,12583,1737285431,536670144,base_link,0.06651319563388824,-0.07798425853252411,0.05066436529159546,0.16426760202374077,0.23393928611580125,0.12370218810856606
1737285431.637214,12584,1737285431,634666560,base_link,0.029511339962482452,-0.07210999727249146,0.04996417462825775,-0.29481809657954433,-0.3103039975869238,-0.007113340108333993
1737285431.7410188,12585,1737285431,739659904,base_link,0.06863072514533997,-0.07323458790779114,0.08555099368095398,-0.3729814285945137,-0.1224703663637242,-0.01501017174723755
1737285431.8393939,12586,1737285431,837655040,base_link,0.04925952106714249,-0.07969855517148972,0.019452380016446114,0.4775781188654013,-0.016442091884612008,-0.11193807382488559
1737285431.940211,12587,1737285431,938643776,base_link,0.03573819249868393,-0.08115817606449127,-0.03646158054471016,0.4475343584092509,-0.030176009291700615,-0.16481418345233242
1737285432.0371118,12588,1737285432,35638912,base_link,0.0534413680434227,-0.09961507469415665,0.007668614387512207,-0.26436013809534237,0.06289610449995622,-0.17571245933228585
1737285432.1399937,12589,1737285432,138636352,base_link,0.062144532799720764,-0.09243376553058624,0.05219205841422081,-0.12012141332680934,0.008064709512545315,-0.044420119562909546
1737285432.2370346,12590,1737285432,235632512,base_link,0.06694654375314713,-0.10488136857748032,0.00732223317027092,0.53222826480445,0.2423026834815522,-0.1426594936414613
1737285432.338089,12591,1737285432,336625856,base_link,0.034100405871868134,-0.09500597417354584,-0.05520084500312805,0.05647732934720352,0.08247645715136914,0.16730781535436468
1737285432.4390047,12592,1737285432,437620736,base_link,0.06108545884490013,-0.100009985268116,-0.020316677168011665,-0.02630071574088228,-0.08212575326785254,0.04305591064362632
1737285432.5390418,12593,1737285432,537620736,base_link,0.046812839806079865,-0.08888579159975052,0.0036768391728401184,-0.1621728027347185,-0.15839711475207077,-0.05693237378357672
1737285432.6420646,12594,1737285432,640617408,base_link,0.040434688329696655,-0.08995158225297928,-0.05348142609000206,-0.18547761306392146,-0.1568126960556067,-0.07358441566585296
1737285432.738411,12595,1737285432,736612800,base_link,0.06610569357872009,-0.08552851527929306,0.0383608341217041,-0.17694152725722745,-0.07113237381169463,0.0673480849185518
1737285432.8402417,12596,1737285432,838609728,base_link,0.04257562384009361,-0.07394352555274963,0.015155832283198833,0.056989097766296334,-0.05631037458557478,-0.12168492171264617
1737285432.9413712,12597,1737285432,939605632,base_link,0.06701996922492981,-0.08463695645332336,0.07840245217084885,0.21998340945265293,0.22230855363078003,0.07991682476063101
1737285433.0423517,12598,1737285433,40601536,base_link,0.06049506366252899,-0.09014100581407547,0.07167286425828934,0.602240745201896,0.18733212555386947,-0.07614249669670331
1737285433.1373239,12599,1737285433,135594880,base_link,0.06977862119674683,-0.08159724622964859,0.03469087928533554,-0.02298282446906526,0.16149963112851415,0.17086245110384077
1737285433.2384086,12600,1737285433,236589504,base_link,0.05899883806705475,-0.0773828774690628,0.0002002342662308365,-0.10456327049460677,-0.11490182600630222,-0.03962332196820413
1737285433.3401604,12601,1737285433,338588736,base_link,0.03484662249684334,-0.06823820620775223,0.030467111617326736,0.01305542057932104,0.05756134755185627,-0.2580998638301759
1737285433.4382024,12602,1737285433,436582080,base_link,0.059886153787374496,-0.08201996982097626,-0.014664392918348312,0.17179114770221146,0.07786319530298999,0.12168711261018376
1737285433.5403538,12603,1737285433,538578240,base_link,0.017166290432214737,-0.07746199518442154,-0.027720820158720016,0.5159528896470276,0.10568299045079696,-0.16152895925792177
1737285433.6383228,12604,1737285433,636570048,base_link,0.025432124733924866,-0.08456752449274063,-0.029988747090101242,0.12016700615821017,-0.12719094942807713,-0.018473511816860896
1737285433.7394483,12605,1737285433,738567232,base_link,0.02822182886302471,-0.08998376131057739,-0.011380529031157494,-0.07736558335368585,0.023619046537544177,0.07957833483438616
1737285433.836204,12606,1737285433,834563904,base_link,0.00599735789000988,-0.08439378440380096,0.02231467515230179,-0.10126152989390423,-0.11045290194509456,-0.232362964319487
1737285433.9373755,12607,1737285433,935560576,base_link,0.022066745907068253,-0.09360704571008682,0.03472299873828888,-0.3670556047010468,0.03724771324392679,-0.0024537122865033794
1737285434.0383642,12608,1737285434,37557248,base_link,-0.007682495284825563,-0.07432840019464493,0.016663994640111923,-0.04305781360515941,0.08121676578867236,-0.12990975658182205
1737285434.141494,12609,1737285434,139556224,base_link,0.016839217394590378,-0.08509131520986557,0.04593615233898163,-0.43355333913109734,0.015145490189005385,0.17812597424965182
1737285434.2394652,12610,1737285434,238552128,base_link,-0.012049492448568344,-0.09857024997472763,0.05073069781064987,0.049201089005066374,0.05308309639706196,-0.11788753544276265
1737285434.3393288,12611,1737285434,337547520,base_link,-0.02360599860548973,-0.08755043148994446,0.028812186792492867,0.28101828179156607,-0.03734110921570765,-0.13387446079149354
1737285434.4373958,12612,1737285434,436544192,base_link,-0.015490684658288956,-0.09203499555587769,0.053095437586307526,-0.4058154528220807,-0.05568419334313164,0.1905701595055982
1737285434.537358,12613,1737285434,535536768,base_link,-0.026982806622982025,-0.09903034567832947,0.016754217445850372,-0.09063449418976273,0.07213581622028926,-0.0674389638522859
1737285434.6384206,12614,1737285434,636532416,base_link,-0.026427151635289192,-0.0958099439740181,-0.055272456258535385,0.21000537365296798,0.09896607288974796,0.15870218760831453
1737285434.739594,12615,1737285434,738529088,base_link,-0.04368897154927254,-0.0952286571264267,-0.036470718681812286,0.4580223583554437,0.16177411078733103,-0.062183688258559786
1737285434.838529,12616,1737285434,836521920,base_link,-0.029649389907717705,-0.09573390334844589,-0.0057553015649318695,-0.09214777128838483,0.026423299921821415,0.1931033779191179
1737285434.9397807,12617,1737285434,937518080,base_link,-0.03859070688486099,-0.09396594017744064,2.425163984298706e-05,-0.20343337548281124,-0.017645238769425312,0.1706691597934424
1737285435.038784,12618,1737285435,36512704,base_link,-0.03957942873239517,-0.08641918003559113,0.04230976104736328,-0.029862879954357463,-0.2011729406186043,-0.19755128841248568
1737285435.1404178,12619,1737285435,139508864,base_link,-0.025738781318068504,-0.08935428410768509,0.08256140351295471,-0.24268616068356652,-0.044949014830084594,-0.0717751806556137
1737285435.238711,12620,1737285435,237504768,base_link,-0.044259317219257355,-0.08480416238307953,-0.03692445531487465,0.24878490188818236,-0.1713675425375273,-0.1284096917146601
1737285435.3375103,12621,1737285435,336500160,base_link,-0.026805056259036064,-0.08374878019094467,0.0698678120970726,-0.39209084884517453,-0.09899446888235192,-0.07317047140840112
1737285435.4418743,12622,1737285435,439494016,base_link,-0.03878151625394821,-0.0741913914680481,0.04542812705039978,0.12824478491214458,-0.021816017632436013,-0.16138968897345832
1737285435.537994,12623,1737285435,536487104,base_link,-0.056415170431137085,-0.07815255224704742,0.02101978287100792,-0.23291307539458708,0.08778514412146518,0.13002722630345995
1737285435.6387317,12624,1737285435,637479936,base_link,-0.04672972857952118,-0.07751106470823288,0.037022992968559265,0.1547971752270794,0.19213077043463625,0.06768965567400058
1737285435.7406685,12625,1737285435,738475840,base_link,-0.05795237794518471,-0.06015527993440628,-0.03213578462600708,0.2863840083663007,-0.11876559197061877,-0.01250037357736871
1737285435.8402534,12626,1737285435,837470464,base_link,-0.023837769404053688,-0.04717813804745674,0.03554819896817207,-0.41770535054796243,-0.014923211209092142,0.07763542193104894
1737285435.9415934,12627,1737285435,939464576,base_link,-0.05563631281256676,-0.037802085280418396,0.027998529374599457,-0.01832232499923209,-0.21610089489970916,-0.15858387111046432
1737285436.037654,12628,1737285436,35459968,base_link,-0.06737565994262695,-0.03680483624339104,-0.017404023557901382,0.05923134343621142,-0.012395072361361467,-0.006822554838816023
1737285436.1416314,12629,1737285436,139455616,base_link,-0.050144992768764496,-0.051011186093091965,0.019189409911632538,-0.026926417774211783,0.08642772901926593,-0.15433507815336855
1737285436.2429278,12630,1737285436,240450496,base_link,-0.048209287226200104,-0.05307423323392868,-0.019496973603963852,0.27330924099701226,0.07119446039157153,0.04646260752364701
1737285436.3465414,12631,1737285436,344443840,base_link,-0.051249004900455475,-0.04877839237451553,0.029272086918354034,-0.018696953720552377,-0.160300588817605,-0.049388046984797054
1737285436.4427412,12632,1737285436,441440768,base_link,-0.04169485718011856,-0.05757097899913788,-0.03148721158504486,0.2175065675216892,0.09592083768173618,0.17301721480444018
1737285436.5418358,12633,1737285436,540436928,base_link,-0.022370360791683197,-0.06454504281282425,0.06011228263378143,-0.3047942646419997,-0.054498896107539906,0.10528712453319489
1737285436.6476085,12634,1737285436,645433088,base_link,-0.020356977358460426,-0.06822949647903442,-0.0005349917337298393,0.20104439358836015,0.12061846234049867,-0.13073568580208147
1737285436.7457712,12635,1737285436,744430272,base_link,-0.016634400933980942,-0.06756917387247086,0.08197897672653198,0.04501866451890647,0.1345225057051778,0.052441361398623626
1737285436.8427093,12636,1737285436,840426432,base_link,-0.03951118886470795,-0.06789565086364746,-0.0031517595052719116,-0.09899454640578689,-0.09407387673432047,-0.08728376409972022
1737285436.9492588,12637,1737285436,947420288,base_link,-0.04272398725152016,-0.06715076416730881,0.05707675591111183,0.07525440503466423,-0.06300136985989625,-0.16769719691747834
1737285437.0447235,12638,1737285437,43416960,base_link,-0.015261074528098106,-0.06549174338579178,0.03137851506471634,0.3074206077808055,0.08700213912741629,0.055344737267113656
1737285437.1457686,12639,1737285437,144407744,base_link,-0.006526615470647812,-0.06635954976081848,0.053912971168756485,-0.02502651965883233,0.1237679953332884,0.18535687267706702
1737285437.2446945,12640,1737285437,243401600,base_link,-0.04571688175201416,-0.07087370753288269,0.0252013448625803,-0.18720043632420583,-0.2970262988484192,-0.0867324902693429
1737285437.3458867,12641,1737285437,344398784,base_link,-0.05093298852443695,-0.06323447078466415,0.0010365117341279984,-0.4570207002986965,-0.17599492915298867,-0.038292432217458386
1737285437.4479148,12642,1737285437,446395200,base_link,-0.0531461238861084,-0.059039097279310226,-0.050224669277668,0.49800074144508805,0.09686191290592143,-0.09860156008262903
1737285437.5469682,12643,1737285437,545390336,base_link,-0.013305861502885818,-0.06832326948642731,0.020220478996634483,-0.3455615385626617,-0.0383938860721375,0.1600890058844741
1737285437.643043,12644,1737285437,641387008,base_link,-0.031199133023619652,-0.05934169515967369,-0.051782868802547455,-0.1884918713654818,-0.1338210630280185,-0.08840295766290887
1737285437.7390845,12645,1737285437,737384192,base_link,-0.025882670655846596,-0.06251262873411179,0.022766008973121643,-0.22412549568555645,-0.06211551543210566,-0.06944570771387089
1737285437.8378572,12646,1737285437,836378304,base_link,-0.040330782532691956,-0.05765821039676666,0.005305595695972443,-0.0563254691895572,-0.18617757093719717,-0.15127135426107027
1737285437.9408634,12647,1737285437,939373696,base_link,-0.005695868283510208,-0.053318120539188385,0.03876180574297905,0.13730419874185726,0.041027068106944085,-0.051264328955170045
1737285438.0405238,12648,1737285438,38367296,base_link,-0.04384737089276314,-0.05688433721661568,-0.010046863928437233,0.18579374591239675,0.2125252712306888,0.08647471244871704
1737285438.1391032,12649,1737285438,137361152,base_link,-0.029145214706659317,-0.04326535388827324,-0.0587155744433403,-0.16415578199267014,-0.17628254439505345,-0.08226495190667799
1737285438.2401056,12650,1737285438,238354752,base_link,-0.026087921112775803,-0.042481422424316406,-0.007095016539096832,-0.4039158546427573,-0.10281253310409154,0.0846190955042477
1737285438.3378944,12651,1737285438,336349888,base_link,-0.03613017871975899,-0.03119416907429695,-0.004348470829427242,-0.04112064723095223,-0.07932465326465285,-0.1473092909654508
1737285438.4391658,12652,1737285438,438341952,base_link,-0.025862816721200943,-0.035715892910957336,0.02983260154724121,-0.02694855369733205,0.17830370479661484,0.007151393547219226
1737285438.5362434,12653,1737285438,534332736,base_link,-0.016264311969280243,-0.03456639125943184,-0.01032162457704544,0.3969432238427382,0.06942397566229933,-0.1552595970580124
1737285438.636829,12654,1737285438,635326080,base_link,-0.015699569135904312,-0.036896541714668274,-0.043766286224126816,0.11850204786641341,0.19967246630955868,0.04587639576334936
1737285438.736021,12655,1737285438,734321984,base_link,-0.007383920252323151,-0.025082385167479515,0.034939076751470566,-0.14279786997784474,-0.03105650519982634,-0.08761941551273383
1737285438.8371456,12656,1737285438,836317120,base_link,-0.021475493907928467,-0.019167155027389526,-0.0004696156829595566,-0.22450524522895587,-0.09325537495248254,0.11421771383186442
1737285438.9420185,12657,1737285438,940310720,base_link,-0.04049476981163025,-0.014125585556030273,-0.05710311979055405,-0.2636475793645527,0.09282460032099561,-0.017660080977040127
1737285439.0381002,12658,1737285439,36306624,base_link,-0.037824392318725586,-0.009738864377140999,0.012871378101408482,0.1417217942289897,-0.031411128100396694,-0.16504490893028284
1737285439.1405137,12659,1737285439,138306624,base_link,-0.00527886301279068,-0.024510517716407776,0.03880762308835983,-0.17073676782007938,0.05461335557852702,0.0667228320825806
1737285439.238677,12660,1737285439,236294848,base_link,-0.011324749328196049,-0.02461017481982708,-0.012961403466761112,0.2942822111309593,0.060590413030277096,-0.13628797863944966
1737285439.3373563,12661,1737285439,336280512,base_link,-0.019086243584752083,-0.01297674048691988,-0.03537818416953087,0.4001647367851807,0.03860313900898561,-0.11269147104648476
1737285439.4383848,12662,1737285439,437269504,base_link,0.001766738248988986,-0.016411740332841873,-0.031162671744823456,-0.0026733289650483776,0.08420004333964859,0.23779504425780756
1737285439.538465,12663,1737285439,536270272,base_link,0.017057614400982857,-0.015962887555360794,0.023189982399344444,0.33681890349795435,0.0508419515342465,0.03996433028310091
1737285439.639443,12664,1737285439,637264896,base_link,0.01277878601104021,0.0021038888953626156,-0.008301218040287495,-0.2905926614419304,-0.2129659601405312,0.11767866374157686
1737285439.7401652,12665,1737285439,738259008,base_link,0.007093383930623531,-0.004687522538006306,0.043182749301195145,-0.15416070229492276,-0.10879568618587633,-0.15210972529431455
1737285439.8382123,12666,1737285439,837252096,base_link,-0.0011083651334047318,-0.0019985900726169348,0.004870366305112839,0.10250053240650348,-0.01448378150157329,-0.02244177793622553
1737285439.9405127,12667,1737285439,938246720,base_link,-0.007206149399280548,-0.007163151167333126,-0.011475130915641785,0.18251842064155394,-0.051886732331915875,-0.16676501235570998
1737285440.0367877,12668,1737285440,35242624,base_link,0.01868513412773609,-0.0007494651363231242,-0.038553155958652496,0.2663380227464827,0.20750561311306573,0.14199828951076598
1737285440.1382542,12669,1737285440,137236736,base_link,0.013595817610621452,-0.010161934420466423,-0.023615790531039238,0.08292636214597457,0.015681997137334695,0.04328802699705945
1737285440.237434,12670,1737285440,236232128,base_link,0.0225383210927248,-0.006494621280580759,-0.0360436774790287,0.1342752928588928,0.09997807297099394,0.18868560348023108
1737285440.3404992,12671,1737285440,337224192,base_link,0.0002906434237957001,0.010382194072008133,-0.0625419095158577,-0.003727694994608334,-0.11404017790107736,-0.0745540453235714
1737285440.4396107,12672,1737285440,438223168,base_link,0.012539751827716827,0.0017145376186817884,-0.02137569524347782,-0.03488369151019296,0.07059411963334872,0.08447555522714958
1737285440.53654,12673,1737285440,535219840,base_link,-0.004542097914963961,0.02336462028324604,0.02853761799633503,-0.2845026511365256,-0.2097083276689259,0.08008888704651478
1737285440.6374598,12674,1737285440,636213184,base_link,0.020432734861969948,0.02088017202913761,0.05788429081439972,-0.24588546017662674,-0.08850073771086543,0.13683036433970738
1737285440.739486,12675,1737285440,738208064,base_link,0.007529092952609062,0.033569108694791794,-0.010932628065347672,-0.17533167007383332,-0.2450647042252739,-0.03529120595126792
1737285440.8390632,12676,1737285440,837201920,base_link,0.008265870623290539,0.027803320437669754,0.06674768775701523,-0.040722838476743545,0.05932387868910726,0.009236359756178487
1737285440.9357462,12677,1737285440,934199872,base_link,-0.02603602223098278,0.04058670997619629,-0.01242872141301632,0.03872753117913482,-0.15748780077915633,-0.060476016653116436
1737285441.0424857,12678,1737285441,40195776,base_link,-0.014354893006384373,0.04137689992785454,-0.015417180955410004,-0.40513939730738,-0.09833000664579047,0.04146111018299326
1737285441.1475592,12679,1737285441,137189376,base_link,-0.031230255961418152,0.03710751235485077,-0.008680546656250954,0.006670626522268654,-0.20627640907698105,-0.08671604339396836
1737285441.2407138,12680,1737285441,239186816,base_link,-0.02431134134531021,0.04216862469911575,-0.009233287535607815,-0.12984874415808859,0.031046572651696042,0.12943318890234132
1737285441.3394594,12681,1737285441,338181440,base_link,0.010335654020309448,0.032542839646339417,0.04915516451001167,-0.26263438285911334,-0.2776619200789272,-0.09412972514203706
1737285441.438486,12682,1737285441,437176320,base_link,-0.022397128865122795,0.0478375181555748,0.01180439256131649,0.3195875520533984,0.041048471400856344,-0.21651354386123034
1737285441.5386312,12683,1737285441,536171712,base_link,-0.007499746046960354,0.03151250258088112,-0.0010047480463981628,0.0690480445174725,-0.026725295928189965,0.05035493805670142
1737285441.6396115,12684,1737285441,638169408,base_link,-0.028130510821938515,0.03325071185827255,-0.06145753711462021,0.27877067142644646,-0.11256312464551875,-0.09287777394172697
1737285441.7407181,12685,1737285441,739165568,base_link,-0.03577055409550667,0.029341138899326324,-0.037965454161167145,-0.5148071123668678,-0.14317252950110207,0.1615123603398858
1737285441.8394473,12686,1737285441,838162752,base_link,-0.025152603164315224,0.030256932601332664,-0.039290715008974075,-0.019199233066322974,-0.12037482704340305,0.04153066323703678
1737285441.9388106,12687,1737285441,937158912,base_link,-0.021114684641361237,0.02024386078119278,0.04826261103153229,-0.13075569848352503,0.0683876262064343,0.051755640987737335
1737285442.0375905,12688,1737285442,36153280,base_link,-0.0380464643239975,0.01612844318151474,-0.062394797801971436,0.11181845317125627,0.003546386841377355,-0.019489147221991836
1737285442.1390002,12689,1737285442,137144576,base_link,-0.016148975118994713,0.019779006019234657,-0.02231224626302719,-0.0994194928446342,-0.2043380711522421,-0.04050305662605404
1737285442.239829,12690,1737285442,238140480,base_link,-0.02991415560245514,0.023069415241479874,0.026647210121154785,-0.2865423981769931,-0.06290425376925225,-0.11770060097049673
1737285442.3388476,12691,1737285442,337134336,base_link,-0.023122835904359818,0.0032193996012210846,-0.01216724794358015,0.12873511460411663,0.05074910764867388,0.2213960461997068
1737285442.437925,12692,1737285442,436130496,base_link,-0.023835092782974243,0.014265395700931549,0.016061298549175262,0.0690183842593481,0.1133514759303737,0.17894212514268104
1737285442.5391493,12693,1737285442,537130240,base_link,-0.022101543843746185,0.013193445280194283,0.04642485827207565,-0.3724277783321718,0.018510676467174345,0.0843099606863027
1737285442.6409864,12694,1737285442,639126912,base_link,-0.02580069750547409,0.0011728890240192413,-0.022916587069630623,0.16018716451543719,0.2106666300646357,0.05667339909978761
1737285442.7368746,12695,1737285442,735122816,base_link,-0.04216254502534866,0.013100055046379566,-0.012932926416397095,-0.1297725040904685,-0.035356023452781965,-0.06472938286804714
1737285442.8391075,12696,1737285442,837116672,base_link,-0.03585326299071312,0.01116609014570713,-0.045553017407655716,0.3337545700919189,0.25208152715014304,-0.05468364589685393
1737285442.941937,12697,1737285442,940113088,base_link,-0.023905092850327492,0.01135995239019394,0.048427317291498184,-0.10680277547895156,-0.07760280181179681,-0.11701035741753756
1737285443.038134,12698,1737285443,36110016,base_link,-0.012110515497624874,0.017595898360013962,-0.02313069999217987,0.14476118808069538,-0.0008786351573114492,0.03837164764452941
1737285443.1446526,12699,1737285443,140106944,base_link,-0.008167681284248829,0.015478666871786118,-0.02015642449259758,0.04429435747410536,-0.08925652522964805,-0.00850948742493728
1737285443.2460456,12700,1737285443,243104128,base_link,0.0017633489333093166,0.011625471524894238,-0.04500690475106239,-0.3575452397140017,-0.07743010613216057,-0.05017397786299692
1737285443.3386505,12701,1737285443,337097216,base_link,0.007966399192810059,0.004456071648746729,-0.027932941913604736,0.11004384657138533,-0.15582522190466414,0.03736326108282936
1737285443.4389405,12702,1737285443,437091072,base_link,-0.016750792041420937,-0.004564281553030014,-0.03971858322620392,0.1102078748826075,-0.05102885247041979,-0.25611284273058976
1737285443.538546,12703,1737285443,537082624,base_link,-0.0018555745482444763,-0.01258261688053608,-0.008734438568353653,0.038310989857485406,0.09512503640462382,0.11591689600212851
1737285443.642712,12704,1737285443,641075200,base_link,0.0031057726591825485,-0.01663247123360634,-0.017058897763490677,-0.2591303239188646,-0.07430829934513902,0.18303616200368247
1737285443.7449296,12705,1737285443,743071616,base_link,0.00933956727385521,-0.019110431894659996,-0.025545740500092506,-0.29533667422970555,-0.021273283527359323,0.007382497679639891
1737285443.8449512,12706,1737285443,843064960,base_link,0.007315861061215401,-0.009239014238119125,-0.042160484939813614,0.13462252920944565,0.09194196489541348,0.04692841179300795
1737285443.948749,12707,1737285443,947056256,base_link,0.0019314661622047424,-0.013496967032551765,-0.06664184480905533,0.254062202490354,0.05017117508401057,-0.007124964955663009
1737285444.0457487,12708,1737285444,44049856,base_link,0.031440239399671555,-0.01933005452156067,0.05086755007505417,-0.3728277399991645,-0.002089654315104647,0.20223081351954175
1737285444.1361256,12709,1737285444,134044992,base_link,-0.0037508681416511536,-0.012725213542580605,-0.0065706511959433556,-0.10558279048539691,-0.1158131436880194,-0.016995556465152037
1737285444.2369227,12710,1737285444,235039360,base_link,0.026065461337566376,-0.009924167767167091,-0.008478812873363495,0.4238370130528629,0.14510042709930673,-0.09810818568698791
1737285444.3488457,12711,1737285444,347031424,base_link,0.029181987047195435,-0.013467793352901936,0.0062209926545619965,0.18939051323448572,-0.04178778882029194,-0.08302569507633124
1737285444.448242,12712,1737285444,446025024,base_link,0.0017434658948332071,-0.003453825833275914,-0.03146139904856682,0.20948961844658429,0.061820425457396605,-0.20299651709224828
1737285444.5389545,12713,1737285444,537018112,base_link,-0.0006713616894558072,-0.001364373485557735,-0.03395635262131691,0.36378257063195624,0.04984953397353534,-0.09894070595004005
1737285444.6391287,12714,1737285444,637012736,base_link,0.010537173599004745,-0.0032365103252232075,0.015525491908192635,0.011836427696008785,0.02408324392295727,0.05549748901573827
1737285444.7373059,12715,1737285444,735009408,base_link,0.0046735540963709354,0.005645145662128925,0.031348250806331635,-0.19024240370124487,-0.30360078212847297,-0.09662349177561608
1737285444.8430328,12716,1737285444,841002752,base_link,0.008822808973491192,0.007220268249511719,-0.029397625476121902,-0.28976413245413163,-0.1429513053114644,-0.018955802109353735
1737285444.939027,12717,1737285444,936997120,base_link,0.04459361359477043,-0.004572360776364803,0.08901546895503998,-0.48215183745673834,-0.2527137728643239,0.19911172133428834
1737285445.040887,12718,1737285445,38989440,base_link,0.03299025818705559,0.009675788693130016,0.03932022303342819,-0.24378424301432786,-0.16401340156694982,0.006685378891891806
1737285445.1395059,12719,1737285445,137986112,base_link,0.03519758582115173,0.0013327092165127397,0.08893055468797684,-0.0019762758161992982,0.002991729976479404,0.01970197711141779
1737285445.241203,12720,1737285445,236982528,base_link,0.03547877073287964,0.01419253833591938,0.003920726478099823,-0.057847906837232344,-0.1825498934496144,-0.025601922773332
1737285445.337023,12721,1737285445,335977152,base_link,0.018999068066477776,0.015256885439157486,0.0798322781920433,-0.333810146341354,-0.010888342764400856,-0.04252500905433411
1737285445.4381244,12722,1737285445,435965376,base_link,0.004981767386198044,0.014625626616179943,0.02662239596247673,0.30818160029986236,0.23763268933511797,0.053011506129962284
1737285445.5403159,12723,1737285445,537957952,base_link,0.001300768693909049,0.031921401619911194,-0.014658834785223007,0.35578712655752115,0.13109053227381395,-0.09238116341523385
1737285445.6360126,12724,1737285445,634954112,base_link,0.010535068809986115,0.028200803324580193,0.048682816326618195,-0.10476259938271669,-0.03626855800804537,-0.08051405027048439
1737285445.7401865,12725,1737285445,738953344,base_link,0.01018737442791462,0.03053927794098854,0.03744615241885185,-0.18843732091788984,-0.23265163423546112,-0.07989104144521358
1737285445.841211,12726,1737285445,839948992,base_link,-0.0114067941904068,0.03125330060720444,-0.01811981201171875,-0.3359471666653877,0.028420685368567858,-0.002436966928944522
1737285445.9380765,12727,1737285445,936948992,base_link,0.003469395451247692,0.030450638383626938,-0.016209274530410767,-0.20167838134681879,-0.00261499220738937,-0.07123149701111071
1737285446.0399737,12728,1737285446,37938752,base_link,0.02312410995364189,0.0013522258959710598,-0.0038252025842666626,-0.149171313708052,0.015121138453321605,0.2030399253173871
1737285446.1360283,12729,1737285446,134927744,base_link,0.025185376405715942,0.0018893920350819826,0.05885913968086243,0.08466991724388064,0.029553923251674625,0.01882125832477089
1737285446.2401218,12730,1737285446,237924160,base_link,0.020422421395778656,-0.005158699117600918,-0.011731193400919437,0.18135246283179027,0.2443246098689886,0.20614399372398592
1737285446.3380368,12731,1737285446,336917760,base_link,0.015329362824559212,-0.012722625397145748,0.005987372249364853,0.10484104752329415,0.10147084234773573,0.10157847587256219
1737285446.4373274,12732,1737285446,435911616,base_link,0.006428072229027748,0.0016933036968111992,-0.01325622946023941,0.39375275206538995,0.005198927184649349,0.022742398961292327
1737285446.5390096,12733,1737285446,536904960,base_link,0.02484503947198391,-0.008634239435195923,0.003547482192516327,-0.07360701337283128,0.08583634336318803,0.18550330190593342
1737285446.637233,12734,1737285446,635901888,base_link,0.0026175323873758316,0.004838877823203802,-0.005153767764568329,0.4439787177523896,0.14763613458015074,-0.07743342365300054
1737285446.7365146,12735,1737285446,734896256,base_link,0.004286243114620447,0.014439496211707592,0.009934775531291962,-0.07857080340581048,-0.12103037072909063,0.11970830784574643
1737285446.8374047,12736,1737285446,835892672,base_link,0.020365916192531586,0.014447402209043503,0.030806319788098335,0.2974125600304133,0.08966590954355977,0.0385378295998095
1737285446.9415078,12737,1737285446,938886784,base_link,0.017896385863423347,0.01050054095685482,-0.00885026901960373,-0.23120014083686122,-0.2054118772699962,0.08266140743533668
1737285447.042341,12738,1737285447,40881408,base_link,-0.021414585411548615,0.027446456253528595,-0.06148923560976982,-0.40684304395830495,-0.1064924794738432,0.052531428085041236
1737285447.139466,12739,1737285447,137881408,base_link,0.010374752804636955,0.02655600756406784,0.015636298805475235,-0.23467819396233677,-0.26223230804158143,-0.06378849998384534
1737285447.238381,12740,1737285447,236876544,base_link,0.002943621948361397,0.0203222818672657,0.048234254121780396,-0.08317533253604134,0.051719637625855144,0.013956008956413614
1737285447.3403866,12741,1737285447,338872192,base_link,-0.03913603723049164,0.03329446166753769,-0.017916087061166763,0.19292441139226016,-0.01854828171396156,-0.238893258553454
1737285447.4397159,12742,1737285447,436866560,base_link,-0.018335964530706406,0.028033088892698288,-0.07082130759954453,0.2549282211325478,0.08631220756989591,0.06446057581329294
1737285447.5385394,12743,1737285447,536861952,base_link,-0.013972815126180649,0.021747775375843048,-0.011243162676692009,0.29068667261609193,0.23257561321627118,-0.03092323257061167
1737285447.6406379,12744,1737285447,638858880,base_link,-0.04131963104009628,0.034512560814619064,0.01136568933725357,0.3357916692954935,0.009286161442961143,-0.16813332607806009
1737285447.7414699,12745,1737285447,739852224,base_link,-0.041705936193466187,0.02996794320642948,0.035734329372644424,0.11963743862011376,-0.021037355492836557,0.1023103908367692
1737285447.8467228,12746,1737285447,835847872,base_link,-0.06615117937326431,0.03418983146548271,-0.0526956170797348,-0.0932856809853174,-0.07888821705757296,-0.10350257013899974
1737285447.9407997,12747,1737285447,938839424,base_link,-0.05489217862486839,0.016462525352835655,-0.013133949600160122,0.016569948430860553,0.06640449357630024,0.1474879386270497
1737285448.038302,12748,1737285448,36832512,base_link,-0.0880642905831337,0.028607957065105438,-0.0587158128619194,0.16256468177425298,0.0003272251716470657,-0.12056940492025409
1737285448.1405869,12749,1737285448,138827648,base_link,-0.05618084967136383,0.017104968428611755,-0.016713973134756088,-0.18928513726586707,-0.011447863354367436,0.17427554456701944
1737285448.2383025,12750,1737285448,236823040,base_link,-0.0562809519469738,0.023650728166103363,0.037389542907476425,-0.28409085306266685,-0.038474009332298824,-0.05604921845909304
1737285448.33886,12751,1737285448,336816384,base_link,-0.06499696522951126,0.02294817380607128,0.01787836290895939,-0.2576938242173482,-0.3721233098563118,0.0788426469191122
1737285448.4374158,12752,1737285448,435812800,base_link,-0.03595855459570885,0.005144381895661354,0.07182928174734116,-0.1725041545295453,0.08620739686468376,0.09697545904913323
1737285448.5416124,12753,1737285448,537809216,base_link,-0.032978225499391556,0.009384030476212502,0.043366413563489914,-0.2584374164593281,-0.3536863579819662,0.031009440999933816
1737285448.6373854,12754,1737285448,635803584,base_link,-0.05224362760782242,0.003684466239064932,0.019438890740275383,0.11922169128235799,0.09441004863990045,-0.06366253256909618
1737285448.7394958,12755,1737285448,737801792,base_link,-0.03784032538533211,0.00825601164251566,0.0017948001623153687,-0.27902143887560843,-0.021408799970289685,0.13211404374729335
1737285448.8354285,12756,1737285448,833798464,base_link,-0.05971410870552063,0.016335638239979744,-0.029640398919582367,0.17759574699673406,0.06069965915790673,-0.14751145371794122
1737285448.9407017,12757,1737285448,938796672,base_link,-0.05948560684919357,0.013875268399715424,0.030414719134569168,0.5322363587360072,0.26304450474245883,-0.17514945341535165
1737285449.0395484,12758,1737285449,37790016,base_link,-0.07255380600690842,0.001369024976156652,0.0635945051908493,0.5390160520342949,0.3148394214170939,0.04266097785384149
1737285449.1388354,12759,1737285449,136785664,base_link,-0.09009916335344315,-0.0002685757353901863,0.08214592933654785,0.5328316138756274,-0.03899842039085632,-0.12349509419914667
1737285449.2406251,12760,1737285449,238782848,base_link,-0.09339651465415955,-0.018665872514247894,0.07838394492864609,0.2599251702983736,0.0926502936468076,-0.12919678753395683
1737285449.3396504,12761,1737285449,337776960,base_link,-0.0705990269780159,-0.04542369022965431,0.07147137075662613,-0.014800046929763066,0.044994584489680155,0.10276815418084974
1737285449.4386108,12762,1737285449,436771840,base_link,-0.1064004898071289,-0.06285277754068375,0.11277492344379425,-0.19883092002355954,-0.1381755384617712,-0.08269393663795135
1737285449.5404596,12763,1737285449,538768512,base_link,-0.10719798505306244,-0.06852198392152786,0.10659614205360413,-0.16676384817518417,0.22937084141748898,-0.011363091842677666
1737285449.6366265,12764,1737285449,635760832,base_link,-0.10958202928304672,-0.09433102607727051,0.06236017122864723,0.021879821535278305,0.16470773129406363,0.053761574055916334
1737285449.7370055,12765,1737285449,734754432,base_link,-0.08214355260133743,-0.11093039065599442,0.12575149536132812,0.3498865925681063,0.04383610530591308,-0.06919351425055917
1737285449.8476746,12766,1737285449,845749056,base_link,-0.10738357901573181,-0.12755580246448517,0.07277487218379974,0.1178024945353902,-0.17733609490218008,-0.1724579615821206
1737285449.9494379,12767,1737285449,947743168,base_link,-0.11363152414560318,-0.15860414505004883,0.11346506327390671,0.48786304878660763,0.011183140070874384,0.13540079871201524
1737285450.0436838,12768,1737285450,41736256,base_link,-0.13303756713867188,-0.20038250088691711,0.0746338814496994,-0.2820385720304281,-0.056351379134853455,0.123503871951589
1737285450.147916,12769,1737285450,146728832,base_link,-0.16021117568016052,-0.25129106640815735,0.06501144915819168,0.3759962550485327,-0.023491638870285554,-0.12880734869871457
1737285450.2447796,12770,1737285450,242720640,base_link,-0.1728207916021347,-0.3097889721393585,0.11311091482639313,-0.46970636374659447,-0.05760623756933294,0.053259847741895544
1737285450.346048,12771,1737285450,344714240,base_link,-0.21378138661384583,-0.36314722895622253,0.12135764211416245,-0.33995811348322624,-0.2945915802067203,0.06016213325035039
1737285450.4450655,12772,1737285450,443705280,base_link,-0.20744124054908752,-0.41704806685447693,0.07643625140190125,0.08974476475695713,0.1912271111682017,-0.002865235942515674
1737285450.546974,12773,1737285450,544699136,base_link,-0.22452931106090546,-0.4644014537334442,0.062242455780506134,0.2499410382672133,0.25290683104314443,0.18161049971336718
1737285450.6459782,12774,1737285450,643695040,base_link,-0.250482976436615,-0.512110710144043,0.1569572389125824,0.004571213941137573,-0.03620341233531307,-0.023745071640704003
1737285450.744929,12775,1737285450,743692224,base_link,-0.2171926498413086,-0.5620702505111694,0.12788349390029907,0.32932184921342783,0.20818516478636723,-0.13843863748551463
1737285450.8410258,12776,1737285450,839686592,base_link,-0.237911194562912,-0.6009723544120789,0.1227804571390152,-0.09797002354656399,0.14128588579802479,-0.07564151740914568
1737285450.9416707,12777,1737285450,939681984,base_link,-0.23381848633289337,-0.6150270700454712,0.1815325766801834,-0.15462444847217188,0.26854218623592546,0.0031544178851898117
1737285451.0377932,12778,1737285451,36680192,base_link,-0.25156158208847046,-0.6368224024772644,0.11872302740812302,-0.1235742621409338,-0.047070031839003275,0.0995606424341362
1737285451.1378233,12779,1737285451,136673280,base_link,-0.27017372846603394,-0.6348319053649902,0.08657281845808029,0.16094788854296277,-0.04785743043234,-0.19762749699296875
1737285451.238857,12780,1737285451,237669440,base_link,-0.22136792540550232,-0.6172433495521545,0.09959666430950165,-0.18261961507534705,-0.13194795736667406,0.05710189656144824
1737285451.336827,12781,1737285451,334661504,base_link,-0.228225976228714,-0.6042460799217224,0.07016472518444061,0.016576388638208275,0.07415732005775896,0.03244040315982368
1737285451.438006,12782,1737285451,436655872,base_link,-0.23462465405464172,-0.6021525263786316,0.15338796377182007,-0.05406295671335365,-0.04283759697210824,-0.20731737362922265
1737285451.5406778,12783,1737285451,538652032,base_link,-0.23119992017745972,-0.6111009120941162,0.10560155659914017,0.37123967038790606,0.12689132271935272,0.08232433975840271
1737285451.6389556,12784,1737285451,637646912,base_link,-0.2467595487833023,-0.6142280697822571,0.0570753812789917,0.18701282918274018,-0.03757004203716679,0.020303681371811117
1737285451.7391245,12785,1737285451,736662528,base_link,-0.2123705893754959,-0.6467223167419434,0.12940436601638794,-0.3429854330430298,-0.18196784135755842,0.15108410931423621
1737285451.840883,12786,1737285451,837658176,base_link,-0.25482043623924255,-0.6681572794914246,0.1321750432252884,-0.01566719437313447,-0.014371963298430221,-0.2029888218869796
1737285451.9449728,12787,1737285451,940649984,base_link,-0.24520856142044067,-0.7099610567092896,0.17747025191783905,0.3283793887410589,0.05760640383489206,-0.06171204418680552
1737285452.0520008,12788,1737285452,36646144,base_link,-0.25122883915901184,-0.7331966757774353,0.15092889964580536,-0.4265785256554983,-0.1303989467999192,0.08607887168175804
1737285452.137384,12789,1737285452,135646144,base_link,-0.28793615102767944,-0.7629764676094055,0.08884510397911072,0.3113133434839433,0.2554304618476056,0.05689435447872144
1737285452.2395358,12790,1737285452,237646144,base_link,-0.3134835362434387,-0.7829210758209229,0.07127608358860016,0.2264426589470085,-0.17676864193589265,-0.18277052416443204
1737285452.3360722,12791,1737285452,333632064,base_link,-0.3224763572216034,-0.802814245223999,0.1055355817079544,-0.3153705840393233,-0.22293105729202958,-0.004963549901631718
1737285452.4393363,12792,1737285452,437629248,base_link,-0.3117012083530426,-0.8346133828163147,0.09100920706987381,-0.3729279705216198,-0.1029098252059893,0.119016174042221
1737285452.5394542,12793,1737285452,537625152,base_link,-0.3344825506210327,-0.8557888269424438,0.08203543722629547,-0.16205731889622477,-0.0397800578253728,0.1536337472122401
1737285452.6363292,12794,1737285452,634620032,base_link,-0.3774130642414093,-0.8756541013717651,0.09436187148094177,-0.4330103809117548,0.0824348416509634,0.13105140991397227
1737285452.740385,12795,1737285452,738611328,base_link,-0.36717554926872253,-0.8813897967338562,0.13724173605442047,-0.3744704484721002,0.06443369423215244,0.04810658469081598
1737285452.8393729,12796,1737285452,837605184,base_link,-0.4198402762413025,-0.8859005570411682,0.09536729753017426,0.11228096957283476,0.05864943989259671,-0.16857789588479039
1737285452.9393945,12797,1737285452,937600320,base_link,-0.4370272159576416,-0.8834598660469055,0.031080950051546097,0.12956796703781398,-0.10179637169361644,-0.14985178975346672
1737285453.0403728,12798,1737285453,38598784,base_link,-0.43266069889068604,-0.8967387080192566,0.07170219719409943,-0.08468610358991689,-0.029096329212932145,-0.05391499713217825
1737285453.138582,12799,1737285453,135593408,base_link,-0.45833805203437805,-0.8941690921783447,0.11859077960252762,-0.07981379805126218,0.2067776663895158,0.16035131605884465
1737285453.2394125,12800,1737285453,237587008,base_link,-0.5040524005889893,-0.881329357624054,0.1026521697640419,0.21187284019006902,0.1323293403986041,-0.10225583280633022
1737285453.3383155,12801,1737285453,336583936,base_link,-0.5022789239883423,-0.8925079703330994,0.046455852687358856,0.2052746546661799,-0.09586067863696238,-0.046894768882626676
1737285453.4392617,12802,1737285453,437578560,base_link,-0.45531225204467773,-0.9200876951217651,0.11122046411037445,-0.16406261867148977,0.01437942824490553,0.3139358156816104
1737285453.5394855,12803,1737285453,537571648,base_link,-0.44330212473869324,-0.9304702281951904,0.15313993394374847,-0.3393326302189808,-0.11439181558855593,0.18972409993606196
1737285453.6364267,12804,1737285453,634568064,base_link,-0.4567098915576935,-0.9615575671195984,0.11559854447841644,0.35294109077300173,0.16962193742331713,-0.057229006520559865
1737285453.7403078,12805,1737285453,738560384,base_link,-0.44179442524909973,-0.9712665677070618,0.19159558415412903,0.29892941977695736,-0.07585998588587917,-0.07630128301335194
1737285453.8415234,12806,1737285453,839552448,base_link,-0.4090748727321625,-0.9908545613288879,0.13932958245277405,-0.4268968112942032,-0.3253873238470607,0.22776314991066987
1737285453.9395418,12807,1737285453,937548096,base_link,-0.41995111107826233,-1.003692865371704,0.13533850014209747,-0.19926851604783463,-0.2556926764665458,-0.08591974942842488
1737285454.0354047,12808,1737285454,33543232,base_link,-0.4527052938938141,-1.0056360960006714,0.10785453021526337,-0.0617278822462076,-0.2019292038395222,-0.024141751250312093
1737285454.147541,12809,1737285454,135537344,base_link,-0.40999963879585266,-1.0293488502502441,0.08759722858667374,0.1703117447520698,0.10450710933022259,-0.2175283142905783
1737285454.2381623,12810,1737285454,236531968,base_link,-0.45089319348335266,-1.0260193347930908,0.07437454164028168,-0.018909767664972064,-0.11336185756535254,-0.32272700328084053
1737285454.3457649,12811,1737285454,333526848,base_link,-0.4403068721294403,-1.0208425521850586,0.015044175088405609,0.002095542838811105,0.17467395947621273,-0.029515208524752715
1737285454.4375095,12812,1737285454,435521216,base_link,-0.3922339975833893,-1.032133936882019,0.06977784633636475,-0.2899787656913894,0.005590441521835073,0.27221109716702013
1737285454.5409327,12813,1737285454,537515840,base_link,-0.4240196943283081,-1.0042994022369385,0.08570478111505508,-0.1916683080524583,-0.11928634580507333,-0.1752172855318395
1737285454.63736,12814,1737285454,635513280,base_link,-0.38888809084892273,-0.9763069748878479,0.04937535524368286,-0.10166251641793052,-0.27217299749413837,-0.013491215757658472
1737285454.7353952,12815,1737285454,733508928,base_link,-0.3775034546852112,-0.9578161239624023,0.10357581079006195,-0.18945375691795674,0.11013189125332296,-0.018850279005190318
1737285454.836372,12816,1737285454,835504320,base_link,-0.3651503622531891,-0.914901077747345,0.06662246584892273,0.166164230555206,0.11299435722958084,0.0778002506719819
1737285454.9443336,12817,1737285454,942500736,base_link,-0.37481924891471863,-0.8870805501937866,0.11430531740188599,-0.24808295662609225,-0.16609674545638076,0.011677090854740823
1737285455.0353487,12818,1737285455,34496640,base_link,-0.35810330510139465,-0.8515613079071045,0.07418957352638245,0.3305853658958357,0.16940080824230278,-0.07906671060419641
1737285455.1374307,12819,1737285455,135487424,base_link,-0.3149580657482147,-0.8053417801856995,0.12943287193775177,-0.1363535969582971,0.03922009893131031,0.02407798016740661
1737285455.236434,12820,1737285455,234482560,base_link,-0.3087477385997772,-0.7361578345298767,0.13956570625305176,-0.7468773856287548,-0.05798707395678157,0.2467368609998456
1737285455.3363278,12821,1737285455,334479232,base_link,-0.25320327281951904,-0.6695390939712524,0.16891494393348694,-0.3634185411096293,0.16214024090764853,-0.0479359519575476
1737285455.4405482,12822,1737285455,439476928,base_link,-0.19913561642169952,-0.5684126019477844,0.108360156416893,-0.03316531598890555,0.11997828202168193,0.024234860359309975
1737285455.5444508,12823,1737285455,542472832,base_link,-0.13681381940841675,-0.45630982518196106,0.1430896669626236,0.14292238456522108,0.26863995246505495,0.10776809363526915
1737285455.64555,12824,1737285455,644466944,base_link,-0.12993697822093964,-0.34587350487709045,0.14305202662944794,0.15394511058259677,-0.11039544273165276,-0.21435115423541357
1737285455.7435732,12825,1737285455,742464640,base_link,-0.08495957404375076,-0.24991758167743683,0.10859543830156326,0.2882851827923454,0.3054795142942563,-0.07697223276137087
1737285455.8444376,12826,1737285455,842457472,base_link,-0.05311381071805954,-0.1400802731513977,0.1229197233915329,0.26298879192727415,0.14394957316288431,0.029189226238161586
1737285455.9423578,12827,1737285455,940452352,base_link,0.0026919199153780937,-0.033564791083335876,0.19862350821495056,0.22969419507165967,-0.14816078751716227,0.024216120859175363
1737285456.0434594,12828,1737285456,42447232,base_link,0.03222283348441124,0.07695068418979645,0.13530221581459045,-0.0704897879312607,0.08538534841731216,-0.1069514960135152
1737285456.1416667,12829,1737285456,139440832,base_link,0.06536754965782166,0.20686191320419312,0.1618473082780838,0.1675334446954985,0.3261540429513531,-0.07036307866712047
1737285456.2386928,12830,1737285456,236439040,base_link,0.1329556703567505,0.30243659019470215,0.16075626015663147,-0.0201341713115329,0.2017590777003334,0.22447601671873402
1737285456.337677,12831,1737285456,335433664,base_link,0.14198607206344604,0.41446760296821594,0.17344720661640167,0.03078461491091906,-0.16244871277627065,-0.1405362188085946
1737285456.438647,12832,1737285456,437428032,base_link,0.17585089802742004,0.5170269012451172,0.12606945633888245,0.49078520639565304,0.018812688693170432,-0.14465958184023192
1737285456.5379934,12833,1737285456,536423168,base_link,0.2231450080871582,0.6386051177978516,0.16706174612045288,-0.24033488212134993,0.0466714721348671,0.027804036290061042
1737285456.641039,12834,1737285456,639416000,base_link,0.24717159569263458,0.7366505265235901,0.1866791546344757,0.1447725898641575,0.18553282748228117,-0.09184214599970114
1737285456.7403283,12835,1737285456,737413440,base_link,0.28128060698509216,0.8317077159881592,0.09433437138795853,0.11917127157017389,0.06659048258304887,0.07421253347058226
1737285456.8365874,12836,1737285456,834409856,base_link,0.31689080595970154,0.9247904419898987,0.230802521109581,-0.23227903190296992,-0.08857884369491137,0.0333573017248686
1737285456.9396567,12837,1737285456,937401152,base_link,0.3552898168563843,1.0031567811965942,0.1906329244375229,-0.14193655118887927,0.07623458288238952,0.05334006864048249
1737285457.0392733,12838,1737285457,36391680,base_link,0.36844560503959656,1.0692096948623657,0.1635887324810028,-0.06540352504224171,-0.2043518706140322,-0.010446543091858641
1737285457.1383212,12839,1737285457,136391680,base_link,0.4006005823612213,1.109806776046753,0.14275121688842773,0.17935369865022283,-0.314763343257544,-0.086870655179851
1737285457.23989,12840,1737285457,238380672,base_link,0.3917160630226135,1.1306302547454834,0.13278691470623016,-0.023038984930196287,-0.06940215583255721,0.007138871355321484
1737285457.3409297,12841,1737285457,337370944,base_link,0.4105270504951477,1.1298155784606934,0.11739461123943329,0.18302665872448287,-0.3045268630985403,-0.04029397024858978
1737285457.443906,12842,1737285457,439364032,base_link,0.37540724873542786,1.1265513896942139,0.08751698583364487,-0.2679449506022221,-0.051204480754587986,0.18746021611557742
1737285457.538084,12843,1737285457,535364032,base_link,0.39863184094429016,1.1003819704055786,0.12679323554039001,-0.15746810924908736,-0.06406072182417492,0.19483459574824288
1737285457.63662,12844,1737285457,634364032,base_link,0.376344233751297,1.09965181350708,0.09728691726922989,0.13734258871199534,-0.02239998588790923,0.08474428959938578
1737285457.7351758,12845,1737285457,733364800,base_link,0.34739553928375244,1.1083976030349731,0.15117411315441132,-0.3721231844534263,-0.016909814544881444,0.08881573306352754
1737285457.8398216,12846,1737285457,837358656,base_link,0.35657799243927,1.1196588277816772,0.10619579255580902,-0.3479279680728105,-0.029853899683053065,0.04029348180714498
1737285457.937712,12847,1737285457,936352256,base_link,0.3504166305065155,1.1514613628387451,0.1632402539253235,-0.338254528786222,-0.0011780702417847656,-0.12003234013459209
1737285458.0369108,12848,1737285458,35347136,base_link,0.3492371439933777,1.1826860904693604,0.06507910043001175,0.3862156302822177,0.12958572514518849,-0.007209913980172642
1737285458.1363256,12849,1737285458,134340480,base_link,0.3518639802932739,1.2212917804718018,0.04094346612691879,0.5662320908865702,0.15139375108765762,-0.03813894198844471
1737285458.2379751,12850,1737285458,236338176,base_link,0.3591870963573456,1.2466964721679688,0.04219140112400055,0.187229558822073,-0.056255199903619484,0.051637845739411964
1737285458.3349655,12851,1737285458,333333568,base_link,0.3700728714466095,1.243571162223816,0.07467103004455566,0.019307230449622376,-0.1276679855752146,0.060425081121818186
1737285458.4396677,12852,1737285458,437330240,base_link,0.40094807744026184,1.2555668354034424,0.03473231941461563,-0.30253592475557906,0.09779103497784424,0.19485104766624106
1737285458.5382547,12853,1737285458,536327424,base_link,0.39661404490470886,1.2432565689086914,0.06743434071540833,-0.5627706951181299,-0.21458756014199246,0.07286569074363115
1737285458.6369781,12854,1737285458,635322304,base_link,0.3781501054763794,1.246345043182373,0.042861033231019974,-0.521109422207035,-0.04683180135622267,0.0992306625694222
1737285458.743342,12855,1737285458,739319488,base_link,0.39983412623405457,1.2522751092910767,0.04832559823989868,0.09624869677406767,0.01715928904938889,-0.17601225959775485
1737285458.838789,12856,1737285458,837315904,base_link,0.3612629175186157,1.265992283821106,-0.016260558739304543,0.3367838732157535,0.010463794789068614,-0.10914229236394367
1737285458.9400878,12857,1737285458,938310016,base_link,0.35815945267677307,1.2842353582382202,-0.05229594558477402,0.49063413682048435,-0.019701539191439695,-0.22478204302519494
1737285459.0373468,12858,1737285459,34308224,base_link,0.40825194120407104,1.3010588884353638,-0.015010212548077106,0.24379176362882166,0.26740550902638216,-0.0055327561357848155
1737285459.1350758,12859,1737285459,133308224,base_link,0.3890393376350403,1.325021743774414,-0.05724267661571503,0.20680930314143386,0.04330277754499401,0.0687560348253244
1737285459.2399108,12860,1737285459,238303616,base_link,0.40217456221580505,1.3377010822296143,0.01893138885498047,-0.03223624340949508,0.13633506432667505,-0.02334298850676718
1737285459.3389482,12861,1737285459,337299264,base_link,0.4214865565299988,1.3622967004776,0.03838974982500076,0.451120476268518,0.22029194779594383,0.04157052661636992
1737285459.4360645,12862,1737285459,434294400,base_link,0.4153843820095062,1.3984614610671997,-0.0195324644446373,0.3174400822918941,-0.022087245497815315,-0.0925878897108062
1737285459.5350943,12863,1737285459,533286208,base_link,0.45040518045425415,1.4357508420944214,0.013936620205640793,0.17304421856492339,-0.149210536720385,-0.17477891372154297
1737285459.6392832,12864,1737285459,637280832,base_link,0.4650278091430664,1.4535884857177734,-0.04891916736960411,0.28726508744247764,-0.1226663418329289,-0.15327931499032227
1737285459.7362297,12865,1737285459,734274688,base_link,0.4922029674053192,1.505061388015747,0.023953747004270554,0.26315229353846437,0.01119828957528702,-0.24559982384398577
1737285459.8401325,12866,1737285459,838267776,base_link,0.5048567056655884,1.527380347251892,0.08637334406375885,0.18096882742354467,0.07129917261324344,-0.1475090844681226
1737285459.9413447,12867,1737285459,939264704,base_link,0.5231253504753113,1.5457576513290405,0.07044198364019394,-0.30863424902153724,-0.00859479047300365,0.1875493217884151
1737285460.035373,12868,1737285460,33258560,base_link,0.5301035642623901,1.579769492149353,0.06642436236143112,0.3556072312963901,-0.11821373950286929,-0.06984664876762049
1737285460.1391935,12869,1737285460,137253184,base_link,0.5730727910995483,1.6020106077194214,0.14830514788627625,0.4435427020893985,-0.008995872991926033,-0.11450545571506399
1737285460.238591,12870,1737285460,237249600,base_link,0.582152783870697,1.6229993104934692,0.17089468240737915,0.31211108033352714,-0.036876234771210346,-0.05886938054221594
1737285460.3354568,12871,1737285460,334243712,base_link,0.5652608871459961,1.6497766971588135,0.10890957713127136,-0.22569519086753098,-0.14887808622741658,0.12023603596951282
1737285460.4392314,12872,1737285460,438235264,base_link,0.5963259935379028,1.6839877367019653,0.1630844622850418,-0.10062311541070366,-0.06584875893402867,-0.014325727889307402
1737285460.539129,12873,1737285460,537228352,base_link,0.578133761882782,1.7049086093902588,0.09058091044425964,0.44489130444268593,-0.01790047769298985,-0.09030503276963354
1737285460.6383355,12874,1737285460,636222464,base_link,0.5892027616500854,1.7397165298461914,0.10722804814577103,0.32299305878970314,-0.11163288371463252,-0.17060667725704776
1737285460.7372677,12875,1737285460,735214784,base_link,0.5869449973106384,1.759993553161621,0.04842979460954666,0.5608550362558585,0.04411620615554541,-0.10296086648463035
1737285460.8362627,12876,1737285460,834210944,base_link,0.5833914279937744,1.7793253660202026,0.07171338051557541,0.3735843925652247,0.005274058935490515,-0.06003694525653317
1737285460.938247,12877,1737285460,936207104,base_link,0.6112062335014343,1.7999889850616455,0.15044870972633362,-0.32193996834867405,-0.2744445137146737,-0.002294997063357375
1737285461.0442774,12878,1737285461,43199168,base_link,0.6435325741767883,1.7940987348556519,0.1313231885433197,0.3670634239242286,0.102338893445793,-0.1223835030174544
1737285461.1472116,12879,1737285461,145191744,base_link,0.6326361298561096,1.8011550903320312,0.1528492569923401,0.04234517660937788,0.1402945532646804,0.09325754625723452
1737285461.245413,12880,1737285461,244186112,base_link,0.6311224699020386,1.8146792650222778,0.14005380868911743,-0.16867961581639662,-0.12892515102936766,-0.13551982531760043
1737285461.3450727,12881,1737285461,344181248,base_link,0.6397721171379089,1.8226172924041748,0.12149319797754288,0.08214007708321784,-0.05828215940031964,-0.18090632055426192
1737285461.4443054,12882,1737285461,443174336,base_link,0.6718055009841919,1.8291796445846558,0.17231883108615875,0.00550878408832067,0.08618520309951715,-0.06951022971526392
1737285461.5482063,12883,1737285461,547168704,base_link,0.6521250009536743,1.852508783340454,0.07327212393283844,0.1134211953615863,-0.02603407441854036,-0.036763321702638296
1737285461.6453035,12884,1737285461,643166144,base_link,0.6971113085746765,1.8575383424758911,0.13351301848888397,0.1471341049050182,0.03219288966029961,-0.10571682346665219
1737285461.7457628,12885,1737285461,743162560,base_link,0.7034335136413574,1.8644421100616455,0.09943608939647675,0.2639535899889562,0.25238462729613675,0.03893454732371353
1737285461.83836,12886,1737285461,836158720,base_link,0.6879656314849854,1.8795440196990967,0.14845503866672516,0.25840545354702316,0.11517647007305008,0.05105252471855454
1737285461.941594,12887,1737285461,939151296,base_link,0.6753509044647217,1.8749303817749023,0.07575870305299759,-0.15302321026327634,-0.04595746116807125,0.04974734227762901
1737285462.0365858,12888,1737285462,34145152,base_link,0.6784396171569824,1.8415533304214478,0.09329421818256378,0.18138447119324233,0.0795964466460921,0.10712446204041047
1737285462.1406376,12889,1737285462,138140544,base_link,0.6511654257774353,1.8294689655303955,0.10764648020267487,0.35791294464911994,0.13511061360205925,-0.11798266166152414
1737285462.2386827,12890,1737285462,237135936,base_link,0.6292197704315186,1.7877284288406372,0.07192983478307724,0.3901521720635944,0.1339324024346928,-0.1872982255736304
1737285462.3358874,12891,1737285462,334129536,base_link,0.6006152033805847,1.7334908246994019,0.06706760823726654,0.26479178992256514,0.08676948394565015,-0.11526943416776342
1737285462.4429479,12892,1737285462,440126976,base_link,0.6241057515144348,1.6864185333251953,0.07506861537694931,-0.028216694436899115,-0.215760761860569,-0.1522616602651448
