Time,header.seq,header.stamp.secs,header.stamp.nsecs,header.frame_id,pose.position.x,pose.position.y,pose.position.z,pose.orientation.x,pose.orientation.y,pose.orientation.z,pose.orientation.w
1737285429.1289814,0,1737285429,35805056,map,-20.771482467651367,-12.424236297607422,5.645333290100098,0.005573004189655867,-0.00206472121328493,-0.6594315530033605,-0.7517411159795568
1737285429.1381607,1,1737285429,136797888,map,-20.77005386352539,-12.423198699951172,5.657512187957764,0.009020750455638667,-0.0018650976457412836,-0.6620455802307097,-0.7494069636512405
1737285429.2370281,2,1737285429,234794816,map,-20.768394470214844,-12.42348575592041,5.664289951324463,0.010476749191942188,0.0006377357024171393,-0.6610884356751082,-0.7502345708084779
1737285429.3463926,3,1737285429,343791232,map,-20.76787757873535,-12.421914100646973,5.6664605140686035,0.012436317359308344,0.0024397091348670285,-0.657227317144061,-0.7535858540534687
1737285429.4468486,4,1737285429,444787392,map,-20.767066955566406,-12.422317504882812,5.662342548370361,0.011260437370230294,0.0008867295429211802,-0.576518103267769,-0.8170062991589986
1737285429.5447278,5,1737285429,543784832,map,-20.767669677734375,-12.420430183410645,5.6584954261779785,0.010865350631300393,-0.0011482668639629303,-0.604322165415991,-0.7966651404610319
1737285429.6469448,6,1737285429,644780992,map,-20.767608642578125,-12.418947219848633,5.653970241546631,0.011433427240618462,-0.0024725171125745443,-0.6444493511005462,-0.7645575173044515
1737285429.7433014,7,1737285429,740775872,map,-20.766124725341797,-12.416097640991211,5.652091026306152,0.010568994583219504,-0.00047809721443593366,-0.6655885265240147,-0.7462439153092938
1737285429.847066,8,1737285429,845769216,map,-20.76230239868164,-12.413805961608887,5.6505446434021,0.012403294018119106,0.0014324325724492128,-0.6605023103060723,-0.7507201905602156
1737285429.9479911,9,1737285429,945764352,map,-20.760295867919922,-12.413191795349121,5.647490978240967,0.012085964031604427,0.005091103655740344,-0.6330490926889033,-0.7740005532186327
1737285430.0467412,10,1737285430,45755648,map,-20.759157180786133,-12.414043426513672,5.638085842132568,0.012220190805517882,0.00592450421857808,-0.59964046732356,-0.800154283331923
1737285430.14824,11,1737285430,143748736,map,-20.762609481811523,-12.41572380065918,5.622340679168701,0.010995464700803764,0.004642624894838305,-0.5743179257975306,-0.8185453352733257
1737285430.2437828,12,1737285430,242745920,map,-20.768095016479492,-12.419171333312988,5.608230113983154,0.010265937254245395,0.0021966174669277474,-0.5623199215934647,-0.8268531255205578
1737285430.3427212,13,1737285430,340740288,map,-20.776838302612305,-12.419190406799316,5.601320743560791,0.011433121422435098,-0.0002490826720843246,-0.5609243058853826,-0.8277881037798042
1737285430.4439514,14,1737285430,442734656,map,-20.784761428833008,-12.421448707580566,5.599978923797607,0.009699807945165293,-0.0014765826250621164,-0.566884117114216,-0.8237391159786053
1737285430.5420856,15,1737285430,540730304,map,-20.790620803833008,-12.421977996826172,5.604411602020264,0.006543976925955801,-0.0029026059449466716,-0.5758724315844148,-0.8175082224575937
1737285430.6391108,16,1737285430,636726208,map,-20.794330596923828,-12.42297077178955,5.611772537231445,0.005354417250195039,-0.003089512202720816,-0.582396277166163,-0.8128815174877911
1737285430.7377915,17,1737285430,735722112,map,-20.797597885131836,-12.42455005645752,5.622270107269287,0.0058528368372467434,-0.0017133870339485447,-0.5860909306782723,-0.8102223334261436
1737285430.837888,18,1737285430,836717504,map,-20.801000595092773,-12.424775123596191,5.632230758666992,0.008572839357843991,-0.0031319030298591474,-0.5858393320102624,-0.8103758231083439
1737285430.9430163,19,1737285430,940710592,map,-20.80365753173828,-12.424720764160156,5.638618469238281,0.0056306163439187535,-0.0026987786012639507,-0.5813563160285236,-0.8136251265585352
1737285431.0388062,20,1737285431,36706496,map,-20.805526733398438,-12.424991607666016,5.643904685974121,0.01081528724167154,-0.0046766785876530366,-0.5772196299788925,-0.8165039234481967
1737285431.1414514,21,1737285431,138693952,map,-20.806997299194336,-12.423971176147461,5.649562835693359,0.012559848253524285,-0.005226703690540575,-0.5761458671523195,-0.8172336700991227
1737285431.2370963,22,1737285431,234688832,map,-20.8082275390625,-12.421088218688965,5.653251647949219,0.010858150307662308,-0.004785251972866671,-0.5768201911361169,-0.816784958868089
1737285431.3379607,23,1737285431,336681152,map,-20.808523178100586,-12.419271469116211,5.6555094718933105,0.00772680628569767,-0.0026563269727258735,-0.578044296757323,-0.815964479237895
1737285431.4392364,24,1737285431,437673984,map,-20.80836296081543,-12.417790412902832,5.65714168548584,0.005620774166177216,-0.0011475795807019894,-0.5781516694812541,-0.8159091475372228
1737285431.5392058,25,1737285431,536670144,map,-20.807140350341797,-12.414653778076172,5.661867618560791,0.006123026573478326,-0.0023392760896889095,-0.5788538213796071,-0.8154049851498227
1737285431.6370962,26,1737285431,634666560,map,-20.804885864257812,-12.411029815673828,5.668517112731934,0.008583006806624983,-0.002086039246941683,-0.5802893563568291,-0.8143624766241349
1737285431.7409728,27,1737285431,739659904,map,-20.800134658813477,-12.40554428100586,5.679259300231934,0.006983410000392602,-0.0027832531253773355,-0.5814186900017695,-0.8135697833642992
1737285431.8393626,28,1737285431,837655040,map,-20.79413604736328,-12.40313720703125,5.687611103057861,0.005364001420181073,-0.0006101023268703045,-0.5825444012681896,-0.8127809519267795
1737285431.9398956,29,1737285431,938643776,map,-20.790456771850586,-12.404006004333496,5.68903112411499,0.004874888073223058,0.0010298824844666265,-0.5822691925102416,-0.8129807883719105
1737285432.037095,30,1737285432,35638912,map,-20.787790298461914,-12.407626152038574,5.6883344650268555,0.008015319533977371,0.000695106744264001,-0.5794030661922045,-0.8150014468493011
1737285432.139942,31,1737285432,138636352,map,-20.786672592163086,-12.410384178161621,5.684881210327148,0.010893413231715667,-0.0004817672074430164,-0.5748142433992767,-0.818211272859179
1737285432.2369862,32,1737285432,235632512,map,-20.786413192749023,-12.413105964660645,5.6846232414245605,0.009433780618333987,-0.0005123493346208685,-0.5718508466684454,-0.8203032064096705
1737285432.338021,33,1737285432,336625856,map,-20.7850341796875,-12.416131019592285,5.685542106628418,0.008344494587338361,-0.003727508051799006,-0.5736188767100663,-0.8190713396131545
1737285432.4389796,34,1737285432,437620736,map,-20.783422470092773,-12.41781234741211,5.685039520263672,0.00860084758690907,-0.0026298237772209767,-0.5736523691521993,-0.8190494910649515
1737285432.5389924,35,1737285432,537620736,map,-20.781570434570312,-12.416729927062988,5.68002986907959,0.010974517018660068,-0.0033741830713767827,-0.5728607507418748,-0.8195722879186822
1737285432.6420188,36,1737285432,640617408,map,-20.779207229614258,-12.415796279907227,5.676095485687256,0.008716321313841207,-0.0024884518385527733,-0.5727202839298385,-0.8197007440069373
1737285432.7382588,37,1737285432,736612800,map,-20.7755126953125,-12.413909912109375,5.671907424926758,0.0077735618930331015,-0.002788829974852787,-0.5752620273488596,-0.8179274992646636
1737285432.8402262,38,1737285432,838609728,map,-20.770166397094727,-12.4108304977417,5.666024684906006,0.008519061262638418,-4.244654131207395e-06,-0.5765294321325887,-0.8170319696695233
1737285432.941329,39,1737285432,939605632,map,-20.765727996826172,-12.408472061157227,5.659928798675537,0.008213975110663489,-0.00015181396176043078,-0.5781936470191398,-0.8158582071120621
1737285433.0422924,40,1737285433,40601536,map,-20.762136459350586,-12.406633377075195,5.65562105178833,0.007149221752050652,8.665170322320796e-05,-0.5792101256494372,-0.8151469263053044
1737285433.1372516,41,1737285433,135594880,map,-20.757787704467773,-12.406047821044922,5.656289577484131,0.00855068758981417,-0.001447493828227264,-0.5814947418643674,-0.8135039371063001
1737285433.23824,42,1737285433,236589504,map,-20.752721786499023,-12.4043550491333,5.6585469245910645,0.013442394646716975,-0.0014650520488074029,-0.5828330143593455,-0.8124794354452642
1737285433.340114,43,1737285433,338588736,map,-20.745498657226562,-12.401559829711914,5.663997173309326,0.013719643937826218,-0.00012433707097600507,-0.5796575710505643,-0.8147446570762352
1737285433.4381013,44,1737285433,436582080,map,-20.73854637145996,-12.399986267089844,5.6669511795043945,0.010110754699566052,0.0018614162673966717,-0.5768229229792264,-0.8168045196340346
1737285433.5402994,45,1737285433,538578240,map,-20.730554580688477,-12.399551391601562,5.670555114746094,0.007042288688999819,0.0038915447929727055,-0.5732710085751656,-0.8193263164187744
1737285433.638294,46,1737285433,636570048,map,-20.722986221313477,-12.399978637695312,5.672789096832275,0.00958848034260846,0.003702390155562953,-0.5737361116187071,-0.8189757185512292
1737285433.7391617,47,1737285433,738567232,map,-20.71600914001465,-12.401442527770996,5.674777507781982,0.009979530727423457,0.004142941679343521,-0.5728612466484105,-0.8195811351471742
1737285433.8361876,48,1737285433,834563904,map,-20.709775924682617,-12.401678085327148,5.67570686340332,0.01238427680357186,0.004431263002859318,-0.5705660870797002,-0.8211463535027186
1737285433.937298,49,1737285433,935560576,map,-20.705142974853516,-12.402634620666504,5.67506217956543,0.012097922034311532,0.0031572433699406472,-0.568198639002767,-0.8227964382106658
1737285434.0381687,50,1737285434,37557248,map,-20.70204734802246,-12.401897430419922,5.675001621246338,0.010936181258221008,0.0028414979401780944,-0.5666094697798949,-0.823908996543119
1737285434.141263,51,1737285434,139556224,map,-20.699371337890625,-12.401430130004883,5.678164005279541,0.010234300435363735,0.0021154040816293174,-0.5658129140357009,-0.8244674223221914
1737285434.239301,52,1737285434,238552128,map,-20.69676971435547,-12.400918006896973,5.681950092315674,0.010192762752283037,0.0023651313736980937,-0.5640949420969147,-0.8256436338044031
1737285434.3392727,53,1737285434,337547520,map,-20.695079803466797,-12.401329040527344,5.683575630187988,0.009747251793262275,0.0033262623392570217,-0.5652881752134741,-0.8248291980920353
1737285434.4373522,54,1737285434,436544192,map,-20.693729400634766,-12.401227951049805,5.684528827667236,0.009669960844040417,0.0024040821175773906,-0.5690599084357334,-0.8222356917925429
1737285434.5373363,55,1737285434,535536768,map,-20.694053649902344,-12.400139808654785,5.683225631713867,0.009682816427658414,0.002699191200996812,-0.5720286612470499,-0.8201720357003136
1737285434.6383429,56,1737285434,636532416,map,-20.6956844329834,-12.400424003601074,5.679308891296387,0.008246586795749994,0.0024423352981141062,-0.5739122379590722,-0.8188716455741528
1737285434.7395463,57,1737285434,738529088,map,-20.69733428955078,-12.402653694152832,5.6739020347595215,0.0065268119727578166,0.002737891627831618,-0.5733908234383545,-0.819251407244194
1737285434.8384688,58,1737285434,836521920,map,-20.69818115234375,-12.403335571289062,5.668338775634766,0.007235043393392098,-0.0010073321429535553,-0.5753084033492262,-0.8179039555258388
1737285434.9396865,59,1737285434,937518080,map,-20.698274612426758,-12.404661178588867,5.663259506225586,0.011696663255412687,-0.0019152374216863286,-0.5766480070129776,-0.8169067241382392
1737285435.0386467,60,1737285435,36512704,map,-20.69810676574707,-12.40731430053711,5.6595892906188965,0.014618700429572617,-0.0006898350957325295,-0.5771123172180358,-0.8165336435447841
1737285435.140403,61,1737285435,139508864,map,-20.697065353393555,-12.410922050476074,5.6585774421691895,0.013151227304596681,-0.0005896612336880632,-0.5761909285081803,-0.8172090989611492
1737285435.238657,62,1737285435,237504768,map,-20.6971378326416,-12.416288375854492,5.661428928375244,0.011637602756388572,0.0017485270377573876,-0.5744121370415706,-0.8184816465105487
1737285435.3374894,63,1737285435,336500160,map,-20.69930648803711,-12.421470642089844,5.661076545715332,0.012326168542091228,0.0022737321439558647,-0.5710607215995627,-0.8208121270774428
1737285435.4417558,64,1737285435,439494016,map,-20.703075408935547,-12.426989555358887,5.659780025482178,0.01452491996827717,0.00016149563880100376,-0.5687289041070033,-0.8223967620633734
1737285435.5373971,65,1737285435,536487104,map,-20.70550537109375,-12.428565979003906,5.661971092224121,0.013159031373426977,-0.002553973495738467,-0.5691449167534978,-0.8221279589250998
1737285435.6387095,66,1737285435,637479936,map,-20.708160400390625,-12.4293212890625,5.664228916168213,0.010766475005597657,-0.0022456757990084375,-0.5695003978252589,-0.8219174756829494
1737285435.7405777,67,1737285435,738475840,map,-20.711355209350586,-12.428502082824707,5.664454460144043,0.0097393076699636,-0.0014664674713066532,-0.5695596228018148,-0.8218910094611813
1737285435.839534,68,1737285435,837470464,map,-20.714895248413086,-12.425872802734375,5.664065361022949,0.013728421419467752,-0.002768103531762482,-0.5686522972509107,-0.8224587727536433
1737285435.9415932,69,1737285435,939464576,map,-20.717741012573242,-12.424341201782227,5.66836404800415,0.011802549651946442,-0.0019612442996161973,-0.5679446383580589,-0.8229797938606053
1737285436.037582,70,1737285436,35459968,map,-20.72064781188965,-12.424817085266113,5.670915603637695,0.006447915944892114,-0.0017547997684079005,-0.5693159963405194,-0.8220916258961298
1737285436.1415758,71,1737285436,139455616,map,-20.72117042541504,-12.425447463989258,5.6691155433654785,0.005266079786542744,0.0005840502025067979,-0.5689912749764563,-0.8223264900814696
1737285436.2427428,72,1737285436,240450496,map,-20.71977424621582,-12.427267074584961,5.666400909423828,0.00503775840546701,0.00047231087510998945,-0.5687430318613172,-0.8224997031135526
1737285436.34648,73,1737285436,344443840,map,-20.716400146484375,-12.42705249786377,5.66781759262085,0.009310743521263062,0.0011087835801373805,-0.5687159956035668,-0.8224805146620177
1737285436.4427247,74,1737285436,441440768,map,-20.713472366333008,-12.428083419799805,5.669223785400391,0.005675182499417756,0.0019675953106333393,-0.5695377774708488,-0.8219432102681169
1737285436.5417972,75,1737285436,540436928,map,-20.709692001342773,-12.428842544555664,5.672028064727783,0.007496293390071774,0.002508537815130831,-0.5703308290073728,-0.821377050024654
1737285436.6475685,76,1737285436,645433088,map,-20.706701278686523,-12.430913925170898,5.674849510192871,0.009748493786745466,0.001779913232413155,-0.5702061016075305,-0.8214419032818556
1737285436.7457035,77,1737285436,744430272,map,-20.70327377319336,-12.43340015411377,5.677381992340088,0.009817298132960532,0.0010139360398455672,-0.5714631023503306,-0.8205684098496671
1737285436.8426616,78,1737285436,840426432,map,-20.69896125793457,-12.435522079467773,5.682754993438721,0.01148455014591929,0.00043740276283489625,-0.5724244315981327,-0.8198769321650192
1737285436.9485946,79,1737285436,947420288,map,-20.696550369262695,-12.4389009475708,5.688355445861816,0.010470083944081486,0.0021545373256194804,-0.5731427916615601,-0.8193857917229891
1737285437.0447056,80,1737285437,43416960,map,-20.696258544921875,-12.443236351013184,5.6914873123168945,0.007182955177354302,0.00237970549435313,-0.5747705984404903,-0.8182795985022727
1737285437.1457453,81,1737285437,144407744,map,-20.695241928100586,-12.447484970092773,5.6934638023376465,0.008355661421979318,0.0007412508118502219,-0.5756915210569765,-0.8176239392609168
1737285437.2446454,82,1737285437,243401600,map,-20.69403839111328,-12.452515602111816,5.693958282470703,0.011645455378373252,0.0004252299916214193,-0.5765554644204286,-0.8169749072005998
1737285437.345814,83,1737285437,344398784,map,-20.693756103515625,-12.457208633422852,5.695592880249023,0.012475690469041097,-0.00021793470537191512,-0.5767810427584399,-0.8168034882187216
1737285437.447861,84,1737285437,446395200,map,-20.694101333618164,-12.462141990661621,5.6969146728515625,0.013025748778892392,-0.0008154323800765821,-0.5759816579534238,-0.8173584248296507
1737285437.5469117,85,1737285437,545390336,map,-20.69478416442871,-12.465643882751465,5.700092315673828,0.012148363597110119,-0.0017529675142145637,-0.5762819173614504,-0.8171587949040365
1737285437.6429238,86,1737285437,641387008,map,-20.69583511352539,-12.467742919921875,5.6990556716918945,0.007981738916041516,-0.0002883905499421191,-0.5737433600913903,-0.8189961937798051
1737285437.7390633,87,1737285437,737384192,map,-20.696027755737305,-12.47059154510498,5.697267055511475,0.011103075845915808,-0.0016495418368219872,-0.5722014500512331,-0.8200362804643185
1737285437.8377519,88,1737285437,836378304,map,-20.696592330932617,-12.474813461303711,5.699286937713623,0.012530087911788152,-8.838845870382028e-05,-0.5716575765174541,-0.8203966140194597
1737285437.9407618,89,1737285437,939373696,map,-20.697717666625977,-12.47868824005127,5.700416088104248,0.012918987296298942,-0.0014494769680794494,-0.5730950077175601,-0.8193858132241285
1737285438.0403385,90,1737285438,38367296,map,-20.69930076599121,-12.482305526733398,5.699766635894775,0.01158358993796148,-0.0008788319381214447,-0.5739758259884084,-0.8187898382854406
1737285438.1388686,91,1737285438,137361152,map,-20.701740264892578,-12.486230850219727,5.701638221740723,0.012182629224090595,-0.00021818803370477917,-0.5743841208979182,-0.8184952153797207
1737285438.2399652,92,1737285438,238354752,map,-20.704750061035156,-12.490615844726562,5.703642845153809,0.010903876558926504,-0.001956508571168855,-0.5743152999038913,-0.8185592305059555
1737285438.3378732,93,1737285438,336349888,map,-20.707746505737305,-12.49358081817627,5.701565742492676,0.011167037731809538,-0.0027670390996906023,-0.5745535733546043,-0.8183861143179133
1737285438.4391496,94,1737285438,438341952,map,-20.710803985595703,-12.495622634887695,5.695756912231445,0.011192936957486724,-0.0038711054859355623,-0.5740655428508402,-0.8187236928390145
1737285438.535947,95,1737285438,534332736,map,-20.714048385620117,-12.497419357299805,5.690539836883545,0.007453292997907099,-0.0014784746206326204,-0.5722398197601739,-0.8200511271970347
1737285438.6367779,96,1737285438,635326080,map,-20.71782684326172,-12.499238967895508,5.688106060028076,0.008931682329526241,-0.0028861886967497404,-0.5713936230471033,-0.8206224603961775
1737285438.7358856,97,1737285438,734321984,map,-20.721487045288086,-12.500872611999512,5.685333251953125,0.010197605975173999,-0.003679597073005843,-0.5700788554448273,-0.8215184526061912
1737285438.8370283,98,1737285438,836317120,map,-20.725627899169922,-12.50209903717041,5.6831464767456055,0.010332701223050722,-0.004151931000906082,-0.5691884044876627,-0.8221317150865716
1737285438.9417667,99,1737285438,940310720,map,-20.72797203063965,-12.50197982788086,5.683855056762695,0.009091279206265929,-0.004660962694121414,-0.5672128829316224,-0.8235078442283081
1737285439.0379312,100,1737285439,36306624,map,-20.729307174682617,-12.501574516296387,5.6866068840026855,0.007851403559185044,-0.00397958807431403,-0.5669837403766161,-0.8236819510523776
1737285439.140323,101,1737285439,138306624,map,-20.729576110839844,-12.502676010131836,5.692043781280518,0.008228790649667243,-0.004032654020821116,-0.5674449081829394,-0.8233603712125377
1737285439.2382102,102,1737285439,236294848,map,-20.729385375976562,-12.504413604736328,5.696625232696533,0.008274509101511517,-0.002346978919941485,-0.5663688087349911,-0.8241070298700195
1737285439.337225,103,1737285439,336280512,map,-20.729509353637695,-12.506841659545898,5.697950839996338,0.009477305239382658,-0.002535394973642546,-0.5673634050597854,-0.8234090836617562
1737285439.4382443,104,1737285439,437269504,map,-20.730091094970703,-12.50940227508545,5.698592662811279,0.011823736977144205,-0.003561675882871589,-0.5709483756663771,-0.82089309050127
1737285439.5383558,105,1737285439,536270272,map,-20.729915618896484,-12.512948989868164,5.698787689208984,0.011929650801229194,-0.002571180530059973,-0.5732314591454087,-0.8193026099729381
1737285439.639144,106,1737285439,637264896,map,-20.729774475097656,-12.516175270080566,5.694930553436279,0.013540065790592092,-0.0032663747753730837,-0.5765077733717592,-0.8169729399779099
1737285439.7401025,107,1737285439,738259008,map,-20.728187561035156,-12.519158363342285,5.692010402679443,0.01362151063904622,-0.002939365371187166,-0.5770745308851016,-0.8165725934556369
1737285439.8380911,108,1737285439,837252096,map,-20.726022720336914,-12.522064208984375,5.688291549682617,0.010911398095480487,-0.0029419170239736126,-0.5779096060830543,-0.8160225326011254
1737285439.9403653,109,1737285439,938246720,map,-20.721664428710938,-12.525373458862305,5.68475866317749,0.013320547517939351,-0.0013999623957175608,-0.5780782695779132,-0.8158713853058694
1737285440.0365067,110,1737285440,35242624,map,-20.715486526489258,-12.529243469238281,5.685372829437256,0.010924063289484988,-0.002350820625669519,-0.5783612029360222,-0.8157042708126703
1737285440.1381369,111,1737285440,137236736,map,-20.708866119384766,-12.533141136169434,5.684453010559082,0.010366484943683125,-0.0011413777332289368,-0.5776662364803562,-0.8162064398651873
1737285440.237406,112,1737285440,236232128,map,-20.703338623046875,-12.536255836486816,5.683478832244873,0.011446066045624181,-0.0006123825025654805,-0.5787237467359237,-0.8154430927561311
1737285440.3404355,113,1737285440,337224192,map,-20.699567794799805,-12.537710189819336,5.68275260925293,0.013168130921319418,0.00083152180795431,-0.5780954317788308,-0.8158624765583775
1737285440.4394813,114,1737285440,438223168,map,-20.69746208190918,-12.53813648223877,5.6818037033081055,0.014547389197019506,-1.850923594655839e-05,-0.577384083996976,-0.8163430606503197
1737285440.5364103,115,1737285440,535219840,map,-20.696073532104492,-12.538302421569824,5.678041934967041,0.01594156465425941,-0.0009286126271161497,-0.577105352669041,-0.8165135737485963
1737285440.637467,116,1737285440,636213184,map,-20.69561004638672,-12.537723541259766,5.675262451171875,0.017286564387419618,-0.001700841357276612,-0.5771055709053623,-0.8164848081013831
1737285440.7393456,117,1737285440,738208064,map,-20.696205139160156,-12.536233901977539,5.674817085266113,0.018527207212794508,-0.0015573298956630427,-0.5778843252098911,-0.8159068721325976
1737285440.8388085,118,1737285440,837201920,map,-20.69768714904785,-12.534165382385254,5.672889709472656,0.015869765916976645,-0.0012506681956461296,-0.57772506503672,-0.8160761824652907
1737285440.9355206,119,1737285440,934199872,map,-20.696683883666992,-12.531344413757324,5.6737518310546875,0.012511725387911315,-0.0005511107848427357,-0.5785595128711871,-0.8155440166361193
1737285441.0422215,120,1737285441,40195776,map,-20.694690704345703,-12.527361869812012,5.677391529083252,0.01373327919969076,-0.0020959396755148504,-0.5804664226664469,-0.8141656687899077
1737285441.147478,121,1737285441,137189376,map,-20.6945743560791,-12.523711204528809,5.681161880493164,0.01642997777751318,-0.0009478795842929564,-0.582570606445721,-0.8126134664525247
1737285441.2402246,122,1737285441,239186816,map,-20.69552230834961,-12.5200834274292,5.68471622467041,0.013376498489821633,0.0005906179860206549,-0.5825414924756904,-0.8126906730132578
1737285441.3393242,123,1737285441,338181440,map,-20.696443557739258,-12.516514778137207,5.68461799621582,0.01552787334166209,-0.00020918690506407326,-0.5806374627313318,-0.8140141142899457
1737285441.4384694,124,1737285441,437176320,map,-20.697242736816406,-12.513460159301758,5.68402099609375,0.0105696683664943,0.0007987931025955429,-0.5774261837899,-0.816374084788361
1737285441.53838,125,1737285441,536171712,map,-20.69837760925293,-12.510340690612793,5.6871337890625,0.011749042895994615,-0.0009818692682125295,-0.5769855073134681,-0.8166692845172934
1737285441.6395,126,1737285441,638169408,map,-20.699485778808594,-12.507617950439453,5.692895412445068,0.009258572832373056,0.001429576809778846,-0.5748715733269727,-0.8181900203008001
1737285441.74059,127,1737285441,739165568,map,-20.7025089263916,-12.504399299621582,5.694999694824219,0.011489108147750502,0.0010495045181789894,-0.5747605894957719,-0.8182402848165741
1737285441.839322,128,1737285441,838162752,map,-20.706634521484375,-12.501434326171875,5.695425510406494,0.008773272705065312,0.0023032760557508266,-0.577852883804812,-0.8160905398814007
1737285441.9386709,129,1737285441,937158912,map,-20.711090087890625,-12.498489379882812,5.694300174713135,0.011743607520001248,-6.583542181572059e-05,-0.5805930899391429,-0.8141091740442626
1737285442.03757,130,1737285442,36153280,map,-20.715465545654297,-12.496231079101562,5.6941094398498535,0.010035543207247566,-0.0007071231751620172,-0.582218972795669,-0.8129697753090864
1737285442.1389127,131,1737285442,137144576,map,-20.720155715942383,-12.495019912719727,5.692110061645508,0.009893305588156816,0.0005732805287144749,-0.5823819241611405,-0.8128548998833324
1737285442.2398088,132,1737285442,238140480,map,-20.724639892578125,-12.494278907775879,5.688645839691162,0.012169856552827213,-0.0013728644228620272,-0.5811256651816689,-0.813721679139694
1737285442.3388026,133,1737285442,337134336,map,-20.728885650634766,-12.493375778198242,5.687155723571777,0.009449912422763449,-0.0018911803432952604,-0.5812666151317913,-0.8136560973318772
1737285442.4379098,134,1737285442,436130496,map,-20.73299789428711,-12.492179870605469,5.6876630783081055,0.006954142779227199,-0.0010389724736631026,-0.5810392658038822,-0.8138451523652952
1737285442.5390475,135,1737285442,537130240,map,-20.736576080322266,-12.492181777954102,5.6909074783325195,0.010591799968330822,-0.0026991643062526495,-0.5814208034770698,-0.8135295800212535
1737285442.6407497,136,1737285442,639126912,map,-20.74026107788086,-12.49339771270752,5.696229934692383,0.012256257781873555,-0.002148902339177987,-0.5802754844270304,-0.8143251982696448
1737285442.736856,137,1737285442,735122816,map,-20.743040084838867,-12.493966102600098,5.699357509613037,0.011859606574555539,-0.0032299194998953494,-0.578681842536691,-0.8154607547088095
1737285442.8389087,138,1737285442,837116672,map,-20.746185302734375,-12.493627548217773,5.701645374298096,0.009343451157268857,-0.0025557646901760555,-0.5759992803578988,-0.8173928046016204
1737285442.9419162,139,1737285442,940113088,map,-20.74891471862793,-12.492173194885254,5.700109958648682,0.013392449912938862,-0.004038045065300847,-0.5768404267819093,-0.8167370804043641
1737285443.037982,140,1737285443,36110016,map,-20.750829696655273,-12.490854263305664,5.69990348815918,0.008998553525453801,-0.0024583378630443353,-0.5792632554133827,-0.8150871508846712
1737285443.1446395,141,1737285443,140106944,map,-20.750757217407227,-12.489527702331543,5.700527191162109,0.006211486963668224,-9.889702314996031e-05,-0.5818069113535442,-0.8133032187015666
1737285443.246002,142,1737285443,243104128,map,-20.74948501586914,-12.487874031066895,5.698387145996094,0.008816331807168043,-0.0016391840702250397,-0.5831569141896435,-0.812310038594786
1737285443.3386443,143,1737285443,337097216,map,-20.749502182006836,-12.48770523071289,5.693211555480957,0.0075367172598796,-0.0003672735933190625,-0.5839123426311766,-0.8117816449797468
1737285443.438581,144,1737285443,437091072,map,-20.75010108947754,-12.488316535949707,5.689262390136719,0.00974456168140354,-0.0005168200507447645,-0.5816712763334222,-0.813365417695712
1737285443.538532,145,1737285443,537082624,map,-20.75023651123047,-12.490756034851074,5.6896185874938965,0.008182573145058209,-0.0019092757136631102,-0.5805138526183395,-0.8142070173372296
1737285443.642593,146,1737285443,641075200,map,-20.75005340576172,-12.49402141571045,5.687533378601074,0.009593580597276823,-0.0028603024459765,-0.5801431316957961,-0.8144530241993305
1737285443.7447891,147,1737285443,743071616,map,-20.74981117248535,-12.49628734588623,5.6841559410095215,0.011594459082998863,-0.0030461778634213958,-0.5797757660660484,-0.814687885267434
1737285443.844897,148,1737285443,843064960,map,-20.748939514160156,-12.497804641723633,5.6831440925598145,0.010395362279975241,-0.0045315983740676176,-0.5800881167345632,-0.814474786523556
1737285443.9486358,149,1737285443,947056256,map,-20.748321533203125,-12.500504493713379,5.678841590881348,0.0087462189423294,-0.0026462043273336833,-0.5791927265752868,-0.8151394277908265
1737285444.0457351,150,1737285444,44049856,map,-20.747726440429688,-12.503717422485352,5.674347400665283,0.010053562315730359,-0.003234261273798334,-0.5802772028549209,-0.8143505592100035
1737285444.1359968,151,1737285444,134044992,map,-20.746562957763672,-12.506982803344727,5.670370578765869,0.012203782001847541,-0.004087857342533934,-0.5818504085923468,-0.8131939861731131
1737285444.2367833,152,1737285444,235039360,map,-20.745468139648438,-12.510512351989746,5.667717456817627,0.010825435252251018,-0.0016605933924451251,-0.5806961705787802,-0.8140466877620254
1737285444.3488278,153,1737285444,347031424,map,-20.743389129638672,-12.51504898071289,5.663070201873779,0.013439873612793522,-0.001898327085224612,-0.580288175588862,-0.8142981023085463
1737285444.447761,154,1737285444,446025024,map,-20.741472244262695,-12.518793106079102,5.657070159912109,0.016262656155216725,-0.002263875476883939,-0.5787675318210524,-0.8153272625101957
1737285444.5389333,155,1737285444,537018112,map,-20.738916397094727,-12.522313117980957,5.653383731842041,0.011266277389280337,-0.0006148180258174522,-0.5772065867432653,-0.8165202074736253
1737285444.6387773,156,1737285444,637012736,map,-20.736417770385742,-12.524635314941406,5.6554059982299805,0.010896604307074577,-0.0016005391712558576,-0.5768861760702885,-0.8167502936319868
1737285444.737292,157,1737285444,735009408,map,-20.734399795532227,-12.526516914367676,5.657161235809326,0.013902953679667393,-0.0010062869764158515,-0.5764088587261713,-0.8170425465344474
1737285444.8430185,158,1737285444,841002752,map,-20.731801986694336,-12.527898788452148,5.657456398010254,0.01351205934860773,-0.001709823983416078,-0.5761290696230347,-0.8172452483125259
1737285444.9390066,159,1737285444,936997120,map,-20.729001998901367,-12.528525352478027,5.6579813957214355,0.015185791979543398,-0.003326436962230614,-0.5789787829694896,-0.8151943911793427
1737285445.0408676,160,1737285445,38989440,map,-20.725727081298828,-12.528777122497559,5.659054756164551,0.013071968382844907,-0.0031410155725248735,-0.5812919348983091,-0.8135840116951356
1737285445.1394835,161,1737285445,137986112,map,-20.720550537109375,-12.529139518737793,5.660750389099121,0.015378500257891838,-0.004238081413859465,-0.5831416207132455,-0.8122138822918978
1737285445.2411022,162,1737285445,236982528,map,-20.715192794799805,-12.529382705688477,5.663367748260498,0.014983707795469184,-9.069246658082493e-05,-0.5828609219616403,-0.8124337671008038
1737285445.3369284,163,1737285445,335977152,map,-20.710554122924805,-12.529256820678711,5.665484428405762,0.01884546730217128,-0.0006516563303053625,-0.5812449295434537,-0.8135101447346651
1737285445.4381082,164,1737285445,435965376,map,-20.707609176635742,-12.528441429138184,5.667834758758545,0.018616733679564554,-0.0004899956138146095,-0.5793640072449346,-0.8148561371435414
1737285445.5402584,165,1737285445,537957952,map,-20.704984664916992,-12.526946067810059,5.668707370758057,0.01668981666250438,-0.0017069895256843677,-0.5773204818430184,-0.8163452685298519
1737285445.6358871,166,1737285445,634954112,map,-20.703271865844727,-12.525165557861328,5.6721062660217285,0.015380072979008523,-0.00034736962728279216,-0.5750523190711755,-0.8179719818064461
1737285445.7400491,167,1737285445,738953344,map,-20.701488494873047,-12.524599075317383,5.671077728271484,0.013803769596629824,-0.00013814422062489453,-0.5721102260621564,-0.8200605624563383
1737285445.841193,168,1737285445,839948992,map,-20.70012664794922,-12.524124145507812,5.673081874847412,0.009913284753823035,0.000756380208722288,-0.5698502718340965,-0.8216883973654343
1737285445.9379652,169,1737285445,936948992,map,-20.69830322265625,-12.525263786315918,5.671814441680908,0.007438832058565254,0.001482833038801545,-0.5702083176537706,-0.8214651176174435
1737285446.0399535,170,1737285446,37938752,map,-20.696619033813477,-12.527046203613281,5.67201566696167,0.00846284252151736,0.0018263634117456037,-0.5706584360957838,-0.8211418842111625
1737285446.1360087,171,1737285446,134927744,map,-20.695880889892578,-12.529473304748535,5.673951148986816,0.009425426656557196,0.0029058328614970986,-0.5703496509098185,-0.8213427988207914
1737285446.2400389,172,1737285446,237924160,map,-20.695446014404297,-12.532118797302246,5.675509929656982,0.011743178237654793,0.0008183215519427005,-0.5721733784189136,-0.8200482017195104
1737285446.3380196,173,1737285446,336917760,map,-20.69301986694336,-12.534616470336914,5.67962646484375,0.01223178286244127,0.00017601983422920993,-0.5736699848537647,-0.8189951776310441
1737285446.4372675,174,1737285446,435911616,map,-20.68951416015625,-12.536643981933594,5.683402061462402,0.012949843466050827,0.000696254210536857,-0.5754903838239391,-0.8177057141236416
1737285446.5389566,175,1737285446,536904960,map,-20.687007904052734,-12.53674030303955,5.6866912841796875,0.011953544253131674,0.0007182115327108775,-0.5760112112760645,-0.8173540734811712
1737285446.6371102,176,1737285446,635901888,map,-20.685441970825195,-12.535447120666504,5.6885857582092285,0.012043875781253491,0.0009575743704041638,-0.577151310070768,-0.8165478512561815
1737285446.7363973,177,1737285446,734896256,map,-20.684247970581055,-12.53387451171875,5.6892805099487305,0.015149279469381624,0.0004046216331298245,-0.5793585824209189,-0.8149318797225422
1737285446.8373394,178,1737285446,835892672,map,-20.683500289916992,-12.532018661499023,5.689655303955078,0.015738874142280944,0.002497486925844351,-0.5792276324099133,-0.8150100614425536
1737285446.9411814,179,1737285446,938886784,map,-20.682645797729492,-12.529930114746094,5.6912713050842285,0.0196461591391204,0.0017600580783505735,-0.5808260266759087,-0.8137887056002421
1737285447.0422006,180,1737285447,40881408,map,-20.681665420532227,-12.528105735778809,5.6942243576049805,0.01694174991623353,0.0016064926956386259,-0.5795757035882919,-0.8147406950073937
1737285447.1394484,181,1737285447,137881408,map,-20.680763244628906,-12.525250434875488,5.6944098472595215,0.01856601934730245,0.0007492264938810535,-0.5794340166514095,-0.814807315831461
1737285447.2383342,182,1737285447,236876544,map,-20.67955780029297,-12.521636962890625,5.692608833312988,0.016691332985849128,-0.0004487074806016719,-0.5783188531312377,-0.8156399341484712
1737285447.340383,183,1737285447,338872192,map,-20.677677154541016,-12.51834774017334,5.691714763641357,0.016441903162088132,0.0013198622871393917,-0.5755003963030271,-0.817635136010562
1737285447.439693,184,1737285447,436866560,map,-20.676355361938477,-12.51564884185791,5.691083908081055,0.01382775461503513,0.0023569008922045332,-0.573642863213603,-0.8189854111671284
1737285447.5384934,185,1737285447,536861952,map,-20.676210403442383,-12.513973236083984,5.691002368927002,0.012497920830402921,0.003648200101644027,-0.5720442824655958,-0.8201194007639113
1737285447.640596,186,1737285447,638858880,map,-20.67786979675293,-12.512706756591797,5.690214157104492,0.014194414294341923,0.004106906437342497,-0.5724580168742849,-0.8198008726750152
1737285447.741221,187,1737285447,739852224,map,-20.679784774780273,-12.509953498840332,5.689329624176025,0.014822394654107377,0.0034499591834165643,-0.5728580407784519,-0.8195133064897873
1737285447.846675,188,1737285447,835847872,map,-20.68227767944336,-12.506196022033691,5.690924644470215,0.013714133359121862,0.004268761549902959,-0.5705068539842819,-0.8211672361815193
1737285447.9401214,189,1737285447,938839424,map,-20.68642234802246,-12.502840995788574,5.691553592681885,0.010395680780768734,0.0039059221377588616,-0.5704457165080543,-0.8212602255746778
1737285448.0382864,190,1737285448,36832512,map,-20.6912841796875,-12.500081062316895,5.6916327476501465,0.008439298890765449,0.004224626382306849,-0.570790812111241,-0.8210412776319786
1737285448.1404462,191,1737285448,138827648,map,-20.696256637573242,-12.497804641723633,5.690039157867432,0.010393602417047648,0.0008571433285982586,-0.572095166076531,-0.8201209418652693
1737285448.238281,192,1737285448,236823040,map,-20.701004028320312,-12.496322631835938,5.687502384185791,0.011546063411650974,-0.0005602362436735285,-0.5724012371705429,-0.8198921869616013
1737285448.3387527,193,1737285448,336816384,map,-20.707420349121094,-12.495301246643066,5.681386947631836,0.013852056990126696,-0.0006711336306361677,-0.5752944032977235,-0.8178288449493014
1737285448.4373977,194,1737285448,435812800,map,-20.71396827697754,-12.494708061218262,5.67592191696167,0.011141336889675465,-0.0021177345754886173,-0.5785115263783547,-0.8155953651535576
1737285448.5415075,195,1737285448,537809216,map,-20.719602584838867,-12.494634628295898,5.6715006828308105,0.011280961501347643,-0.0029616371300964593,-0.5830001714527808,-0.8123883115229703
1737285448.637275,196,1737285448,635803584,map,-20.72365951538086,-12.495299339294434,5.667214870452881,0.011576399486395326,-0.0037157599174190226,-0.5837813116263955,-0.8118199063209358
1737285448.7393787,197,1737285448,737801792,map,-20.730510711669922,-12.495078086853027,5.659848213195801,0.014674230330912955,-0.00266702641803755,-0.5827240928926591,-0.8125331903969882
1737285448.8354104,198,1737285448,833798464,map,-20.73893165588379,-12.493638038635254,5.655924320220947,0.017656823986120024,-0.0017794433658013143,-0.5783825984715979,-0.8155725840986034
1737285448.9406838,199,1737285448,938796672,map,-20.747220993041992,-12.492498397827148,5.6663360595703125,0.017781151689649125,-0.0013381758034230798,-0.5729593965941046,-0.8193897545030864
1737285449.0395315,200,1737285449,37790016,map,-20.75486183166504,-12.492483139038086,5.665259838104248,0.012428733765579734,0.0030422083477439055,-0.5709892127932124,-0.8208578381298074
1737285449.138782,201,1737285449,136785664,map,-20.761140823364258,-12.493830680847168,5.661222457885742,0.006448462668028242,0.0076195610169672665,-0.5729519580986089,-0.8195281650621273
1737285449.24047,202,1737285449,238782848,map,-20.767498016357422,-12.496804237365723,5.660460472106934,0.002198316103075811,0.013120542230294026,-0.5735994027634086,-0.8190279262194634
1737285449.3396003,203,1737285449,337776960,map,-20.77509117126465,-12.500566482543945,5.665215969085693,0.0003695210462238966,0.013751889034149326,-0.5736535155199921,-0.8189825353044735
1737285449.4384553,204,1737285449,436771840,map,-20.78394889831543,-12.506006240844727,5.678549289703369,0.003101110827417698,0.012387485827143373,-0.5722698093104399,-0.8199659740857
1737285449.5404086,205,1737285449,538768512,map,-20.793781280517578,-12.512272834777832,5.6945719718933105,0.004748092165327718,0.00538253812881175,-0.5702655912041766,-0.8214290227357641
1737285449.6365736,206,1737285449,635760832,map,-20.803869247436523,-12.518970489501953,5.706785678863525,0.007872981797198928,0.0004895097127589371,-0.5695257143496187,-0.8219356648986698
1737285449.7369597,207,1737285449,734754432,map,-20.81231689453125,-12.525212287902832,5.720470905303955,0.004865533664043551,-8.502151906200003e-05,-0.5694418037073312,-0.8220172452838485
1737285449.8476539,208,1737285449,845749056,map,-20.821855545043945,-12.534154891967773,5.734292030334473,0.0030684299830986725,0.007975049634146195,-0.5701279655749022,-0.8215114644301653
1737285449.9493968,209,1737285449,947743168,map,-20.830970764160156,-12.54873275756836,5.747528076171875,-0.006656789198768642,0.017998776612801907,-0.5716405544512364,-0.8202797130885836
1737285450.0436645,210,1737285450,41736256,map,-20.841205596923828,-12.566128730773926,5.756516456604004,-0.008689241197974724,0.024872480939735583,-0.572422762964008,-0.8195352568498545
1737285450.1477723,211,1737285450,146728832,map,-20.85262107849121,-12.591304779052734,5.7664594650268555,-0.009058281352928287,0.027189112354489665,-0.5717548031483457,-0.8199238652369517
1737285450.2447622,212,1737285450,242720640,map,-20.865550994873047,-12.620535850524902,5.775954246520996,-0.0064264869769169826,0.026401410504266847,-0.5720740852442757,-0.8197517348444259
1737285450.3459723,213,1737285450,344714240,map,-20.882890701293945,-12.658124923706055,5.780896186828613,-0.00493904284256503,0.02518016581612955,-0.5732943510749263,-0.8189475881464274
1737285450.4450085,214,1737285450,443705280,map,-20.90312385559082,-12.700538635253906,5.7889084815979,-0.004742258337191646,0.024829601598180616,-0.5743488026158403,-0.8182202972330187
1737285450.546918,215,1737285450,544699136,map,-20.92586326599121,-12.747148513793945,5.790095806121826,-0.007856332071228619,0.022665827322092928,-0.5773399470591355,-0.816151409879286
1737285450.6459332,216,1737285450,643695040,map,-20.94996452331543,-12.795977592468262,5.790680885314941,-0.009921227525095479,0.022608651678074996,-0.579011192714884,-0.8149456772230789
1737285450.7448819,217,1737285450,743692224,map,-20.973676681518555,-12.84946060180664,5.7963786125183105,-0.009877783232231272,0.020525305075305176,-0.5772924622305993,-0.8162196728220379
1737285450.8409653,218,1737285450,839686592,map,-20.996286392211914,-12.905998229980469,5.809312343597412,-0.007690522289942108,0.01766397518592513,-0.5772617201260235,-0.8163318849124316
1737285450.9416487,219,1737285450,939681984,map,-21.019466400146484,-12.969271659851074,5.818934440612793,-0.004355780013499039,0.010325318391753944,-0.5767221116669021,-0.816863526481047
1737285451.0377665,220,1737285451,36680192,map,-21.04217529296875,-13.03331470489502,5.837440490722656,0.0027018836893071166,0.0006046128559067991,-0.5782733241950425,-0.8158384011507667
1737285451.137809,221,1737285451,136673280,map,-21.063913345336914,-13.09597110748291,5.856848239898682,0.01075685806461594,-0.0032790628440247547,-0.5786325908050177,-0.8155107985855956
1737285451.2387176,222,1737285451,237669440,map,-21.08538055419922,-13.158354759216309,5.862452030181885,0.011961318837093095,-0.0037537744442740556,-0.5787207152338051,-0.8154294388776826
1737285451.3367083,223,1737285451,334661504,map,-21.103363037109375,-13.21852970123291,5.867776870727539,0.012764337868374843,-0.0035126568165244117,-0.577672995156947,-0.8161609177039004
1737285451.4379623,224,1737285451,436655872,map,-21.12143898010254,-13.281610488891602,5.871980667114258,0.01145059049461815,-0.0005225451144557353,-0.5756425815523629,-0.8176210792461621
1737285451.5406487,225,1737285451,538652032,map,-21.138240814208984,-13.346099853515625,5.887009620666504,0.0041648359047147645,0.00743263329789419,-0.5746592876600699,-0.8183484057601427
1737285451.638904,226,1737285451,637646912,map,-21.154504776000977,-13.409850120544434,5.901548385620117,-0.0018225333143004668,0.01495076355999549,-0.5749150971103991,-0.8180744368062308
1737285451.738748,227,1737285451,736662528,map,-21.17001724243164,-13.476019859313965,5.9188337326049805,0.0006561705701319299,0.01703968706625333,-0.577819375998924,-0.8159865116685945
1737285451.8408282,228,1737285451,837658176,map,-21.18637466430664,-13.547453880310059,5.928142070770264,0.0012887481187968735,0.018828841090077972,-0.5781931755758645,-0.8156815957155025
1737285451.9449286,229,1737285451,940649984,map,-21.205480575561523,-13.61943531036377,5.934811115264893,-0.0005616888367889682,0.01865780191786138,-0.5786849516345219,-0.8153375360456523
1737285452.0519545,230,1737285452,36646144,map,-21.226469039916992,-13.687451362609863,5.944892406463623,6.764244192754043e-05,0.018669662676756318,-0.5773956929412171,-0.8162509742064434
1737285452.1373286,231,1737285452,135646144,map,-21.24822998046875,-13.762611389160156,5.955152988433838,-0.0037659084183838567,0.019104402787473735,-0.573651806223335,-0.8188677823340124
1737285452.2394335,232,1737285452,237646144,map,-21.272188186645508,-13.842304229736328,5.968391418457031,-0.0019654821389626436,0.018790104865593835,-0.5713121138628603,-0.8205154096009724
1737285452.335966,233,1737285452,333632064,map,-21.296127319335938,-13.923521995544434,5.982420921325684,0.001631265242190109,0.019711365269690646,-0.5682200701229485,-0.8226388958482246
1737285452.4393566,234,1737285452,437629248,map,-21.32244110107422,-14.01496696472168,6.001247882843018,0.002690473864564196,0.02020701918159335,-0.5657319295579026,-0.8243372013956853
1737285452.5394375,235,1737285452,537625152,map,-21.35184097290039,-14.10527515411377,6.019256114959717,0.003970634826493674,0.020682196164178643,-0.5652082798255986,-0.8246793808732512
1737285452.636284,236,1737285452,634620032,map,-21.382564544677734,-14.192567825317383,6.0322794914245605,0.006439903549640372,0.01769021682902109,-0.5649613527472059,-0.8249025722913349
1737285452.7403314,237,1737285452,738611328,map,-21.419841766357422,-14.287525177001953,6.045262336730957,0.0073211691723456835,0.01649716069180094,-0.56393437324621,-0.8256223512251004
1737285452.839357,238,1737285452,837605184,map,-21.45901107788086,-14.378458976745605,6.051289081573486,0.008186053630677726,0.01596357553304482,-0.5616804291062113,-0.8271597477762191
1737285452.9393804,239,1737285452,937600320,map,-21.500141143798828,-14.468307495117188,6.051090240478516,0.008890607356634387,0.015175243093565475,-0.5602169346722751,-0.8281591967757658
1737285453.0402184,240,1737285453,38598784,map,-21.54496955871582,-14.56031322479248,6.051794528961182,0.009446528805537554,0.012070838085965015,-0.5592389694279425,-0.8288647857368543
1737285453.1385605,241,1737285453,135593408,map,-21.59076499938965,-14.643317222595215,6.053706169128418,0.004246837261961795,0.010194128615715684,-0.5590843149667765,-0.8290372566255191
1737285453.2393494,242,1737285453,237587008,map,-21.640703201293945,-14.729894638061523,6.057260036468506,-0.00032634026129411704,0.009991756373214063,-0.559259339069742,-0.828932476122083
1737285453.338276,243,1737285453,336583936,map,-21.686975479125977,-14.813069343566895,6.0634355545043945,-0.005538683937359031,0.00941907324267284,-0.561131907416079,-0.8276542675049071
1737285453.4392164,244,1737285453,437578560,map,-21.73328971862793,-14.900010108947754,6.072559833526611,-0.008159869588321144,0.008900874679627179,-0.5643913166028119,-0.8254190649007227
1737285453.5394578,245,1737285453,537571648,map,-21.77808952331543,-14.989617347717285,6.085376262664795,-0.009546757786920396,0.009862378616272982,-0.5683707052824998,-0.8226580907524468
1737285453.6362765,246,1737285453,634568064,map,-21.819204330444336,-15.079670906066895,6.100735187530518,-0.01121239302502655,0.010473815932906735,-0.5719226525410214,-0.8201640451354217
1737285453.7402942,247,1737285453,738560384,map,-21.862350463867188,-15.180198669433594,6.119684219360352,-0.010979644573561377,0.009975595016190771,-0.576773547282962,-0.8167693738527051
1737285453.8414981,248,1737285453,839552448,map,-21.90371322631836,-15.278336524963379,6.137267112731934,-0.0020203093030858516,0.00987312469577868,-0.5815077451203938,-0.8134784460107448
1737285453.9394786,249,1737285453,937548096,map,-21.94193458557129,-15.371745109558105,6.150266170501709,-0.0004942571119164443,0.01317022593700237,-0.5807869855167251,-0.8139488794224553
1737285454.0353892,250,1737285454,33543232,map,-21.979633331298828,-15.463879585266113,6.163034439086914,0.001040938110539249,0.013074879404535548,-0.5788321014606309,-0.815341255116578
1737285454.147511,251,1737285454,135537344,map,-22.019357681274414,-15.565600395202637,6.177924156188965,-0.0018473134085426992,0.013444794817866864,-0.5746651445358486,-0.8182761126790078
1737285454.2381659,252,1737285454,236531968,map,-22.058368682861328,-15.668837547302246,6.187216281890869,-0.0010676014279792487,0.012805050729110192,-0.5724069543689856,-0.8198689953236663
1737285454.3457468,253,1737285454,333526848,map,-22.096216201782227,-15.77046012878418,6.190856456756592,0.0027266762457452023,0.002984663427580137,-0.5718594686699684,-0.8203416392658465
1737285454.4373822,254,1737285454,435521216,map,-22.136486053466797,-15.878596305847168,6.191818714141846,0.006944523226653677,-0.0032549052478111854,-0.5736317837476546,-0.8190773808764751
1737285454.5408862,255,1737285454,537515840,map,-22.17667007446289,-15.983407974243164,6.189383029937744,0.012167186752926456,-0.0055821158953908885,-0.5745487528337669,-0.8183608801536234
1737285454.6373184,256,1737285454,635513280,map,-22.21595573425293,-16.084871292114258,6.183712959289551,0.01312278277550015,-0.0072422388017688985,-0.5759014292909351,-0.8173817261781813
1737285454.735376,257,1737285454,733508928,map,-22.253955841064453,-16.1826171875,6.17927360534668,0.01442917401283532,-0.009496378375904823,-0.5752926810301727,-0.8177652162376221
1737285454.8363564,258,1737285454,835504320,map,-22.29229164123535,-16.28095054626465,6.180617332458496,0.013584763977223023,-0.010043010342598227,-0.5758529268726742,-0.8173787364148374
1737285454.9441977,259,1737285454,942500736,map,-22.33452796936035,-16.381982803344727,6.1891703605651855,0.01820956126653872,-0.008845375926269534,-0.5768093254977922,-0.8166279282647545
1737285455.0352156,260,1737285455,34496640,map,-22.369853973388672,-16.465181350708008,6.202575206756592,0.013850158079118963,-0.01128344962954488,-0.5770029137881675,-0.8165466884175121
1737285455.1373203,261,1737285455,135487424,map,-22.4053955078125,-16.552764892578125,6.219325542449951,0.015381790676187364,-0.017921590516335063,-0.5767327039673618,-0.8165914555537879
1737285455.236352,262,1737285455,234482560,map,-22.43621253967285,-16.631059646606445,6.229703903198242,0.025578607104513776,-0.030965242879134842,-0.5778776338006755,-0.8151345465289528
1737285455.3363054,263,1737285455,334479232,map,-22.463951110839844,-16.70170783996582,6.237929821014404,0.03458773043568608,-0.04298865699020803,-0.5779725810775118,-0.8141887740543255
1737285455.4405303,264,1737285455,439476928,map,-22.489229202270508,-16.764863967895508,6.244422435760498,0.04042789884701997,-0.04750360699097105,-0.5789797074484027,-0.812952329894333
1737285455.5444076,265,1737285455,542472832,map,-22.510055541992188,-16.81784439086914,6.250275135040283,0.03986764867751233,-0.047871874087733586,-0.5781380176781765,-0.8135571810115149
1737285455.6455338,266,1737285455,644466944,map,-22.525854110717773,-16.859270095825195,6.257806777954102,0.040770450323240885,-0.046875671318055076,-0.5764455744162515,-0.8147704839737627
1737285455.74356,267,1737285455,742464640,map,-22.535146713256836,-16.889522552490234,6.260201454162598,0.03894698662348014,-0.04636494782696679,-0.5751200676061914,-0.8158249393605242
1737285455.8444247,268,1737285455,842457472,map,-22.540206909179688,-16.90967559814453,6.263540267944336,0.04484946138408338,-0.051032329250916254,-0.5772129744219694,-0.8137625018048734
1737285455.9423435,269,1737285455,940452352,map,-22.541461944580078,-16.917701721191406,6.2694573402404785,0.04621737092603503,-0.05181497730934423,-0.5796382959178773,-0.8119104683747689
1737285456.0434408,270,1737285456,42447232,map,-22.539390563964844,-16.91475486755371,6.2740044593811035,0.05007734291834294,-0.053165964985319274,-0.580172191723323,-0.8112125910292406
1737285456.1417375,271,1737285456,139440832,map,-22.532392501831055,-16.901762008666992,6.277069091796875,0.049079921448847146,-0.05599876184439012,-0.5806117872779336,-0.8107683099729504
1737285456.2386672,272,1737285456,236439040,map,-22.520954132080078,-16.87945556640625,6.290957450866699,0.04663393137529722,-0.056373889431223775,-0.5812756970882911,-0.8104108988713078
1737285456.337645,273,1737285456,335433664,map,-22.504322052001953,-16.843896865844727,6.311492443084717,0.0502970910053168,-0.055313602977411155,-0.5807247132196839,-0.810659864195814
1737285456.4385138,274,1737285456,437428032,map,-22.48332405090332,-16.796236038208008,6.331763744354248,0.04933751700371003,-0.05388583343024781,-0.5791480031452745,-0.8119419417817245
1737285456.537931,275,1737285456,536423168,map,-22.461238861083984,-16.735492706298828,6.3499064445495605,0.050821852663279085,-0.054307397803184936,-0.5795591683597576,-0.8115288141562594
1737285456.6407602,276,1737285456,639416000,map,-22.437145233154297,-16.661319732666016,6.359469890594482,0.04992847523992998,-0.051669435659191396,-0.5799583671145988,-0.811471323703213
1737285456.740195,277,1737285456,737413440,map,-22.412750244140625,-16.57940673828125,6.362530708312988,0.044467870530872346,-0.05091765294082709,-0.5810797081987532,-0.8110341385102717
1737285456.836433,278,1737285456,834409856,map,-22.389501571655273,-16.490890502929688,6.364642143249512,0.043654179009050574,-0.04992269319793288,-0.5832009414496055,-0.809616390181921
1737285456.9395387,279,1737285456,937401152,map,-22.357118606567383,-16.38963508605957,6.368632793426514,0.036426015697631986,-0.04853332895105821,-0.5843879481609711,-0.8092023154968937
1737285457.03915,280,1737285457,36391680,map,-22.32086944580078,-16.28770637512207,6.369422435760498,0.03702862488317403,-0.04445036916624024,-0.5832762856657291,-0.8102109726486288
1737285457.1381989,281,1737285457,136391680,map,-22.28209114074707,-16.18027687072754,6.37440824508667,0.03449802166321414,-0.03546660817545444,-0.5791468782227975,-0.8137204063132749
1737285457.239833,282,1737285457,238380672,map,-22.240886688232422,-16.067447662353516,6.391845703125,0.022815626799027253,-0.018631404922605517,-0.575397387782748,-0.8173433575047682
1737285457.3408155,283,1737285457,337370944,map,-22.198888778686523,-15.958744049072266,6.414310455322266,0.014530790488300327,-0.007302566576807564,-0.5743186015637871,-0.8184703247809247
1737285457.4438496,284,1737285457,439364032,map,-22.15593147277832,-15.849339485168457,6.437618255615234,0.010380699129980074,4.107616218187617e-05,-0.5742046399463441,-0.8186459985014346
1737285457.537937,285,1737285457,535364032,map,-22.11764907836914,-15.745267868041992,6.459342002868652,0.013248413630528841,0.0016119615585851426,-0.5760010799134941,-0.8173399764202756
1737285457.6364956,286,1737285457,634364032,map,-22.08104705810547,-15.640118598937988,6.485259532928467,0.016960469889598432,0.0011241102001493329,-0.5781919212379499,-0.8157237161273111
1737285457.7347806,287,1737285457,733364800,map,-22.045101165771484,-15.534768104553223,6.510517597198486,0.0235126985217187,-0.008479129083795516,-0.5783132092486366,-0.8154318422693279
1737285457.839761,288,1737285457,837358656,map,-22.007823944091797,-15.421323776245117,6.536472320556641,0.030024248180246405,-0.017948747723035716,-0.5778833820351673,-0.81536935418495
1737285457.9376938,289,1737285457,936352256,map,-21.972026824951172,-15.308914184570312,6.556380748748779,0.03649729497505303,-0.02712344964118353,-0.5771008104942837,-0.8154059850564666
1737285458.0367897,290,1737285458,35347136,map,-21.935718536376953,-15.192285537719727,6.573675155639648,0.035227395137494254,-0.028410058005787022,-0.5777780300742948,-0.8149383088304303
1737285458.136177,291,1737285458,134340480,map,-21.896169662475586,-15.071685791015625,6.591374397277832,0.032504384388546456,-0.026435734586880703,-0.578786074740661,-0.8144024168791936
1737285458.2378402,292,1737285458,236338176,map,-21.852659225463867,-14.943795204162598,6.616324424743652,0.026623742308119477,-0.021371515063592632,-0.579560684972186,-0.8142136372746207
1737285458.3348317,293,1737285458,333333568,map,-21.814071655273438,-14.82341194152832,6.632866859436035,0.017228278408748358,-0.010539707769062984,-0.5808387207572486,-0.8137680759604031
1737285458.4395409,294,1737285458,437330240,map,-21.773174285888672,-14.692787170410156,6.645445823669434,0.008883802646310994,-0.0039005366150997958,-0.580861025419548,-0.8139449201347762
1737285458.53781,295,1737285458,536327424,map,-21.73563003540039,-14.572551727294922,6.656644344329834,0.015547184721966523,-0.007871730092437874,-0.5801512686823864,-0.8143223111021765
1737285458.6368537,296,1737285458,635322304,map,-21.69843101501465,-14.45300579071045,6.678668022155762,0.02269163382559397,-0.014988153788670546,-0.5797504532923686,-0.8143401358815769
1737285458.7427611,297,1737285458,739319488,map,-21.65848731994629,-14.325782775878906,6.700326919555664,0.028557864613315418,-0.02100179382979556,-0.5775325174938578,-0.8155976730360779
1737285458.8387372,298,1737285458,837315904,map,-21.6188907623291,-14.202765464782715,6.717581272125244,0.02737332627574284,-0.022033190944371207,-0.5752875480141355,-0.81719610657742
1737285458.94006,299,1737285458,938310016,map,-21.57883071899414,-14.07715892791748,6.725268363952637,0.02220191390209123,-0.01755583556848061,-0.572802063410192,-0.8192048973300897
1737285459.037287,300,1737285459,34308224,map,-21.54056167602539,-13.954193115234375,6.7250752449035645,0.01938183686474533,-0.01595178742670956,-0.5720533193813501,-0.8198322295826265
1737285459.1350477,301,1737285459,133308224,map,-21.50145149230957,-13.825380325317383,6.72417688369751,0.022549827214871376,-0.018092554700059167,-0.5743962085107215,-0.8180667212431467
1737285459.2398138,302,1737285459,238303616,map,-21.460491180419922,-13.68764877319336,6.725387096405029,0.028142720787139936,-0.024077776873365486,-0.5760246448718304,-0.8165928339312165
1737285459.3389175,303,1737285459,337299264,map,-21.41773223876953,-13.552497863769531,6.727421283721924,0.026380292488749537,-0.027879078019338175,-0.5780239526754614,-0.815116646444198
1737285459.4360056,304,1737285459,434294400,map,-21.37506675720215,-13.420016288757324,6.7287516593933105,0.02572434019115972,-0.029478408581307115,-0.5792924094876118,-0.8141803154457123
1737285459.5349712,305,1737285459,533286208,map,-21.330848693847656,-13.278342247009277,6.72253942489624,0.0269797060375882,-0.029595439616553018,-0.5781076731768591,-0.8149771307405295
1737285459.6392028,306,1737285459,637280832,map,-21.28400993347168,-13.128913879394531,6.709765434265137,0.026811342104751522,-0.03031855051088184,-0.5749687658531362,-0.8171736998477023
1737285459.736212,307,1737285459,734274688,map,-21.238494873046875,-12.984169960021973,6.695998191833496,0.026249734636493806,-0.03037691062692469,-0.5696452496019133,-0.8209095469893448
1737285459.840109,308,1737285459,838267776,map,-21.187870025634766,-12.82563591003418,6.6867523193359375,0.029111370781972352,-0.030897993616089407,-0.5671578058214042,-0.8225143557273301
1737285459.9409773,309,1737285459,939264704,map,-21.133037567138672,-12.671043395996094,6.690625190734863,0.023612992479233732,-0.030567519118275155,-0.56856885033604,-0.8217283710501195
1737285460.0352542,310,1737285460,33258560,map,-21.079660415649414,-12.524714469909668,6.700989246368408,0.027000539164756854,-0.028756425456487315,-0.5723228814252074,-0.8190790915881845
1737285460.139175,311,1737285460,137253184,map,-21.01935386657715,-12.35951042175293,6.70950174331665,0.02986586101387778,-0.02563815201223275,-0.5763187304607442,-0.8162765685889884
1737285460.2384527,312,1737285460,237249600,map,-20.96230697631836,-12.201314926147461,6.717316627502441,0.03365913193832611,-0.02617133351452853,-0.5787586459398123,-0.8143835422509131
1737285460.3353481,313,1737285460,334243712,map,-20.906902313232422,-12.044313430786133,6.730758190155029,0.03299135823416439,-0.027962117323931956,-0.5810508965838728,-0.8127173837538513
1737285460.43921,314,1737285460,438235264,map,-20.847240447998047,-11.869987487792969,6.746912002563477,0.034198929249245814,-0.028389982547142104,-0.582189917341221,-0.8118370170640165
1737285460.5390189,315,1737285460,537228352,map,-20.78949737548828,-11.69699764251709,6.7594428062438965,0.03244407178611977,-0.026215638766084962,-0.580607393933036,-0.8131144916924749
1737285460.6382146,316,1737285460,636222464,map,-20.73118019104004,-11.519552230834961,6.770824909210205,0.03266464857427008,-0.026275273362143664,-0.5776131097716047,-0.815233540872332
1737285460.73725,317,1737285460,735214784,map,-20.671463012695312,-11.338993072509766,6.7779717445373535,0.02998153354135901,-0.023874047012643954,-0.5745824448071899,-0.8175488680471271
1737285460.836241,318,1737285460,834210944,map,-20.610523223876953,-11.157938003540039,6.7872114181518555,0.023597956169839,-0.023568298748225944,-0.572807634096957,-0.8190110414878223
