Time,header.seq,header.stamp.secs,header.stamp.nsecs,header.frame_id,magnetic_field.x,magnetic_field.y,magnetic_field.z,magnetic_field_covariance_0,magnetic_field_covariance_1,magnetic_field_covariance_2,magnetic_field_covariance_3,magnetic_field_covariance_4,magnetic_field_covariance_5,magnetic_field_covariance_6,magnetic_field_covariance_7,magnetic_field_covariance_8
1737285429.1289148,12559,1737285429,31271056,base_link,512000.0,149999.99999999994,-543000.0,-1.0,0.0,0.0,0.0,0.0,0.0,0.0,0.0,0.0
1737285429.1318784,12560,1737285429,129978888,base_link,506000.0,133999.99999999994,-552000.0,-1.0,0.0,0.0,0.0,0.0,0.0,0.0,0.0,0.0
1737285429.2327447,12561,1737285429,230830816,base_link,491000.0,133999.99999999994,-580000.0,-1.0,0.0,0.0,0.0,0.0,0.0,0.0,0.0,0.0
1737285429.337152,12562,1737285429,334195232,base_link,490000.0,148999.99999999994,-524000.0,-1.0,0.0,0.0,0.0,0.0,0.0,0.0,0.0,0.0
1737285429.4402878,12563,1737285429,438353392,base_link,483000.0,137999.99999999994,-553000.0,-1.0,0.0,0.0,0.0,0.0,0.0,0.0,0.0,0.0
1737285429.5395322,12564,1737285429,537357832,base_link,476000.0,158999.99999999994,-549000.0,-1.0,0.0,0.0,0.0,0.0,0.0,0.0,0.0,0.0
1737285429.6401381,12565,1737285429,638227992,base_link,520000.0,133999.99999999994,-589000.0,-1.0,0.0,0.0,0.0,0.0,0.0,0.0,0.0,0.0
1737285429.7303674,12566,1737285429,727971872,base_link,503000.0,136999.99999999994,-533000.0,-1.0,0.0,0.0,0.0,0.0,0.0,0.0,0.0,0.0
1737285429.8339434,12567,1737285429,831649216,base_link,503000.0,159999.99999999994,-529000.0,-1.0,0.0,0.0,0.0,0.0,0.0,0.0,0.0,0.0
1737285429.9322324,12568,1737285429,930651352,base_link,483000.0,158999.99999999994,-553000.0,-1.0,0.0,0.0,0.0,0.0,0.0,0.0,0.0,0.0
1737285430.0329518,12569,1737285430,32174648,base_link,473000.0,197999.99999999994,-564000.0,-1.0,0.0,0.0,0.0,0.0,0.0,0.0,0.0,0.0
1737285430.134252,12570,1737285430,131110736,base_link,494000.0,207999.99999999994,-572000.0,-1.0,0.0,0.0,0.0,0.0,0.0,0.0,0.0,0.0
1737285430.2405472,12571,1737285430,229322920,base_link,467000.0,247999.99999999994,-546000.0,-1.0,0.0,0.0,0.0,0.0,0.0,0.0,0.0,0.0
1737285430.3319764,12572,1737285430,330814288,base_link,484000.0,253999.99999999994,-572000.0,-1.0,0.0,0.0,0.0,0.0,0.0,0.0,0.0,0.0
1737285430.4310303,12573,1737285430,429608656,base_link,493000.0,255999.99999999994,-557000.0,-1.0,0.0,0.0,0.0,0.0,0.0,0.0,0.0,0.0
1737285430.532238,12574,1737285430,531147304,base_link,476000.0,239999.99999999994,-541000.0,-1.0,0.0,0.0,0.0,0.0,0.0,0.0,0.0,0.0
1737285430.631027,12575,1737285430,629797208,base_link,506000.0,243999.99999999994,-554000.0,-1.0,0.0,0.0,0.0,0.0,0.0,0.0,0.0,0.0
1737285430.7321992,12576,1737285430,730864112,base_link,493000.0,221999.99999999994,-529000.0,-1.0,0.0,0.0,0.0,0.0,0.0,0.0,0.0,0.0
1737285430.8342986,12577,1737285430,832656504,base_link,458000.0,224999.99999999994,-553000.0,-1.0,0.0,0.0,0.0,0.0,0.0,0.0,0.0,0.0
1737285430.9334066,12578,1737285430,931396592,base_link,462000.0,227999.99999999994,-531000.0,-1.0,0.0,0.0,0.0,0.0,0.0,0.0,0.0,0.0
1737285431.0327063,12579,1737285431,30050496,base_link,511000.0,230999.9999999999,-597000.0,-1.0,0.0,0.0,0.0,0.0,0.0,0.0,0.0,0.0
1737285431.1406713,12580,1737285431,131683952,base_link,491000.0,247999.99999999994,-535000.0,-1.0,0.0,0.0,0.0,0.0,0.0,0.0,0.0,0.0
1737285431.229178,12581,1737285431,227891832,base_link,479000.0,230999.99999999994,-555000.0,-1.0,0.0,0.0,0.0,0.0,0.0,0.0,0.0,0.0
1737285431.3315115,12582,1737285431,329931152,base_link,499000.0,226999.99999999994,-559000.0,-1.0,0.0,0.0,0.0,0.0,0.0,0.0,0.0,0.0
1737285431.4325056,12583,1737285431,431015984,base_link,479000.0,247999.99999999994,-544000.0,-1.0,0.0,0.0,0.0,0.0,0.0,0.0,0.0,0.0
1737285431.5329993,12584,1737285431,531776144,base_link,477000.0,227999.99999999994,-566000.0,-1.0,0.0,0.0,0.0,0.0,0.0,0.0,0.0,0.0
1737285431.632774,12585,1737285431,630777560,base_link,494000.0,243999.99999999994,-555000.0,-1.0,0.0,0.0,0.0,0.0,0.0,0.0,0.0,0.0
1737285431.7333636,12586,1737285431,731831904,base_link,505000.0,230999.99999999994,-563000.0,-1.0,0.0,0.0,0.0,0.0,0.0,0.0,0.0,0.0
1737285431.8326566,12587,1737285431,830594040,base_link,482000.0,218999.99999999994,-567000.0,-1.0,0.0,0.0,0.0,0.0,0.0,0.0,0.0,0.0
1737285431.9332664,12588,1737285431,931854776,base_link,488000.0,233999.99999999994,-539000.0,-1.0,0.0,0.0,0.0,0.0,0.0,0.0,0.0,0.0
1737285432.032013,12589,1737285432,30636912,base_link,457000.0,231999.99999999994,-530000.0,-1.0,0.0,0.0,0.0,0.0,0.0,0.0,0.0,0.0
1737285432.1345472,12590,1737285432,131853352,base_link,480000.0,250999.99999999994,-582000.0,-1.0,0.0,0.0,0.0,0.0,0.0,0.0,0.0,0.0
1737285432.2303896,12591,1737285432,228777512,base_link,490000.0,242999.99999999994,-560000.0,-1.0,0.0,0.0,0.0,0.0,0.0,0.0,0.0,0.0
1737285432.333414,12592,1737285432,331819856,base_link,479000.0,256999.99999999994,-536000.0,-1.0,0.0,0.0,0.0,0.0,0.0,0.0,0.0,0.0
1737285432.4321914,12593,1737285432,430984736,base_link,484000.0,228999.99999999994,-554000.0,-1.0,0.0,0.0,0.0,0.0,0.0,0.0,0.0,0.0
1737285432.5312905,12594,1737285432,529973736,base_link,472000.0,255999.99999999994,-539000.0,-1.0,0.0,0.0,0.0,0.0,0.0,0.0,0.0,0.0
1737285432.6353354,12595,1737285432,634291408,base_link,512000.0,244999.99999999994,-581000.0,-1.0,0.0,0.0,0.0,0.0,0.0,0.0,0.0,0.0
1737285432.7314565,12596,1737285432,730275800,base_link,480000.0,235999.99999999994,-538000.0,-1.0,0.0,0.0,0.0,0.0,0.0,0.0,0.0,0.0
1737285432.8351407,12597,1737285432,831825728,base_link,480000.0,236999.99999999994,-583000.0,-1.0,0.0,0.0,0.0,0.0,0.0,0.0,0.0,0.0
1737285432.9340372,12598,1737285432,932820632,base_link,486000.0,258999.99999999994,-544000.0,-1.0,0.0,0.0,0.0,0.0,0.0,0.0,0.0,0.0
1737285433.0320725,12599,1737285433,31217536,base_link,486000.0,258999.99999999994,-544000.0,-1.0,0.0,0.0,0.0,0.0,0.0,0.0,0.0,0.0
1737285433.1339037,12600,1737285433,130696880,base_link,481000.0,234999.99999999994,-547000.0,-1.0,0.0,0.0,0.0,0.0,0.0,0.0,0.0,0.0
1737285433.230378,12601,1737285433,229242504,base_link,505000.0,243999.99999999994,-570000.0,-1.0,0.0,0.0,0.0,0.0,0.0,0.0,0.0,0.0
1737285433.3304434,12602,1737285433,328813736,base_link,485000.0,230999.99999999994,-550000.0,-1.0,0.0,0.0,0.0,0.0,0.0,0.0,0.0,0.0
1737285433.4313183,12603,1737285433,429828080,base_link,477000.0,223999.99999999994,-558000.0,-1.0,0.0,0.0,0.0,0.0,0.0,0.0,0.0,0.0
1737285433.5337145,12604,1737285433,531669240,base_link,491000.0,257999.99999999994,-560000.0,-1.0,0.0,0.0,0.0,0.0,0.0,0.0,0.0,0.0
1737285433.6313646,12605,1737285433,630199048,base_link,475000.0,244999.99999999994,-559000.0,-1.0,0.0,0.0,0.0,0.0,0.0,0.0,0.0,0.0
1737285433.7323189,12606,1737285433,731773232,base_link,467000.0,250999.99999999994,-518000.00000000006,-1.0,0.0,0.0,0.0,0.0,0.0,0.0,0.0,0.0
1737285433.831653,12607,1737285433,830525904,base_link,469000.0,240999.99999999994,-559000.0,-1.0,0.0,0.0,0.0,0.0,0.0,0.0,0.0,0.0
1737285433.933273,12608,1737285433,931541576,base_link,481000.0,253999.99999999994,-523000.00000000006,-1.0,0.0,0.0,0.0,0.0,0.0,0.0,0.0,0.0
1737285434.031599,12609,1737285434,29948248,base_link,487000.0,256999.99999999994,-566000.0,-1.0,0.0,0.0,0.0,0.0,0.0,0.0,0.0,0.0
1737285434.1354887,12610,1737285434,131792224,base_link,479000.0,251999.99999999994,-548000.0,-1.0,0.0,0.0,0.0,0.0,0.0,0.0,0.0,0.0
1737285434.2323887,12611,1737285434,230724128,base_link,482000.0,241999.99999999994,-591000.0,-1.0,0.0,0.0,0.0,0.0,0.0,0.0,0.0,0.0
1737285434.3286202,12612,1737285434,327807520,base_link,479000.0,264999.99999999994,-545000.0,-1.0,0.0,0.0,0.0,0.0,0.0,0.0,0.0,0.0
1737285434.432624,12613,1737285434,431509192,base_link,487000.0,256999.99999999994,-566000.0,-1.0,0.0,0.0,0.0,0.0,0.0,0.0,0.0,0.0
1737285434.529584,12614,1737285434,528206768,base_link,475000.0,246999.99999999994,-571000.0,-1.0,0.0,0.0,0.0,0.0,0.0,0.0,0.0,0.0
1737285434.63036,12615,1737285434,629210416,base_link,468000.0,246999.99999999994,-538000.0,-1.0,0.0,0.0,0.0,0.0,0.0,0.0,0.0,0.0
1737285434.7327237,12616,1737285434,731208088,base_link,479000.0,257999.99999999994,-572000.0,-1.0,0.0,0.0,0.0,0.0,0.0,0.0,0.0,0.0
1737285434.831591,12617,1737285434,830092920,base_link,508000.0,258999.99999999994,-545000.0,-1.0,0.0,0.0,0.0,0.0,0.0,0.0,0.0,0.0
1737285434.9317498,12618,1737285434,930999080,base_link,485000.0,256999.99999999994,-538000.0,-1.0,0.0,0.0,0.0,0.0,0.0,0.0,0.0,0.0
1737285435.0289514,12619,1737285435,27762704,base_link,486000.0,257999.99999999994,-515000.00000000006,-1.0,0.0,0.0,0.0,0.0,0.0,0.0,0.0,0.0
1737285435.1337788,12620,1737285435,131362864,base_link,490000.0,238999.99999999994,-566000.0,-1.0,0.0,0.0,0.0,0.0,0.0,0.0,0.0,0.0
1737285435.2314894,12621,1737285435,230400768,base_link,477000.0,248999.99999999994,-544000.0,-1.0,0.0,0.0,0.0,0.0,0.0,0.0,0.0,0.0
1737285435.3334951,12622,1737285435,331380160,base_link,473000.0,250999.99999999994,-521000.00000000006,-1.0,0.0,0.0,0.0,0.0,0.0,0.0,0.0,0.0
1737285435.4314375,12623,1737285435,430177016,base_link,488000.0,253999.99999999994,-554000.0,-1.0,0.0,0.0,0.0,0.0,0.0,0.0,0.0,0.0
1737285435.5306444,12624,1737285435,529147104,base_link,478000.0,243999.99999999994,-580000.0,-1.0,0.0,0.0,0.0,0.0,0.0,0.0,0.0,0.0
1737285435.6342268,12625,1737285435,630701936,base_link,475000.0,252999.99999999994,-532000.0,-1.0,0.0,0.0,0.0,0.0,0.0,0.0,0.0,0.0
1737285435.733957,12626,1737285435,731947840,base_link,471000.0,236999.99999999994,-554000.0,-1.0,0.0,0.0,0.0,0.0,0.0,0.0,0.0,0.0
1737285435.832654,12627,1737285435,830980464,base_link,499000.0,242999.99999999994,-570000.0,-1.0,0.0,0.0,0.0,0.0,0.0,0.0,0.0,0.0
1737285435.9338467,12628,1737285435,932815576,base_link,485000.0,244999.99999999994,-530000.0,-1.0,0.0,0.0,0.0,0.0,0.0,0.0,0.0,0.0
1737285436.0328808,12629,1737285436,31503968,base_link,492000.0,240999.99999999994,-565000.0,-1.0,0.0,0.0,0.0,0.0,0.0,0.0,0.0,0.0
1737285436.1357381,12630,1737285436,134643616,base_link,475000.0,235999.99999999994,-534000.0,-1.0,0.0,0.0,0.0,0.0,0.0,0.0,0.0,0.0
1737285436.2349749,12631,1737285436,233570496,base_link,472000.0,235999.99999999994,-581000.0,-1.0,0.0,0.0,0.0,0.0,0.0,0.0,0.0,0.0
1737285436.3398187,12632,1737285436,338121840,base_link,462000.0,247999.99999999994,-566000.0,-1.0,0.0,0.0,0.0,0.0,0.0,0.0,0.0,0.0
1737285436.4361,12633,1737285436,434133768,base_link,487000.0,257999.99999999994,-542000.0,-1.0,0.0,0.0,0.0,0.0,0.0,0.0,0.0,0.0
1737285436.5367014,12634,1737285436,535670928,base_link,467000.0,240999.99999999994,-569000.0,-1.0,0.0,0.0,0.0,0.0,0.0,0.0,0.0,0.0
1737285436.6334958,12635,1737285436,632966088,base_link,479000.0,245999.99999999994,-537000.0,-1.0,0.0,0.0,0.0,0.0,0.0,0.0,0.0,0.0
1737285436.7387,12636,1737285436,737833272,base_link,490000.0,252999.99999999994,-561000.0,-1.0,0.0,0.0,0.0,0.0,0.0,0.0,0.0,0.0
1737285436.8293345,12637,1737285436,827534432,base_link,485000.0,237999.99999999994,-572000.0,-1.0,0.0,0.0,0.0,0.0,0.0,0.0,0.0,0.0
1737285436.9408345,12638,1737285436,939821288,base_link,497000.0,251999.99999999994,-540000.0,-1.0,0.0,0.0,0.0,0.0,0.0,0.0,0.0,0.0
1737285437.0309975,12639,1737285437,29871960,base_link,458000.0,248999.99999999994,-532000.0,-1.0,0.0,0.0,0.0,0.0,0.0,0.0,0.0,0.0
1737285437.1378675,12640,1737285437,137093744,base_link,506000.0,249999.99999999994,-554000.0,-1.0,0.0,0.0,0.0,0.0,0.0,0.0,0.0,0.0
1737285437.2308035,12641,1737285437,230331600,base_link,485000.0,245999.99999999994,-576000.0,-1.0,0.0,0.0,0.0,0.0,0.0,0.0,0.0,0.0
1737285437.3338864,12642,1737285437,331379784,base_link,483000.0,244999.99999999994,-549000.0,-1.0,0.0,0.0,0.0,0.0,0.0,0.0,0.0,0.0
1737285437.430893,12643,1737285437,430278200,base_link,483000.0,234999.99999999994,-558000.0,-1.0,0.0,0.0,0.0,0.0,0.0,0.0,0.0,0.0
1737285437.5332608,12644,1737285437,531506336,base_link,473000.0,237999.99999999994,-536000.0,-1.0,0.0,0.0,0.0,0.0,0.0,0.0,0.0,0.0
1737285437.6320066,12645,1737285437,630836008,base_link,477000.0,241999.99999999994,-571000.0,-1.0,0.0,0.0,0.0,0.0,0.0,0.0,0.0,0.0
1737285437.730827,12646,1737285437,729768192,base_link,493000.0,245999.99999999994,-549000.0,-1.0,0.0,0.0,0.0,0.0,0.0,0.0,0.0,0.0
1737285437.8317325,12647,1737285437,830809304,base_link,491000.0,249999.99999999994,-567000.0,-1.0,0.0,0.0,0.0,0.0,0.0,0.0,0.0,0.0
1737285437.9337547,12648,1737285437,932585696,base_link,494000.0,239999.99999999994,-553000.0,-1.0,0.0,0.0,0.0,0.0,0.0,0.0,0.0,0.0
1737285438.034552,12649,1737285438,31253296,base_link,482000.0,237999.99999999994,-551000.0,-1.0,0.0,0.0,0.0,0.0,0.0,0.0,0.0,0.0
1737285438.1343384,12650,1737285438,130413152,base_link,475000.0,241999.9999999999,-601000.0,-1.0,0.0,0.0,0.0,0.0,0.0,0.0,0.0,0.0
1737285438.2332444,12651,1737285438,231488752,base_link,496000.0,249999.99999999994,-587000.0,-1.0,0.0,0.0,0.0,0.0,0.0,0.0,0.0,0.0
1737285438.3310812,12652,1737285438,330311888,base_link,480000.0,236999.99999999994,-560000.0,-1.0,0.0,0.0,0.0,0.0,0.0,0.0,0.0,0.0
1737285438.4334478,12653,1737285438,431358952,base_link,491000.0,239999.99999999994,-575000.0,-1.0,0.0,0.0,0.0,0.0,0.0,0.0,0.0,0.0
1737285438.5308242,12654,1737285438,530240736,base_link,493000.0,241999.99999999994,-557000.0,-1.0,0.0,0.0,0.0,0.0,0.0,0.0,0.0,0.0
1737285438.6303115,12655,1737285438,629076080,base_link,498000.0,254999.99999999994,-565000.0,-1.0,0.0,0.0,0.0,0.0,0.0,0.0,0.0,0.0
1737285438.7284408,12656,1737285438,727499984,base_link,490000.0,240999.99999999994,-551000.0,-1.0,0.0,0.0,0.0,0.0,0.0,0.0,0.0,0.0
1737285438.8337653,12657,1737285438,831527120,base_link,491000.0,236999.99999999994,-553000.0,-1.0,0.0,0.0,0.0,0.0,0.0,0.0,0.0,0.0
1737285438.9327462,12658,1737285438,931180720,base_link,484000.0,251999.99999999994,-557000.0,-1.0,0.0,0.0,0.0,0.0,0.0,0.0,0.0,0.0
1737285439.0310242,12659,1737285439,29532624,base_link,483000.0,246999.99999999994,-566000.0,-1.0,0.0,0.0,0.0,0.0,0.0,0.0,0.0,0.0
1737285439.1353533,12660,1737285439,130563624,base_link,477000.0,240999.99999999994,-567000.0,-1.0,0.0,0.0,0.0,0.0,0.0,0.0,0.0,0.0
1737285439.2310772,12661,1737285439,229206848,base_link,479000.0,247999.99999999994,-572000.0,-1.0,0.0,0.0,0.0,0.0,0.0,0.0,0.0,0.0
1737285439.3326669,12662,1737285439,330506512,base_link,496000.0,234999.99999999994,-568000.0,-1.0,0.0,0.0,0.0,0.0,0.0,0.0,0.0,0.0
1737285439.4313805,12663,1737285439,429513504,base_link,480000.0,256999.99999999994,-531000.0,-1.0,0.0,0.0,0.0,0.0,0.0,0.0,0.0,0.0
1737285439.5304165,12664,1737285439,528889272,base_link,499000.0,243999.99999999994,-544000.0,-1.0,0.0,0.0,0.0,0.0,0.0,0.0,0.0,0.0
1737285439.6296756,12665,1737285439,627679896,base_link,491000.0,244999.99999999994,-548000.0,-1.0,0.0,0.0,0.0,0.0,0.0,0.0,0.0,0.0
1737285439.7338278,12666,1737285439,731680008,base_link,481000.0,248999.99999999994,-542000.0,-1.0,0.0,0.0,0.0,0.0,0.0,0.0,0.0,0.0
1737285439.8313046,12667,1737285439,830381096,base_link,500000.0,232999.99999999994,-588000.0,-1.0,0.0,0.0,0.0,0.0,0.0,0.0,0.0,0.0
1737285439.9334307,12668,1737285439,931590720,base_link,492000.0,241999.99999999994,-542000.0,-1.0,0.0,0.0,0.0,0.0,0.0,0.0,0.0,0.0
1737285440.032475,12669,1737285440,30394624,base_link,493000.0,240999.99999999994,-573000.0,-1.0,0.0,0.0,0.0,0.0,0.0,0.0,0.0,0.0
1737285440.1341305,12670,1737285440,129888736,base_link,493000.0,240999.99999999994,-573000.0,-1.0,0.0,0.0,0.0,0.0,0.0,0.0,0.0,0.0
1737285440.2295237,12671,1737285440,228424128,base_link,494000.0,236999.99999999994,-549000.0,-1.0,0.0,0.0,0.0,0.0,0.0,0.0,0.0,0.0
1737285440.3326633,12672,1737285440,330046192,base_link,476000.0,247999.99999999994,-531000.0,-1.0,0.0,0.0,0.0,0.0,0.0,0.0,0.0,0.0
1737285440.433588,12673,1737285440,431167168,base_link,481000.0,234999.99999999994,-577000.0,-1.0,0.0,0.0,0.0,0.0,0.0,0.0,0.0,0.0
1737285440.529471,12674,1737285440,527873840,base_link,484000.0,250999.99999999994,-538000.0,-1.0,0.0,0.0,0.0,0.0,0.0,0.0,0.0,0.0
1737285440.6340117,12675,1737285440,632134184,base_link,482000.0,255999.99999999994,-571000.0,-1.0,0.0,0.0,0.0,0.0,0.0,0.0,0.0,0.0
1737285440.7311816,12676,1737285440,730468064,base_link,496000.0,248999.99999999994,-546000.0,-1.0,0.0,0.0,0.0,0.0,0.0,0.0,0.0,0.0
1737285440.831637,12677,1737285440,829697920,base_link,479000.0,237999.99999999994,-562000.0,-1.0,0.0,0.0,0.0,0.0,0.0,0.0,0.0,0.0
1737285440.9294147,12678,1737285440,927372872,base_link,488000.0,236999.99999999994,-575000.0,-1.0,0.0,0.0,0.0,0.0,0.0,0.0,0.0,0.0
1737285441.0327232,12679,1737285441,31093776,base_link,499000.0,234999.99999999994,-567000.0,-1.0,0.0,0.0,0.0,0.0,0.0,0.0,0.0,0.0
1737285441.1344502,12680,1737285441,130100376,base_link,496000.0,239999.99999999994,-538000.0,-1.0,0.0,0.0,0.0,0.0,0.0,0.0,0.0,0.0
1737285441.2305179,12681,1737285441,228859816,base_link,479000.0,247999.99999999994,-565000.0,-1.0,0.0,0.0,0.0,0.0,0.0,0.0,0.0,0.0
1737285441.332561,12682,1737285441,330847440,base_link,488000.0,240999.99999999994,-538000.0,-1.0,0.0,0.0,0.0,0.0,0.0,0.0,0.0,0.0
1737285441.4315128,12683,1737285441,430023320,base_link,477000.0,232999.99999999994,-557000.0,-1.0,0.0,0.0,0.0,0.0,0.0,0.0,0.0,0.0
1737285441.5305746,12684,1737285441,529615712,base_link,476000.0,240999.99999999994,-576000.0,-1.0,0.0,0.0,0.0,0.0,0.0,0.0,0.0,0.0
1737285441.632359,12685,1737285441,631023408,base_link,482000.0,230999.99999999994,-562000.0,-1.0,0.0,0.0,0.0,0.0,0.0,0.0,0.0,0.0
1737285441.7317278,12686,1737285441,730032568,base_link,463000.0,240999.99999999994,-553000.0,-1.0,0.0,0.0,0.0,0.0,0.0,0.0,0.0,0.0
1737285441.8299398,12687,1737285441,828400752,base_link,479000.0,261999.99999999994,-549000.0,-1.0,0.0,0.0,0.0,0.0,0.0,0.0,0.0,0.0
1737285441.9321241,12688,1737285441,930600912,base_link,486000.0,233999.99999999994,-545000.0,-1.0,0.0,0.0,0.0,0.0,0.0,0.0,0.0,0.0
1737285442.0336769,12689,1737285442,31067280,base_link,486000.0,238999.99999999994,-541000.0,-1.0,0.0,0.0,0.0,0.0,0.0,0.0,0.0,0.0
1737285442.134642,12690,1737285442,130131576,base_link,502000.0,241999.99999999994,-559000.0,-1.0,0.0,0.0,0.0,0.0,0.0,0.0,0.0,0.0
1737285442.233103,12691,1737285442,231309480,base_link,468000.0,237999.99999999994,-554000.0,-1.0,0.0,0.0,0.0,0.0,0.0,0.0,0.0,0.0
1737285442.3320749,12692,1737285442,330394336,base_link,495000.0,241999.99999999994,-555000.0,-1.0,0.0,0.0,0.0,0.0,0.0,0.0,0.0,0.0
1737285442.431178,12693,1737285442,429259496,base_link,502000.0,233999.99999999994,-573000.0,-1.0,0.0,0.0,0.0,0.0,0.0,0.0,0.0,0.0
1737285442.5320969,12694,1737285442,530193240,base_link,500000.0,251999.99999999994,-558000.0,-1.0,0.0,0.0,0.0,0.0,0.0,0.0,0.0,0.0
1737285442.6331012,12695,1737285442,631276912,base_link,459000.0,228999.99999999994,-562000.0,-1.0,0.0,0.0,0.0,0.0,0.0,0.0,0.0,0.0
1737285442.7302427,12696,1737285442,728311816,base_link,509000.0,234999.99999999994,-550000.0,-1.0,0.0,0.0,0.0,0.0,0.0,0.0,0.0,0.0
1737285442.831048,12697,1737285442,829530672,base_link,497000.0,242999.99999999994,-537000.0,-1.0,0.0,0.0,0.0,0.0,0.0,0.0,0.0,0.0
1737285442.9320655,12698,1737285442,930546088,base_link,492000.0,248999.99999999994,-527000.0,-1.0,0.0,0.0,0.0,0.0,0.0,0.0,0.0,0.0
1737285443.0313082,12699,1737285443,29171016,base_link,488000.0,232999.99999999994,-584000.0,-1.0,0.0,0.0,0.0,0.0,0.0,0.0,0.0,0.0
1737285443.134341,12700,1737285443,132788944,base_link,507000.0,241999.99999999994,-548000.0,-1.0,0.0,0.0,0.0,0.0,0.0,0.0,0.0,0.0
1737285443.2365043,12701,1737285443,234544128,base_link,475000.0,224999.99999999994,-576000.0,-1.0,0.0,0.0,0.0,0.0,0.0,0.0,0.0,0.0
1737285443.334778,12702,1737285443,333222216,base_link,461000.0,252999.99999999994,-549000.0,-1.0,0.0,0.0,0.0,0.0,0.0,0.0,0.0,0.0
1737285443.4335947,12703,1737285443,432139072,base_link,488000.0,228999.99999999994,-552000.0,-1.0,0.0,0.0,0.0,0.0,0.0,0.0,0.0,0.0
1737285443.5316913,12704,1737285443,531157624,base_link,491000.0,238999.99999999994,-577000.0,-1.0,0.0,0.0,0.0,0.0,0.0,0.0,0.0,0.0
1737285443.630227,12705,1737285443,628743200,base_link,466000.0,225999.99999999994,-555000.0,-1.0,0.0,0.0,0.0,0.0,0.0,0.0,0.0,0.0
1737285443.7308168,12706,1737285443,729464616,base_link,505000.0,243999.99999999994,-563000.0,-1.0,0.0,0.0,0.0,0.0,0.0,0.0,0.0,0.0
1737285443.83806,12707,1737285443,836522960,base_link,506000.0,237999.99999999994,-555000.0,-1.0,0.0,0.0,0.0,0.0,0.0,0.0,0.0,0.0
1737285443.9426358,12708,1737285443,941050256,base_link,493000.0,218999.99999999994,-573000.0,-1.0,0.0,0.0,0.0,0.0,0.0,0.0,0.0,0.0
1737285444.0358193,12709,1737285444,33639856,base_link,511000.0,242999.99999999994,-565000.0,-1.0,0.0,0.0,0.0,0.0,0.0,0.0,0.0,0.0
1737285444.131393,12710,1737285444,129429992,base_link,490000.0,244999.99999999994,-541000.0,-1.0,0.0,0.0,0.0,0.0,0.0,0.0,0.0,0.0
1737285444.2291896,12711,1737285444,228293360,base_link,472000.0,232999.99999999994,-543000.0,-1.0,0.0,0.0,0.0,0.0,0.0,0.0,0.0,0.0
1737285444.3329322,12712,1737285444,331610424,base_link,504000.0,237999.9999999999,-606000.0,-1.0,0.0,0.0,0.0,0.0,0.0,0.0,0.0,0.0
1737285444.4319253,12713,1737285444,430369024,base_link,483000.0,228999.99999999994,-562000.0,-1.0,0.0,0.0,0.0,0.0,0.0,0.0,0.0,0.0
1737285444.531569,12714,1737285444,529441112,base_link,483000.0,259999.99999999994,-547000.0,-1.0,0.0,0.0,0.0,0.0,0.0,0.0,0.0,0.0
1737285444.6321785,12715,1737285444,630481736,base_link,477000.0,237999.99999999994,-567000.0,-1.0,0.0,0.0,0.0,0.0,0.0,0.0,0.0,0.0
1737285444.7281754,12716,1737285444,727217408,base_link,497000.0,230999.99999999994,-567000.0,-1.0,0.0,0.0,0.0,0.0,0.0,0.0,0.0,0.0
1737285444.835511,12717,1737285444,831777752,base_link,497000.0,244999.99999999994,-553000.0,-1.0,0.0,0.0,0.0,0.0,0.0,0.0,0.0,0.0
1737285444.9319694,12718,1737285444,930480120,base_link,482000.0,243999.99999999994,-555000.0,-1.0,0.0,0.0,0.0,0.0,0.0,0.0,0.0,0.0
1737285445.0321631,12719,1737285445,31210440,base_link,498000.0,229999.99999999994,-572000.0,-1.0,0.0,0.0,0.0,0.0,0.0,0.0,0.0,0.0
1737285445.1338513,12720,1737285445,130111112,base_link,476000.0,243999.99999999994,-580000.0,-1.0,0.0,0.0,0.0,0.0,0.0,0.0,0.0,0.0
1737285445.2301078,12721,1737285445,229347528,base_link,483000.0,236999.99999999994,-554000.0,-1.0,0.0,0.0,0.0,0.0,0.0,0.0,0.0,0.0
1737285445.3325217,12722,1737285445,330890152,base_link,493000.0,260999.99999999994,-549000.0,-1.0,0.0,0.0,0.0,0.0,0.0,0.0,0.0,0.0
1737285445.4312797,12723,1737285445,427135376,base_link,480000.0,225999.99999999994,-562000.0,-1.0,0.0,0.0,0.0,0.0,0.0,0.0,0.0,0.0
1737285445.5334332,12724,1737285445,531413952,base_link,498000.0,244999.99999999994,-590000.0,-1.0,0.0,0.0,0.0,0.0,0.0,0.0,0.0,0.0
1737285445.6294508,12725,1737285445,628087112,base_link,491000.0,236999.99999999994,-532000.0,-1.0,0.0,0.0,0.0,0.0,0.0,0.0,0.0,0.0
1737285445.7321646,12726,1737285445,731136344,base_link,474000.0,246999.99999999994,-538000.0,-1.0,0.0,0.0,0.0,0.0,0.0,0.0,0.0,0.0
1737285445.8313859,12727,1737285445,830217992,base_link,510000.0,260999.99999999994,-558000.0,-1.0,0.0,0.0,0.0,0.0,0.0,0.0,0.0,0.0
1737285445.931564,12728,1737285445,929806992,base_link,477000.0,234999.99999999994,-566000.0,-1.0,0.0,0.0,0.0,0.0,0.0,0.0,0.0,0.0
1737285446.0323498,12729,1737285446,31062752,base_link,484000.0,258999.99999999994,-561000.0,-1.0,0.0,0.0,0.0,0.0,0.0,0.0,0.0,0.0
1737285446.1308525,12730,1737285446,130118744,base_link,503000.0,239999.99999999994,-577000.0,-1.0,0.0,0.0,0.0,0.0,0.0,0.0,0.0,0.0
1737285446.2342303,12731,1737285446,231538160,base_link,482000.0,235999.99999999994,-568000.0,-1.0,0.0,0.0,0.0,0.0,0.0,0.0,0.0,0.0
1737285446.3311045,12732,1737285446,330301760,base_link,484000.0,248999.99999999994,-555000.0,-1.0,0.0,0.0,0.0,0.0,0.0,0.0,0.0,0.0
1737285446.4358628,12733,1737285446,431113616,base_link,481000.0,243999.99999999994,-568000.0,-1.0,0.0,0.0,0.0,0.0,0.0,0.0,0.0,0.0
1737285446.53143,12734,1737285446,529997960,base_link,489000.0,257999.99999999994,-550000.0,-1.0,0.0,0.0,0.0,0.0,0.0,0.0,0.0,0.0
1737285446.6319172,12735,1737285446,630943888,base_link,495000.0,237999.99999999994,-554000.0,-1.0,0.0,0.0,0.0,0.0,0.0,0.0,0.0,0.0
1737285446.7315688,12736,1737285446,729860256,base_link,503000.0,239999.99999999994,-547000.0,-1.0,0.0,0.0,0.0,0.0,0.0,0.0,0.0,0.0
1737285446.8325007,12737,1737285446,831262672,base_link,482000.0,231999.99999999994,-563000.0,-1.0,0.0,0.0,0.0,0.0,0.0,0.0,0.0,0.0
1737285446.9341173,12738,1737285446,932482784,base_link,484000.0,242999.99999999994,-534000.0,-1.0,0.0,0.0,0.0,0.0,0.0,0.0,0.0,0.0
1737285447.0323415,12739,1737285447,31265408,base_link,484000.0,242999.99999999994,-534000.0,-1.0,0.0,0.0,0.0,0.0,0.0,0.0,0.0,0.0
1737285447.1313927,12740,1737285447,130733408,base_link,500000.0,235999.99999999994,-589000.0,-1.0,0.0,0.0,0.0,0.0,0.0,0.0,0.0,0.0
1737285447.2299469,12741,1737285447,229503544,base_link,485000.0,254999.99999999994,-526000.0,-1.0,0.0,0.0,0.0,0.0,0.0,0.0,0.0,0.0
1737285447.332443,12742,1737285447,331065192,base_link,488000.0,231999.99999999994,-557000.0,-1.0,0.0,0.0,0.0,0.0,0.0,0.0,0.0,0.0
1737285447.4295146,12743,1737285447,428079560,base_link,477000.0,239999.99999999994,-561000.0,-1.0,0.0,0.0,0.0,0.0,0.0,0.0,0.0,0.0
1737285447.531983,12744,1737285447,529842952,base_link,507000.0,249999.99999999994,-542000.0,-1.0,0.0,0.0,0.0,0.0,0.0,0.0,0.0,0.0
1737285447.6302006,12745,1737285447,628781880,base_link,482000.0,249999.99999999994,-562000.0,-1.0,0.0,0.0,0.0,0.0,0.0,0.0,0.0,0.0
1737285447.7312963,12746,1737285447,730738224,base_link,478000.0,230999.99999999994,-557000.0,-1.0,0.0,0.0,0.0,0.0,0.0,0.0,0.0,0.0
1737285447.8461652,12747,1737285447,829307872,base_link,477000.0,238999.99999999994,-567000.0,-1.0,0.0,0.0,0.0,0.0,0.0,0.0,0.0,0.0
1737285447.9335718,12748,1737285447,932021424,base_link,478000.0,241999.99999999994,-569000.0,-1.0,0.0,0.0,0.0,0.0,0.0,0.0,0.0,0.0
1737285448.0314867,12749,1737285448,30444512,base_link,480000.0,246999.99999999994,-563000.0,-1.0,0.0,0.0,0.0,0.0,0.0,0.0,0.0,0.0
1737285448.1342723,12750,1737285448,131830648,base_link,488000.0,238999.99999999994,-540000.0,-1.0,0.0,0.0,0.0,0.0,0.0,0.0,0.0,0.0
1737285448.231165,12751,1737285448,230394040,base_link,477000.0,242999.99999999994,-577000.0,-1.0,0.0,0.0,0.0,0.0,0.0,0.0,0.0,0.0
1737285448.3318594,12752,1737285448,329858384,base_link,497000.0,252999.99999999994,-540000.0,-1.0,0.0,0.0,0.0,0.0,0.0,0.0,0.0,0.0
1737285448.4307392,12753,1737285448,428947800,base_link,480000.0,258999.99999999994,-571000.0,-1.0,0.0,0.0,0.0,0.0,0.0,0.0,0.0,0.0
1737285448.5314357,12754,1737285448,530625216,base_link,486000.0,250999.99999999994,-542000.0,-1.0,0.0,0.0,0.0,0.0,0.0,0.0,0.0,0.0
1737285448.631248,12755,1737285448,629045584,base_link,483000.0,236999.99999999994,-578000.0,-1.0,0.0,0.0,0.0,0.0,0.0,0.0,0.0,0.0
1737285448.7329059,12756,1737285448,730938792,base_link,480000.0,235999.99999999994,-526000.0,-1.0,0.0,0.0,0.0,0.0,0.0,0.0,0.0,0.0
1737285448.8313727,12757,1737285448,829794464,base_link,486000.0,248999.99999999994,-548000.0,-1.0,0.0,0.0,0.0,0.0,0.0,0.0,0.0,0.0
1737285448.9324439,12758,1737285448,931647672,base_link,480000.0,235999.99999999994,-590000.0,-1.0,0.0,0.0,0.0,0.0,0.0,0.0,0.0,0.0
1737285449.031833,12759,1737285449,29992016,base_link,500000.0,266999.99999999994,-575000.0,-1.0,0.0,0.0,0.0,0.0,0.0,0.0,0.0,0.0
1737285449.130186,12760,1737285449,129636664,base_link,502000.0,245999.99999999994,-569000.0,-1.0,0.0,0.0,0.0,0.0,0.0,0.0,0.0,0.0
1737285449.2328622,12761,1737285449,231141848,base_link,460000.0,241999.99999999994,-564000.0,-1.0,0.0,0.0,0.0,0.0,0.0,0.0,0.0,0.0
1737285449.3330152,12762,1737285449,331135960,base_link,490000.0,249999.99999999994,-556000.0,-1.0,0.0,0.0,0.0,0.0,0.0,0.0,0.0,0.0
1737285449.4316247,12763,1737285449,430236840,base_link,470000.0,249999.99999999994,-561000.0,-1.0,0.0,0.0,0.0,0.0,0.0,0.0,0.0,0.0
1737285449.5334196,12764,1737285449,532169512,base_link,463000.0,239999.99999999994,-564000.0,-1.0,0.0,0.0,0.0,0.0,0.0,0.0,0.0,0.0
1737285449.6314628,12765,1737285449,630842832,base_link,478000.0,241999.99999999994,-563000.0,-1.0,0.0,0.0,0.0,0.0,0.0,0.0,0.0,0.0
1737285449.7324886,12766,1737285449,730994432,base_link,468000.0,249999.99999999994,-557000.0,-1.0,0.0,0.0,0.0,0.0,0.0,0.0,0.0,0.0
1737285449.8420124,12767,1737285449,837335056,base_link,482000.0,233999.99999999994,-550000.0,-1.0,0.0,0.0,0.0,0.0,0.0,0.0,0.0,0.0
1737285449.9423242,12768,1737285449,940868168,base_link,477000.0,249999.99999999994,-565000.0,-1.0,0.0,0.0,0.0,0.0,0.0,0.0,0.0,0.0
1737285450.0350769,12769,1737285450,33005256,base_link,467000.0,244999.99999999994,-577000.0,-1.0,0.0,0.0,0.0,0.0,0.0,0.0,0.0,0.0
1737285450.1340275,12770,1737285450,129959832,base_link,449000.0,236999.99999999994,-568000.0,-1.0,0.0,0.0,0.0,0.0,0.0,0.0,0.0,0.0
1737285450.2302215,12771,1737285450,228894640,base_link,451000.0,236999.99999999994,-571000.0,-1.0,0.0,0.0,0.0,0.0,0.0,0.0,0.0,0.0
1737285450.33792,12772,1737285450,336567240,base_link,462000.0,250999.9999999999,-607000.0,-1.0,0.0,0.0,0.0,0.0,0.0,0.0,0.0,0.0
1737285450.4308631,12773,1737285450,429525280,base_link,464000.0,239999.99999999994,-584000.0,-1.0,0.0,0.0,0.0,0.0,0.0,0.0,0.0,0.0
1737285450.5320802,12774,1737285450,530929136,base_link,440000.0,248999.99999999994,-579000.0,-1.0,0.0,0.0,0.0,0.0,0.0,0.0,0.0,0.0
1737285450.6319625,12775,1737285450,630315040,base_link,488000.0,242999.99999999994,-577000.0,-1.0,0.0,0.0,0.0,0.0,0.0,0.0,0.0,0.0
1737285450.7312286,12776,1737285450,729867224,base_link,463000.0,216999.99999999994,-569000.0,-1.0,0.0,0.0,0.0,0.0,0.0,0.0,0.0,0.0
1737285450.8316464,12777,1737285450,829172592,base_link,461000.0,244999.99999999994,-551000.0,-1.0,0.0,0.0,0.0,0.0,0.0,0.0,0.0,0.0
1737285450.9347107,12778,1737285450,933257984,base_link,456000.0,237999.9999999999,-604000.0,-1.0,0.0,0.0,0.0,0.0,0.0,0.0,0.0,0.0
1737285451.031203,12779,1737285451,29800192,base_link,477000.0,232999.99999999994,-565000.0,-1.0,0.0,0.0,0.0,0.0,0.0,0.0,0.0,0.0
1737285451.133242,12780,1737285451,128940280,base_link,463000.0,239999.99999999994,-521000.00000000006,-1.0,0.0,0.0,0.0,0.0,0.0,0.0,0.0,0.0
1737285451.2320354,12781,1737285451,230856440,base_link,498000.0,231999.99999999994,-586000.0,-1.0,0.0,0.0,0.0,0.0,0.0,0.0,0.0,0.0
1737285451.329124,12782,1737285451,327748504,base_link,477000.0,262999.99999999994,-524000.00000000006,-1.0,0.0,0.0,0.0,0.0,0.0,0.0,0.0,0.0
1737285451.4309855,12783,1737285451,429156872,base_link,478000.0,225999.99999999994,-590000.0,-1.0,0.0,0.0,0.0,0.0,0.0,0.0,0.0,0.0
1737285451.5327802,12784,1737285451,530995032,base_link,477000.0,250999.99999999994,-543000.0,-1.0,0.0,0.0,0.0,0.0,0.0,0.0,0.0,0.0
1737285451.6317215,12785,1737285451,630251912,base_link,467000.0,253999.99999999994,-568000.0,-1.0,0.0,0.0,0.0,0.0,0.0,0.0,0.0,0.0
1737285451.731105,12786,1737285451,729840528,base_link,475000.0,244999.99999999994,-555000.0,-1.0,0.0,0.0,0.0,0.0,0.0,0.0,0.0,0.0
1737285451.8330417,12787,1737285451,831353176,base_link,459000.0,247999.99999999994,-562000.0,-1.0,0.0,0.0,0.0,0.0,0.0,0.0,0.0,0.0
1737285451.9366567,12788,1737285451,931135984,base_link,470000.0,243999.99999999994,-551000.0,-1.0,0.0,0.0,0.0,0.0,0.0,0.0,0.0,0.0
1737285452.0513377,12789,1737285452,30057144,base_link,468000.0,227999.99999999994,-573000.0,-1.0,0.0,0.0,0.0,0.0,0.0,0.0,0.0,0.0
1737285452.1300445,12790,1737285452,128682144,base_link,453000.0,257999.99999999994,-575000.0,-1.0,0.0,0.0,0.0,0.0,0.0,0.0,0.0,0.0
1737285452.230205,12791,1737285452,227879144,base_link,467000.0,239999.99999999994,-567000.0,-1.0,0.0,0.0,0.0,0.0,0.0,0.0,0.0,0.0
1737285452.33046,12792,1737285452,328878064,base_link,452000.0,258999.99999999994,-554000.0,-1.0,0.0,0.0,0.0,0.0,0.0,0.0,0.0,0.0
1737285452.4321856,12793,1737285452,430496248,base_link,462000.0,264999.99999999994,-561000.0,-1.0,0.0,0.0,0.0,0.0,0.0,0.0,0.0,0.0
1737285452.5312626,12794,1737285452,530513152,base_link,460000.0,257999.99999999994,-576000.0,-1.0,0.0,0.0,0.0,0.0,0.0,0.0,0.0,0.0
1737285452.631502,12795,1737285452,629769032,base_link,467000.0,250999.99999999994,-568000.0,-1.0,0.0,0.0,0.0,0.0,0.0,0.0,0.0,0.0
1737285452.733808,12796,1737285452,731576328,base_link,458000.0,246999.99999999994,-558000.0,-1.0,0.0,0.0,0.0,0.0,0.0,0.0,0.0,0.0
1737285452.8313272,12797,1737285452,830440184,base_link,458000.0,246999.99999999994,-558000.0,-1.0,0.0,0.0,0.0,0.0,0.0,0.0,0.0,0.0
1737285452.931515,12798,1737285452,930012320,base_link,469000.0,256999.99999999994,-544000.0,-1.0,0.0,0.0,0.0,0.0,0.0,0.0,0.0,0.0
1737285453.0322583,12799,1737285453,31287784,base_link,463000.0,250999.99999999994,-558000.0,-1.0,0.0,0.0,0.0,0.0,0.0,0.0,0.0,0.0
1737285453.1301944,12800,1737285453,128591408,base_link,468000.0,270999.99999999994,-552000.0,-1.0,0.0,0.0,0.0,0.0,0.0,0.0,0.0,0.0
1737285453.2315826,12801,1737285453,229934008,base_link,459000.0,254999.99999999994,-553000.0,-1.0,0.0,0.0,0.0,0.0,0.0,0.0,0.0,0.0
1737285453.33033,12802,1737285453,329406936,base_link,470000.0,259999.99999999994,-568000.0,-1.0,0.0,0.0,0.0,0.0,0.0,0.0,0.0,0.0
1737285453.4325614,12803,1737285453,431075560,base_link,462000.0,241999.99999999994,-558000.0,-1.0,0.0,0.0,0.0,0.0,0.0,0.0,0.0,0.0
1737285453.5326638,12804,1737285453,530688648,base_link,470000.0,252999.99999999994,-578000.0,-1.0,0.0,0.0,0.0,0.0,0.0,0.0,0.0,0.0
1737285453.632113,12805,1737285453,629567064,base_link,478000.0,243999.99999999994,-583000.0,-1.0,0.0,0.0,0.0,0.0,0.0,0.0,0.0,0.0
1737285453.7324092,12806,1737285453,731511384,base_link,480000.0,248999.99999999994,-552000.0,-1.0,0.0,0.0,0.0,0.0,0.0,0.0,0.0,0.0
1737285453.8314402,12807,1737285453,830490448,base_link,473000.0,237999.99999999994,-564000.0,-1.0,0.0,0.0,0.0,0.0,0.0,0.0,0.0,0.0
1737285453.9328434,12808,1737285453,930682096,base_link,462000.0,212999.99999999994,-526000.0,-1.0,0.0,0.0,0.0,0.0,0.0,0.0,0.0,0.0
1737285454.0275788,12809,1737285454,26651232,base_link,475000.0,225999.99999999994,-530000.0,-1.0,0.0,0.0,0.0,0.0,0.0,0.0,0.0,0.0
1737285454.1469498,12810,1737285454,130975344,base_link,450000.0,252999.99999999994,-528000.0,-1.0,0.0,0.0,0.0,0.0,0.0,0.0,0.0,0.0
1737285454.2293425,12811,1737285454,227735968,base_link,461000.0,236999.99999999994,-543000.0,-1.0,0.0,0.0,0.0,0.0,0.0,0.0,0.0,0.0
1737285454.3284252,12812,1737285454,326795848,base_link,475000.0,245999.9999999999,-606000.0,-1.0,0.0,0.0,0.0,0.0,0.0,0.0,0.0,0.0
1737285454.4298024,12813,1737285454,428547216,base_link,482000.0,249999.99999999994,-572000.0,-1.0,0.0,0.0,0.0,0.0,0.0,0.0,0.0,0.0
1737285454.531759,12814,1737285454,529926840,base_link,462000.0,242999.99999999994,-527000.0,-1.0,0.0,0.0,0.0,0.0,0.0,0.0,0.0,0.0
1737285454.6302576,12815,1737285454,628980280,base_link,488000.0,239999.99999999994,-589000.0,-1.0,0.0,0.0,0.0,0.0,0.0,0.0,0.0,0.0
1737285454.7308235,12816,1737285454,729473928,base_link,489000.0,247999.99999999994,-564000.0,-1.0,0.0,0.0,0.0,0.0,0.0,0.0,0.0,0.0
1737285454.8312452,12817,1737285454,830450320,base_link,524000.0,240999.99999999994,-587000.0,-1.0,0.0,0.0,0.0,0.0,0.0,0.0,0.0,0.0
1737285454.9392605,12818,1737285454,937720736,base_link,495000.0,234999.99999999994,-551000.0,-1.0,0.0,0.0,0.0,0.0,0.0,0.0,0.0,0.0
1737285455.0306096,12819,1737285455,29611640,base_link,494000.0,252999.99999999994,-557000.0,-1.0,0.0,0.0,0.0,0.0,0.0,0.0,0.0,0.0
1737285455.1303315,12820,1737285455,129086424,base_link,506000.0,247999.99999999994,-542000.0,-1.0,0.0,0.0,0.0,0.0,0.0,0.0,0.0,0.0
1737285455.2316546,12821,1737285455,230585560,base_link,495000.0,224999.99999999994,-576000.0,-1.0,0.0,0.0,0.0,0.0,0.0,0.0,0.0,0.0
1737285455.3312616,12822,1737285455,329632232,base_link,538000.0,240999.99999999994,-557000.0,-1.0,0.0,0.0,0.0,0.0,0.0,0.0,0.0,0.0
1737285455.4325578,12823,1737285455,431568928,base_link,510000.0,227999.99999999994,-519000.0,-1.0,0.0,0.0,0.0,0.0,0.0,0.0,0.0,0.0
1737285455.5365047,12824,1737285455,535593832,base_link,533000.0,224999.99999999994,-548000.0,-1.0,0.0,0.0,0.0,0.0,0.0,0.0,0.0,0.0
1737285455.63837,12825,1737285455,637675944,base_link,544000.0,248999.99999999994,-546000.0,-1.0,0.0,0.0,0.0,0.0,0.0,0.0,0.0,0.0
1737285455.739243,12826,1737285455,737442640,base_link,542000.0,242999.99999999994,-513000.00000000006,-1.0,0.0,0.0,0.0,0.0,0.0,0.0,0.0,0.0
1737285455.8376162,12827,1737285455,836655472,base_link,539000.0,259999.99999999994,-505000.00000000006,-1.0,0.0,0.0,0.0,0.0,0.0,0.0,0.0,0.0
1737285455.9276521,12828,1737285455,926610352,base_link,520000.0,235999.99999999994,-549000.0,-1.0,0.0,0.0,0.0,0.0,0.0,0.0,0.0,0.0
1737285456.029707,12829,1737285456,28125232,base_link,538000.0,239999.99999999994,-493000.00000000006,-1.0,0.0,0.0,0.0,0.0,0.0,0.0,0.0,0.0
1737285456.1315694,12830,1737285456,130420832,base_link,535000.0,258999.99999999994,-519000.00000000006,-1.0,0.0,0.0,0.0,0.0,0.0,0.0,0.0,0.0
1737285456.2308154,12831,1737285456,229622040,base_link,542000.0,241999.99999999994,-549000.0,-1.0,0.0,0.0,0.0,0.0,0.0,0.0,0.0,0.0
1737285456.329572,12832,1737285456,328682664,base_link,512000.0,244999.99999999994,-536000.0,-1.0,0.0,0.0,0.0,0.0,0.0,0.0,0.0,0.0
1737285456.431523,12833,1737285456,430284032,base_link,542000.0,243999.99999999994,-533000.0,-1.0,0.0,0.0,0.0,0.0,0.0,0.0,0.0,0.0
1737285456.5323055,12834,1737285456,529781168,base_link,547000.0,245999.99999999994,-543000.0,-1.0,0.0,0.0,0.0,0.0,0.0,0.0,0.0,0.0
1737285456.6329231,12835,1737285456,631281000,base_link,535000.0,243999.99999999994,-472000.00000000006,-1.0,0.0,0.0,0.0,0.0,0.0,0.0,0.0,0.0
1737285456.731756,12836,1737285456,730454440,base_link,529000.0,233999.99999999994,-561000.0,-1.0,0.0,0.0,0.0,0.0,0.0,0.0,0.0,0.0
1737285456.8285725,12837,1737285456,826631856,base_link,562000.0,249999.99999999994,-542000.0,-1.0,0.0,0.0,0.0,0.0,0.0,0.0,0.0,0.0
1737285456.935399,12838,1737285456,930551152,base_link,556000.0,241999.99999999994,-516000.00000000006,-1.0,0.0,0.0,0.0,0.0,0.0,0.0,0.0,0.0
1737285457.0308578,12839,1737285457,29759680,base_link,520000.0,222999.99999999994,-518000.0,-1.0,0.0,0.0,0.0,0.0,0.0,0.0,0.0,0.0
1737285457.134707,12840,1737285457,129439680,base_link,510000.0,236999.99999999994,-531000.0,-1.0,0.0,0.0,0.0,0.0,0.0,0.0,0.0,0.0
1737285457.2329085,12841,1737285457,231195672,base_link,526000.0,256999.99999999994,-546000.0,-1.0,0.0,0.0,0.0,0.0,0.0,0.0,0.0,0.0
1737285457.3321254,12842,1737285457,330583944,base_link,498000.0,255999.99999999994,-537000.0,-1.0,0.0,0.0,0.0,0.0,0.0,0.0,0.0,0.0
1737285457.431116,12843,1737285457,429603032,base_link,461000.0,239999.99999999994,-571000.0,-1.0,0.0,0.0,0.0,0.0,0.0,0.0,0.0,0.0
1737285457.5298202,12844,1737285457,528595032,base_link,506000.0,255999.99999999994,-594000.0,-1.0,0.0,0.0,0.0,0.0,0.0,0.0,0.0,0.0
1737285457.629151,12845,1737285457,627607032,base_link,479000.0,238999.99999999994,-544000.0,-1.0,0.0,0.0,0.0,0.0,0.0,0.0,0.0,0.0
1737285457.7288067,12846,1737285457,726443800,base_link,492000.0,258999.99999999994,-551000.0,-1.0,0.0,0.0,0.0,0.0,0.0,0.0,0.0,0.0
1737285457.8320014,12847,1737285457,830743656,base_link,497000.0,240999.99999999994,-533000.0,-1.0,0.0,0.0,0.0,0.0,0.0,0.0,0.0,0.0
1737285457.9308808,12848,1737285457,929993256,base_link,500000.0,243999.99999999994,-531000.0,-1.0,0.0,0.0,0.0,0.0,0.0,0.0,0.0,0.0
1737285458.0274405,12849,1737285458,25998136,base_link,500000.0,243999.99999999994,-531000.0,-1.0,0.0,0.0,0.0,0.0,0.0,0.0,0.0,0.0
1737285458.1339886,12850,1737285458,130471480,base_link,518000.0,253999.99999999994,-524000.00000000006,-1.0,0.0,0.0,0.0,0.0,0.0,0.0,0.0,0.0
1737285458.2295516,12851,1737285458,228983176,base_link,518000.0,253999.99999999994,-524000.00000000006,-1.0,0.0,0.0,0.0,0.0,0.0,0.0,0.0,0.0
1737285458.3297548,12852,1737285458,328481568,base_link,513000.0,251999.99999999994,-542000.0,-1.0,0.0,0.0,0.0,0.0,0.0,0.0,0.0,0.0
1737285458.4341905,12853,1737285458,432227240,base_link,475000.0,243999.99999999994,-546000.0,-1.0,0.0,0.0,0.0,0.0,0.0,0.0,0.0,0.0
1737285458.5297372,12854,1737285458,528764424,base_link,502000.0,233999.99999999994,-592000.0,-1.0,0.0,0.0,0.0,0.0,0.0,0.0,0.0,0.0
1737285458.6322978,12855,1737285458,630380304,base_link,507000.0,254999.99999999994,-555000.0,-1.0,0.0,0.0,0.0,0.0,0.0,0.0,0.0,0.0
1737285458.730672,12856,1737285458,729359488,base_link,488000.0,230999.99999999994,-547000.0,-1.0,0.0,0.0,0.0,0.0,0.0,0.0,0.0,0.0
1737285458.8318322,12857,1737285458,830727904,base_link,506000.0,237999.99999999994,-553000.0,-1.0,0.0,0.0,0.0,0.0,0.0,0.0,0.0,0.0
1737285458.9322097,12858,1737285458,930579016,base_link,521000.0,237999.99999999994,-526000.0,-1.0,0.0,0.0,0.0,0.0,0.0,0.0,0.0,0.0
1737285459.0358698,12859,1737285459,29480224,base_link,500000.0,249999.99999999994,-532000.0,-1.0,0.0,0.0,0.0,0.0,0.0,0.0,0.0,0.0
1737285459.1280117,12860,1737285459,126977224,base_link,494000.0,255999.99999999994,-531000.0,-1.0,0.0,0.0,0.0,0.0,0.0,0.0,0.0,0.0
1737285459.2321446,12861,1737285459,230362616,base_link,504000.0,241999.9999999999,-596000.0,-1.0,0.0,0.0,0.0,0.0,0.0,0.0,0.0,0.0
1737285459.3310819,12862,1737285459,330100264,base_link,491000.0,240999.99999999994,-565000.0,-1.0,0.0,0.0,0.0,0.0,0.0,0.0,0.0,0.0
1737285459.4318314,12863,1737285459,429332400,base_link,531000.0,238999.9999999999,-598000.0,-1.0,0.0,0.0,0.0,0.0,0.0,0.0,0.0,0.0
1737285459.5292447,12864,1737285459,528194208,base_link,488000.0,226999.99999999994,-546000.0,-1.0,0.0,0.0,0.0,0.0,0.0,0.0,0.0,0.0
1737285459.6324606,12865,1737285459,630350832,base_link,512000.0,252999.99999999994,-548000.0,-1.0,0.0,0.0,0.0,0.0,0.0,0.0,0.0,0.0
1737285459.7283409,12866,1737285459,727367688,base_link,510000.0,246999.99999999994,-548000.0,-1.0,0.0,0.0,0.0,0.0,0.0,0.0,0.0,0.0
1737285459.8321855,12867,1737285459,830855776,base_link,526000.0,250999.99999999994,-570000.0,-1.0,0.0,0.0,0.0,0.0,0.0,0.0,0.0,0.0
1737285459.9338975,12868,1737285459,932264704,base_link,542000.0,249999.99999999994,-544000.0,-1.0,0.0,0.0,0.0,0.0,0.0,0.0,0.0,0.0
1737285460.030189,12869,1737285460,28389560,base_link,519000.0,240999.99999999994,-542000.0,-1.0,0.0,0.0,0.0,0.0,0.0,0.0,0.0,0.0
1737285460.1345294,12870,1737285460,130902184,base_link,498000.0,246999.99999999994,-538000.0,-1.0,0.0,0.0,0.0,0.0,0.0,0.0,0.0,0.0
1737285460.231427,12871,1737285460,230090600,base_link,503000.0,258999.99999999994,-566000.0,-1.0,0.0,0.0,0.0,0.0,0.0,0.0,0.0,0.0
1737285460.3283331,12872,1737285460,326918712,base_link,501000.0,260999.99999999994,-565000.0,-1.0,0.0,0.0,0.0,0.0,0.0,0.0,0.0,0.0
1737285460.4321933,12873,1737285460,430810264,base_link,506000.0,243999.99999999994,-549000.0,-1.0,0.0,0.0,0.0,0.0,0.0,0.0,0.0,0.0
1737285460.5315118,12874,1737285460,530380352,base_link,491000.0,236999.99999999994,-534000.0,-1.0,0.0,0.0,0.0,0.0,0.0,0.0,0.0,0.0
1737285460.6335766,12875,1737285460,631411464,base_link,506000.0,259999.99999999994,-549000.0,-1.0,0.0,0.0,0.0,0.0,0.0,0.0,0.0,0.0
1737285460.7293026,12876,1737285460,728462784,base_link,516000.0,258999.99999999994,-504000.00000000006,-1.0,0.0,0.0,0.0,0.0,0.0,0.0,0.0,0.0
1737285460.8285341,12877,1737285460,827405944,base_link,507000.0,239999.99999999994,-524000.00000000006,-1.0,0.0,0.0,0.0,0.0,0.0,0.0,0.0,0.0
1737285460.931508,12878,1737285460,929707104,base_link,502000.0,235999.99999999994,-557000.0,-1.0,0.0,0.0,0.0,0.0,0.0,0.0,0.0,0.0
1737285461.0371192,12879,1737285461,35849168,base_link,503000.0,262999.99999999994,-523000.00000000006,-1.0,0.0,0.0,0.0,0.0,0.0,0.0,0.0,0.0
1737285461.1363966,12880,1737285461,135395744,base_link,492000.0,241999.99999999994,-559000.0,-1.0,0.0,0.0,0.0,0.0,0.0,0.0,0.0,0.0
1737285461.238122,12881,1737285461,237236112,base_link,501000.0,234999.99999999994,-565000.0,-1.0,0.0,0.0,0.0,0.0,0.0,0.0,0.0,0.0
1737285461.3369653,12882,1737285461,336099248,base_link,501000.0,245999.99999999994,-557000.0,-1.0,0.0,0.0,0.0,0.0,0.0,0.0,0.0,0.0
1737285461.4332192,12883,1737285461,431800336,base_link,505000.0,253999.99999999994,-561000.0,-1.0,0.0,0.0,0.0,0.0,0.0,0.0,0.0,0.0
1737285461.5342426,12884,1737285461,533082704,base_link,496000.0,235999.99999999994,-526000.0,-1.0,0.0,0.0,0.0,0.0,0.0,0.0,0.0,0.0
1737285461.63394,12885,1737285461,629572144,base_link,519000.0,251999.99999999994,-547000.0,-1.0,0.0,0.0,0.0,0.0,0.0,0.0,0.0,0.0
1737285461.7317228,12886,1737285461,729435560,base_link,510000.0,234999.99999999994,-538000.0,-1.0,0.0,0.0,0.0,0.0,0.0,0.0,0.0,0.0
1737285461.8305175,12887,1737285461,828803720,base_link,507000.0,267999.99999999994,-512000.00000000006,-1.0,0.0,0.0,0.0,0.0,0.0,0.0,0.0,0.0
1737285461.9317749,12888,1737285461,930238296,base_link,498000.0,247999.99999999994,-533000.0,-1.0,0.0,0.0,0.0,0.0,0.0,0.0,0.0,0.0
1737285462.0313406,12889,1737285462,29166152,base_link,489000.0,241999.99999999994,-548000.0,-1.0,0.0,0.0,0.0,0.0,0.0,0.0,0.0,0.0
1737285462.130238,12890,1737285462,128351544,base_link,466000.0,234999.99999999994,-564000.0,-1.0,0.0,0.0,0.0,0.0,0.0,0.0,0.0,0.0
1737285462.2316408,12891,1737285462,229821936,base_link,478000.0,240999.99999999994,-578000.0,-1.0,0.0,0.0,0.0,0.0,0.0,0.0,0.0,0.0
1737285462.330456,12892,1737285462,326532536,base_link,492000.0,246999.99999999994,-561000.0,-1.0,0.0,0.0,0.0,0.0,0.0,0.0,0.0,0.0
1737285462.4321094,12893,1737285462,430522976,base_link,474000.0,239999.99999999994,-534000.0,-1.0,0.0,0.0,0.0,0.0,0.0,0.0,0.0,0.0
1737285462.5324118,12894,1737285462,530324136,base_link,498000.0,252999.99999999994,-579000.0,-1.0,0.0,0.0,0.0,0.0,0.0,0.0,0.0,0.0
1737285462.634047,12895,1737285462,629034552,base_link,508000.0,226999.99999999994,-582000.0,-1.0,0.0,0.0,0.0,0.0,0.0,0.0,0.0,0.0
1737285462.7305565,12896,1737285462,728339688,base_link,495000.0,238999.99999999994,-556000.0,-1.0,0.0,0.0,0.0,0.0,0.0,0.0,0.0,0.0
1737285462.830897,12897,1737285462,829375688,base_link,501000.0,243999.99999999994,-553000.0,-1.0,0.0,0.0,0.0,0.0,0.0,0.0,0.0,0.0
1737285462.930996,12898,1737285462,929237424,base_link,514000.0,239999.99999999994,-594000.0,-1.0,0.0,0.0,0.0,0.0,0.0,0.0,0.0,0.0
1737285463.0298803,12899,1737285463,27975256,base_link,508000.0,236999.99999999994,-559000.0,-1.0,0.0,0.0,0.0,0.0,0.0,0.0,0.0,0.0
1737285463.1340847,12900,1737285463,127363904,base_link,461000.0,246999.99999999994,-549000.0,-1.0,0.0,0.0,0.0,0.0,0.0,0.0,0.0,0.0
1737285463.2313013,12901,1737285463,229143272,base_link,465000.0,232999.99999999994,-590000.0,-1.0,0.0,0.0,0.0,0.0,0.0,0.0,0.0,0.0
1737285463.3319561,12902,1737285463,330770592,base_link,464000.0,225999.99999999994,-577000.0,-1.0,0.0,0.0,0.0,0.0,0.0,0.0,0.0,0.0
1737285463.4330726,12903,1737285463,430129960,base_link,477000.0,246999.99999999994,-572000.0,-1.0,0.0,0.0,0.0,0.0,0.0,0.0,0.0,0.0
1737285463.5306108,12904,1737285463,529348776,base_link,477000.0,246999.99999999994,-572000.0,-1.0,0.0,0.0,0.0,0.0,0.0,0.0,0.0,0.0
1737285463.6333137,12905,1737285463,628468168,base_link,476000.0,244999.99999999994,-566000.0,-1.0,0.0,0.0,0.0,0.0,0.0,0.0,0.0,0.0
1737285463.7326207,12906,1737285463,730020072,base_link,443000.0,230999.99999999994,-565000.0,-1.0,0.0,0.0,0.0,0.0,0.0,0.0,0.0,0.0
1737285463.8314333,12907,1737285463,829040488,base_link,451000.0,240999.99999999994,-590000.0,-1.0,0.0,0.0,0.0,0.0,0.0,0.0,0.0,0.0
1737285463.9304452,12908,1737285463,928473880,base_link,467000.0,238999.9999999999,-604000.0,-1.0,0.0,0.0,0.0,0.0,0.0,0.0,0.0,0.0
1737285464.0309353,12909,1737285464,29645528,base_link,442000.0,222999.9999999999,-597000.0,-1.0,0.0,0.0,0.0,0.0,0.0,0.0,0.0,0.0
1737285464.1367822,12910,1737285464,130040456,base_link,447000.0,242999.99999999994,-575000.0,-1.0,0.0,0.0,0.0,0.0,0.0,0.0,0.0,0.0
1737285464.2302763,12911,1737285464,228396104,base_link,442000.0,246999.99999999994,-583000.0,-1.0,0.0,0.0,0.0,0.0,0.0,0.0,0.0,0.0
1737285464.3306043,12912,1737285464,330026144,base_link,466000.0,246999.9999999999,-618000.0,-1.0,0.0,0.0,0.0,0.0,0.0,0.0,0.0,0.0
1737285464.4279802,12913,1737285464,426712768,base_link,445000.0,243999.99999999994,-590000.0,-1.0,0.0,0.0,0.0,0.0,0.0,0.0,0.0,0.0
1737285464.5296226,12914,1737285464,528625184,base_link,423000.0,243999.99999999994,-584000.0,-1.0,0.0,0.0,0.0,0.0,0.0,0.0,0.0,0.0
1737285464.6323395,12915,1737285464,630168920,base_link,423000.0,233999.9999999999,-603000.0,-1.0,0.0,0.0,0.0,0.0,0.0,0.0,0.0,0.0
1737285464.7321172,12916,1737285464,730087896,base_link,409000.0,231999.99999999994,-583000.0,-1.0,0.0,0.0,0.0,0.0,0.0,0.0,0.0,0.0
1737285464.8305893,12917,1737285464,829001544,base_link,453000.0,233999.9999999999,-651000.0,-1.0,0.0,0.0,0.0,0.0,0.0,0.0,0.0,0.0
1737285464.92988,12918,1737285464,928465632,base_link,445000.0,233999.9999999999,-632000.0,-1.0,0.0,0.0,0.0,0.0,0.0,0.0,0.0,0.0
1737285465.0307899,12919,1737285465,29969976,base_link,437000.0,245999.9999999999,-605000.0,-1.0,0.0,0.0,0.0,0.0,0.0,0.0,0.0,0.0
1737285465.13384,12920,1737285465,129418112,base_link,421000.0,233999.99999999994,-565000.0,-1.0,0.0,0.0,0.0,0.0,0.0,0.0,0.0,0.0
1737285465.2299857,12921,1737285465,228463784,base_link,425000.0,229999.9999999999,-611000.0,-1.0,0.0,0.0,0.0,0.0,0.0,0.0,0.0,0.0
1737285465.3299928,12922,1737285465,328421664,base_link,418000.0,245999.9999999999,-605000.0,-1.0,0.0,0.0,0.0,0.0,0.0,0.0,0.0,0.0
1737285465.4306917,12923,1737285465,429838008,base_link,445000.0,237999.9999999999,-630000.0,-1.0,0.0,0.0,0.0,0.0,0.0,0.0,0.0,0.0
1737285465.528017,12924,1737285465,526624656,base_link,453000.0,238999.99999999994,-584000.0,-1.0,0.0,0.0,0.0,0.0,0.0,0.0,0.0,0.0
1737285465.629799,12925,1737285465,628415208,base_link,501000.0,246999.99999999994,-552000.0,-1.0,0.0,0.0,0.0,0.0,0.0,0.0,0.0,0.0
1737285465.731466,12926,1737285465,729974112,base_link,509000.0,226999.99999999994,-558000.0,-1.0,0.0,0.0,0.0,0.0,0.0,0.0,0.0,0.0
1737285465.8299801,12927,1737285465,829036736,base_link,474000.0,231999.99999999994,-560000.0,-1.0,0.0,0.0,0.0,0.0,0.0,0.0,0.0,0.0
1737285465.9312696,12928,1737285465,930161336,base_link,511000.0,240999.99999999994,-547000.0,-1.0,0.0,0.0,0.0,0.0,0.0,0.0,0.0,0.0
1737285466.0312827,12929,1737285466,29186496,base_link,505000.0,239999.99999999994,-585000.0,-1.0,0.0,0.0,0.0,0.0,0.0,0.0,0.0,0.0
1737285466.1355069,12930,1737285466,131627376,base_link,475000.0,246999.99999999994,-571000.0,-1.0,0.0,0.0,0.0,0.0,0.0,0.0,0.0,0.0
1737285466.2320316,12931,1737285466,231093488,base_link,491000.0,242999.99999999994,-535000.0,-1.0,0.0,0.0,0.0,0.0,0.0,0.0,0.0,0.0
1737285466.3309333,12932,1737285466,330058880,base_link,491000.0,245999.99999999994,-572000.0,-1.0,0.0,0.0,0.0,0.0,0.0,0.0,0.0,0.0
1737285466.4350991,12933,1737285466,434190760,base_link,507000.0,238999.99999999994,-590000.0,-1.0,0.0,0.0,0.0,0.0,0.0,0.0,0.0,0.0
1737285466.527073,12934,1737285466,526371824,base_link,502000.0,247999.99999999994,-551000.0,-1.0,0.0,0.0,0.0,0.0,0.0,0.0,0.0,0.0
1737285466.638734,12935,1737285466,636911192,base_link,519000.0,268999.99999999994,-535000.0,-1.0,0.0,0.0,0.0,0.0,0.0,0.0,0.0,0.0
1737285466.7381492,12936,1737285466,736762656,base_link,502000.0,241999.99999999994,-519000.00000000006,-1.0,0.0,0.0,0.0,0.0,0.0,0.0,0.0,0.0
1737285466.8298445,12937,1737285466,828882536,base_link,526000.0,227999.99999999994,-521000.0,-1.0,0.0,0.0,0.0,0.0,0.0,0.0,0.0,0.0
1737285466.9301174,12938,1737285466,928546928,base_link,522000.0,244999.99999999994,-538000.0,-1.0,0.0,0.0,0.0,0.0,0.0,0.0,0.0,0.0
1737285467.0281944,12939,1737285467,27336576,base_link,520000.0,240999.99999999994,-552000.0,-1.0,0.0,0.0,0.0,0.0,0.0,0.0,0.0,0.0
1737285467.1347086,12940,1737285467,129492360,base_link,524000.0,235999.99999999994,-560000.0,-1.0,0.0,0.0,0.0,0.0,0.0,0.0,0.0,0.0
1737285467.2322435,12941,1737285467,230476984,base_link,509000.0,259999.99999999994,-565000.0,-1.0,0.0,0.0,0.0,0.0,0.0,0.0,0.0,0.0
1737285467.3283873,12942,1737285467,327095536,base_link,509000.0,243999.99999999994,-550000.0,-1.0,0.0,0.0,0.0,0.0,0.0,0.0,0.0,0.0
1737285467.4301195,12943,1737285467,428352440,base_link,499000.0,251999.99999999994,-522000.00000000006,-1.0,0.0,0.0,0.0,0.0,0.0,0.0,0.0,0.0
1737285467.531178,12944,1737285467,530026040,base_link,491000.0,225999.99999999994,-583000.0,-1.0,0.0,0.0,0.0,0.0,0.0,0.0,0.0,0.0
1737285467.6310692,12945,1737285467,628886408,base_link,500000.0,247999.99999999994,-557000.0,-1.0,0.0,0.0,0.0,0.0,0.0,0.0,0.0,0.0
1737285467.7299836,12946,1737285467,728895312,base_link,521000.0,234999.99999999994,-568000.0,-1.0,0.0,0.0,0.0,0.0,0.0,0.0,0.0,0.0
1737285467.8324633,12947,1737285467,827925560,base_link,491000.0,227999.99999999994,-550000.0,-1.0,0.0,0.0,0.0,0.0,0.0,0.0,0.0,0.0
1737285467.9339666,12948,1737285467,932450344,base_link,486000.0,238999.99999999994,-578000.0,-1.0,0.0,0.0,0.0,0.0,0.0,0.0,0.0,0.0
1737285468.0322676,12949,1737285468,28753824,base_link,492000.0,235999.99999999994,-578000.0,-1.0,0.0,0.0,0.0,0.0,0.0,0.0,0.0,0.0
1737285468.134655,12950,1737285468,128206376,base_link,520000.0,253999.99999999994,-567000.0,-1.0,0.0,0.0,0.0,0.0,0.0,0.0,0.0,0.0
1737285468.2312524,12951,1737285468,230260696,base_link,514000.0,238999.99999999994,-552000.0,-1.0,0.0,0.0,0.0,0.0,0.0,0.0,0.0,0.0
1737285468.330268,12952,1737285468,329252624,base_link,484000.0,236999.99999999994,-580000.0,-1.0,0.0,0.0,0.0,0.0,0.0,0.0,0.0,0.0
1737285468.4281507,12953,1737285468,425972032,base_link,504000.0,211999.99999999994,-568000.0,-1.0,0.0,0.0,0.0,0.0,0.0,0.0,0.0,0.0
1737285468.5310967,12954,1737285468,529833008,base_link,501000.0,244999.99999999994,-539000.0,-1.0,0.0,0.0,0.0,0.0,0.0,0.0,0.0,0.0
1737285468.6305404,12955,1737285468,629052400,base_link,504000.0,250999.99999999994,-580000.0,-1.0,0.0,0.0,0.0,0.0,0.0,0.0,0.0,0.0
1737285468.7303703,12956,1737285468,728685768,base_link,480000.0,236999.99999999994,-528000.0,-1.0,0.0,0.0,0.0,0.0,0.0,0.0,0.0,0.0
1737285468.8314817,12957,1737285468,829998904,base_link,506000.0,225999.99999999994,-564000.0,-1.0,0.0,0.0,0.0,0.0,0.0,0.0,0.0,0.0
1737285468.9303167,12958,1737285468,929421088,base_link,506000.0,225999.99999999994,-564000.0,-1.0,0.0,0.0,0.0,0.0,0.0,0.0,0.0,0.0
1737285469.032751,12959,1737285469,30826152,base_link,505000.0,242999.99999999994,-568000.0,-1.0,0.0,0.0,0.0,0.0,0.0,0.0,0.0,0.0
1737285469.131346,12960,1737285469,129917776,base_link,502000.0,234999.99999999994,-555000.0,-1.0,0.0,0.0,0.0,0.0,0.0,0.0,0.0,0.0
1737285469.2305598,12961,1737285469,229114400,base_link,477000.0,247999.99999999994,-557000.0,-1.0,0.0,0.0,0.0,0.0,0.0,0.0,0.0,0.0
1737285469.327859,12962,1737285469,326404976,base_link,474000.0,233999.99999999994,-582000.0,-1.0,0.0,0.0,0.0,0.0,0.0,0.0,0.0,0.0
1737285469.431094,12963,1737285469,430585320,base_link,467000.0,217999.99999999994,-592000.0,-1.0,0.0,0.0,0.0,0.0,0.0,0.0,0.0,0.0
1737285469.5305896,12964,1737285469,529716408,base_link,477000.0,261999.99999999994,-561000.0,-1.0,0.0,0.0,0.0,0.0,0.0,0.0,0.0,0.0
1737285469.6307616,12965,1737285469,628634288,base_link,478000.0,230999.99999999994,-571000.0,-1.0,0.0,0.0,0.0,0.0,0.0,0.0,0.0,0.0
1737285469.729078,12966,1737285469,728395888,base_link,464000.0,250999.99999999994,-557000.0,-1.0,0.0,0.0,0.0,0.0,0.0,0.0,0.0,0.0
1737285469.8314867,12967,1737285469,829918512,base_link,451000.0,230999.99999999994,-573000.0,-1.0,0.0,0.0,0.0,0.0,0.0,0.0,0.0,0.0
1737285469.9333746,12968,1737285469,931892744,base_link,471000.0,226999.99999999994,-592000.0,-1.0,0.0,0.0,0.0,0.0,0.0,0.0,0.0,0.0
1737285470.0324621,12969,1737285470,30821184,base_link,438000.0,232999.99999999994,-562000.0,-1.0,0.0,0.0,0.0,0.0,0.0,0.0,0.0,0.0
1737285470.1275938,12970,1737285470,126065064,base_link,456000.0,243999.9999999999,-614000.0,-1.0,0.0,0.0,0.0,0.0,0.0,0.0,0.0,0.0
1737285470.2313464,12971,1737285470,230553896,base_link,465000.0,233999.9999999999,-605000.0,-1.0,0.0,0.0,0.0,0.0,0.0,0.0,0.0,0.0
1737285470.3318985,12972,1737285470,330137336,base_link,459000.0,226999.99999999994,-576000.0,-1.0,0.0,0.0,0.0,0.0,0.0,0.0,0.0,0.0
1737285470.4307806,12973,1737285470,429749936,base_link,433000.0,245999.9999999999,-601000.0,-1.0,0.0,0.0,0.0,0.0,0.0,0.0,0.0,0.0
1737285470.5277905,12974,1737285470,526879352,base_link,468000.0,256999.99999999994,-585000.0,-1.0,0.0,0.0,0.0,0.0,0.0,0.0,0.0,0.0
1737285470.6286411,12975,1737285470,627947512,base_link,445000.0,244999.99999999994,-572000.0,-1.0,0.0,0.0,0.0,0.0,0.0,0.0,0.0,0.0
1737285470.7284627,12976,1737285470,727693392,base_link,454000.0,228999.9999999999,-619000.0,-1.0,0.0,0.0,0.0,0.0,0.0,0.0,0.0,0.0
1737285470.8305712,12977,1737285470,829071064,base_link,451000.0,237999.9999999999,-616000.0,-1.0,0.0,0.0,0.0,0.0,0.0,0.0,0.0,0.0
1737285470.9297621,12978,1737285470,928659920,base_link,460000.0,245999.99999999994,-581000.0,-1.0,0.0,0.0,0.0,0.0,0.0,0.0,0.0,0.0
1737285471.029447,12979,1737285471,27917520,base_link,438000.0,236999.99999999994,-567000.0,-1.0,0.0,0.0,0.0,0.0,0.0,0.0,0.0,0.0
1737285471.137706,12980,1737285471,129920168,base_link,447000.0,240999.99999999994,-589000.0,-1.0,0.0,0.0,0.0,0.0,0.0,0.0,0.0,0.0
1737285471.2310963,12981,1737285471,229084304,base_link,483000.0,242999.99999999994,-571000.0,-1.0,0.0,0.0,0.0,0.0,0.0,0.0,0.0,0.0
1737285471.3300624,12982,1737285471,328791368,base_link,482000.0,230999.99999999994,-571000.0,-1.0,0.0,0.0,0.0,0.0,0.0,0.0,0.0,0.0
1737285471.4290805,12983,1737285471,428068968,base_link,479000.0,260999.99999999994,-527000.0,-1.0,0.0,0.0,0.0,0.0,0.0,0.0,0.0,0.0
1737285471.5388498,12984,1737285471,537243104,base_link,484000.0,257999.99999999994,-526000.0,-1.0,0.0,0.0,0.0,0.0,0.0,0.0,0.0,0.0
1737285471.638088,12985,1737285471,636533984,base_link,494000.0,238999.99999999994,-551000.0,-1.0,0.0,0.0,0.0,0.0,0.0,0.0,0.0,0.0
1737285471.729812,12986,1737285471,728511400,base_link,506000.0,238999.99999999994,-571000.0,-1.0,0.0,0.0,0.0,0.0,0.0,0.0,0.0,0.0
1737285471.8313217,12987,1737285471,829766584,base_link,494000.0,239999.99999999994,-546000.0,-1.0,0.0,0.0,0.0,0.0,0.0,0.0,0.0,0.0
1737285471.9310572,12988,1737285471,929306744,base_link,489000.0,250999.99999999994,-550000.0,-1.0,0.0,0.0,0.0,0.0,0.0,0.0,0.0,0.0
1737285472.0273116,12989,1737285472,25819856,base_link,482000.0,249999.99999999994,-546000.0,-1.0,0.0,0.0,0.0,0.0,0.0,0.0,0.0,0.0
1737285472.127265,12990,1737285472,125766688,base_link,496000.0,253999.99999999994,-531000.0,-1.0,0.0,0.0,0.0,0.0,0.0,0.0,0.0,0.0
1737285472.2307408,12991,1737285472,229561872,base_link,502000.0,239999.99999999994,-582000.0,-1.0,0.0,0.0,0.0,0.0,0.0,0.0,0.0,0.0
1737285472.3302684,12992,1737285472,328578520,base_link,496000.0,231999.99999999994,-544000.0,-1.0,0.0,0.0,0.0,0.0,0.0,0.0,0.0,0.0
1737285472.4321334,12993,1737285472,430092400,base_link,523000.0,253999.99999999994,-499000.00000000006,-1.0,0.0,0.0,0.0,0.0,0.0,0.0,0.0,0.0
1737285472.5308666,12994,1737285472,529147536,base_link,531000.0,238999.99999999994,-529000.0,-1.0,0.0,0.0,0.0,0.0,0.0,0.0,0.0,0.0
1737285472.6296484,12995,1737285472,628235160,base_link,522000.0,246999.99999999994,-502000.00000000006,-1.0,0.0,0.0,0.0,0.0,0.0,0.0,0.0,0.0
1737285472.7315342,12996,1737285472,729541504,base_link,547000.0,252999.99999999994,-547000.0,-1.0,0.0,0.0,0.0,0.0,0.0,0.0,0.0,0.0
1737285472.8323355,12997,1737285472,828639128,base_link,518000.0,245999.99999999994,-513000.00000000006,-1.0,0.0,0.0,0.0,0.0,0.0,0.0,0.0,0.0
1737285472.9290593,12998,1737285472,927836920,base_link,525000.0,237999.99999999994,-543000.0,-1.0,0.0,0.0,0.0,0.0,0.0,0.0,0.0,0.0
1737285473.0300193,12999,1737285473,28828936,base_link,487000.0,243999.99999999994,-503000.00000000006,-1.0,0.0,0.0,0.0,0.0,0.0,0.0,0.0,0.0
1737285473.134226,13000,1737285473,128601936,base_link,502000.0,245999.99999999994,-554000.0,-1.0,0.0,0.0,0.0,0.0,0.0,0.0,0.0,0.0
1737285473.230008,13001,1737285473,225735936,base_link,485000.0,242999.99999999994,-562000.0,-1.0,0.0,0.0,0.0,0.0,0.0,0.0,0.0,0.0
1737285473.3306801,13002,1737285473,329783672,base_link,470000.0,245999.9999999999,-596000.0,-1.0,0.0,0.0,0.0,0.0,0.0,0.0,0.0,0.0
1737285473.4305336,13003,1737285473,428552904,base_link,462000.0,235999.99999999994,-583000.0,-1.0,0.0,0.0,0.0,0.0,0.0,0.0,0.0,0.0
1737285473.5298297,13004,1737285473,528036504,base_link,470000.0,245999.99999999994,-558000.0,-1.0,0.0,0.0,0.0,0.0,0.0,0.0,0.0,0.0
1737285473.6333473,13005,1737285473,629588664,base_link,471000.0,232999.99999999994,-567000.0,-1.0,0.0,0.0,0.0,0.0,0.0,0.0,0.0,0.0
1737285473.7298787,13006,1737285473,728747496,base_link,481000.0,247999.99999999994,-567000.0,-1.0,0.0,0.0,0.0,0.0,0.0,0.0,0.0,0.0
1737285473.8308706,13007,1737285473,828413560,base_link,469000.0,234999.99999999994,-546000.0,-1.0,0.0,0.0,0.0,0.0,0.0,0.0,0.0,0.0
1737285473.9333475,13008,1737285473,930203488,base_link,463000.0,244999.99999999994,-560000.0,-1.0,0.0,0.0,0.0,0.0,0.0,0.0,0.0,0.0
1737285474.0298278,13009,1737285474,28568600,base_link,463000.0,244999.99999999994,-560000.0,-1.0,0.0,0.0,0.0,0.0,0.0,0.0,0.0,0.0
1737285474.1332304,13010,1737285474,127956128,base_link,466000.0,247999.99999999994,-578000.0,-1.0,0.0,0.0,0.0,0.0,0.0,0.0,0.0,0.0
1737285474.2315505,13011,1737285474,229477008,base_link,471000.0,248999.99999999994,-585000.0,-1.0,0.0,0.0,0.0,0.0,0.0,0.0,0.0,0.0
1737285474.33056,13012,1737285474,328845352,base_link,476000.0,245999.99999999994,-581000.0,-1.0,0.0,0.0,0.0,0.0,0.0,0.0,0.0,0.0
