Time,header.seq,header.stamp.secs,header.stamp.nsecs,header.frame_id,twist.linear.x,twist.linear.y,twist.linear.z,twist.angular.x,twist.angular.y,twist.angular.z
1737285429.13835,12559,1737285429,136797888,base_link,-0.060108892673024515,-0.08923752091927778,0.1124299792521857,-0.05721405893564224,0.1821805387735367,0.24137163162231443
1737285429.2384238,12560,1737285429,234794816,base_link,-0.0557013659946364,-0.08076104055566194,0.044869997667441756,0.030427470803260803,-0.3131485879421234,-0.04682630673050876
1737285429.3464987,12561,1737285429,343791232,base_link,-0.0710856851330577,-0.07691229997290262,0.00812592847690715,0.0636293813586235,-0.05477158725261691,-0.2473262995481491
1737285429.4469073,12562,1737285429,444787392,base_link,-0.05013400552909839,-0.10266030753747107,0.03755591806737356,-0.344389945268631,0.2770053446292877,0.12888137996196744
1737285429.5452085,12563,1737285429,543784832,base_link,-0.05864133203541716,-0.07282364518506139,0.07593361488096727,-0.22164225578308105,0.29271888732910156,-0.05729143321514133
1737285429.6473887,12564,1737285429,644780992,base_link,-0.0635332236742233,-0.07895694793228564,0.11790171734869981,0.029095754027366638,-0.14816090464591983,-0.18000769615173337
1737285429.7434604,12565,1737285429,740775872,base_link,-0.07671942068117421,-0.060008427013954126,0.05523585030638314,0.029302947223186493,-0.2846961915493012,-0.36254078149795527
1737285429.8476105,12566,1737285429,845769216,base_link,-0.0660898343327904,-0.05615778233900487,-0.002795313059681513,-0.15588508546352386,0.057432260364294004,-0.42435434460639954
1737285429.9480364,12567,1737285429,945764352,base_link,-0.05052686572751118,-0.11673841533164091,0.009445034186348556,-0.033678002655506134,-0.0638051927089692,-0.6718077063560486
1737285430.046768,12568,1737285430,45755648,base_link,-0.05622480376573656,-0.09544598359104751,-0.028157295328763883,0.27869197726249695,0.0007506320253013556,-0.8235774040222168
1737285430.1482913,12569,1737285430,143748736,base_link,-0.06551655646218003,-0.0382990728994292,-0.0371384629356047,0.16262798011302948,-0.17790463566780096,-0.46414685249328613
1737285430.2438226,12570,1737285430,242745920,base_link,-0.07703091740554645,-0.07176354498040335,0.05911161821072473,-0.010022284463047981,0.01471467595547436,-0.1390482783317566
1737285430.342735,12571,1737285430,340740288,base_link,-0.07246356958754312,-0.029855586568758207,-0.002239969729040977,-0.27852773666381836,0.2005244642496109,0.07437153905630109
1737285430.4439805,12572,1737285430,442734656,base_link,-0.08321735887825826,-0.04728638457784398,0.11934858000006211,-0.15746022760868073,0.09925947338342667,0.0031763608567416547
1737285430.5421002,12573,1737285430,540730304,base_link,-0.08135765927456655,-0.035979683686131,0.10487151032273465,0.1580066829919815,-0.12289245426654813,0.18210969865322116
1737285430.639144,12574,1737285430,636726208,base_link,-0.08713440685732812,-0.035232750396700846,0.03919749300474858,0.15618692338466644,-0.3223138451576233,0.07150612026453022
1737285430.73782,12575,1737285430,735722112,base_link,-0.08609658950430649,-0.041164569799652016,0.101115077578243,-0.18018455803394318,-0.1154050827026367,0.09356363862752916
1737285430.8379326,12576,1737285430,836717504,base_link,-0.08488803683072897,-0.03300748474196098,0.0970917509375861,-0.288028359413147,0.28791624307632446,0.04355176910758015
1737285430.943048,12577,1737285430,940710592,base_link,-0.0916288900196995,-0.027044782083779192,0.02603886907852784,0.13527660071849823,-0.28961339592933655,-0.13919918239116666
1737285431.039011,12578,1737285431,36706496,base_link,-0.08100532436050999,-0.06585438310094066,0.12649461509626175,-0.2624996304512024,0.4432123303413391,-0.042896959930658396
1737285431.141536,12579,1737285431,138693952,base_link,-0.06931315786055871,-0.07201136911554769,0.08002636672734455,-0.38099801540374756,0.18503925204277039,-0.030220581218600297
1737285431.237121,12580,1737285431,234688832,base_link,-0.07312617246800446,-0.05543371580215457,0.01985708555532963,0.10040797293186188,0.04184629395604134,0.045389879494905465
1737285431.3380115,12581,1737285431,336681152,base_link,-0.0671613408124522,-0.034713336979541674,-0.02829155482475995,0.22088803350925446,-0.2551948130130768,-0.03428515419363972
1737285431.439456,12582,1737285431,437673984,base_link,-0.05991008519965542,-0.03881272597722361,-0.004996844613581178,0.2069820612668991,-0.24322690069675446,-0.06022319570183751
1737285431.539354,12583,1737285431,536670144,base_link,-0.052228292540828336,-0.08887686803015628,0.04945235555683388,0.27366626262664795,-0.07882478088140486,0.1261233389377594
1737285431.6372306,12584,1737285431,634666560,base_link,-0.05918229195701373,-0.052006011150334125,0.04858004489756144,-0.3894359767436981,0.17745733261108398,-0.010266241617500805
1737285431.7410688,12585,1737285431,739659904,base_link,-0.04813410375224906,-0.0893398302526832,0.08422562915281363,-0.23647300899028778,0.3133385479450226,-0.015456790104508438
1737285431.839408,12586,1737285431,837655040,base_link,-0.05978557958841523,-0.07240429207125892,0.01844066602453853,0.13867852091789246,-0.45663660764694214,-0.11459760367870325
1737285431.939959,12587,1737285431,938643776,base_link,-0.06518621824110635,-0.05962494416717341,-0.0372684556359751,0.11616192758083344,-0.43190640211105347,-0.16829906404018397
1737285432.037126,12588,1737285432,35638912,base_link,-0.0765830457406164,-0.08329646971534402,0.005889465964819097,-0.02602975070476532,0.27276214957237244,-0.17216368019580844
1737285432.1400516,12589,1737285432,138636352,base_link,-0.06656262321120102,-0.09068718896820192,0.0497514409526169,-0.03256518021225929,0.11649283766746521,-0.04285170137882234
1737285432.2370892,12590,1737285432,235632512,base_link,-0.07532029718299278,-0.0991852135809547,0.004970164277283571,0.41311728954315186,-0.41342073678970337,-0.14403696358203882
1737285432.3381968,12591,1737285432,336625856,base_link,-0.0767440434211705,-0.06399820093179624,-0.05701480663137337,0.09418153017759323,-0.026455992832779864,0.16856417059898376
1737285432.4390213,12592,1737285432,437620736,base_link,-0.0728058220679914,-0.09135299615267223,-0.022363813934653646,-0.08677057921886444,-0.0038229553028941102,0.04179031029343605
1737285432.539099,12593,1737285432,537620736,base_link,-0.06743719729965506,-0.07453790580571572,0.0014035967343081538,-0.2034214735031128,0.09869980812072753,-0.05923690646886827
1737285432.6421103,12594,1737285432,640617408,base_link,-0.0697928171913,-0.06828298979355484,-0.055253145431817835,-0.20999151468276978,0.12108108401298522,-0.07516493648290636
1737285432.738408,12595,1737285432,736612800,base_link,-0.058648162311094244,-0.09148693458254492,0.036703911264843396,-0.12767481803894043,0.14183270931243896,0.06698139011859892
1737285432.8403194,12596,1737285432,838609728,base_link,-0.05553760670593647,-0.06509798564754239,0.013706001413571579,-0.032748736441135406,-0.07086391001939775,-0.12301082164049147
1737285432.9414196,12597,1737285432,939605632,base_link,-0.05840513518452043,-0.09230301229942214,0.07662264210744209,0.28185614943504333,-0.13496100902557373,0.08088961243629457
1737285433.042416,12598,1737285433,40601536,base_link,-0.0657973940279179,-0.08761692736266383,0.0701144072666553,0.37567058205604553,-0.5061706900596619,-0.0790428146719932
1737285433.1374269,12599,1737285433,135594880,base_link,-0.055034547393159196,-0.09284661918236449,0.03288354563616603,0.14324864745140076,0.07191342115402224,0.17352983355522156
1737285433.238311,12600,1737285433,236589504,base_link,-0.05437287275975143,-0.08066481947303483,-0.0024063083032910895,-0.14162518084049225,0.06303440034389496,-0.040925387293100364
1737285433.3402085,12601,1737285433,338588736,base_link,-0.05351515460994758,-0.05594712900623396,0.028373081595503336,0.06280870735645294,0.012259511277079551,-0.25691255927085876
1737285433.4382193,12602,1737285433,436582080,base_link,-0.057129769948979024,-0.08357801734268445,-0.01672051695329135,0.12979595363140106,-0.13811083137989041,0.1202540546655655
1737285433.5403745,12603,1737285433,538578240,base_link,-0.06684165181549254,-0.04222150205300348,-0.028513583471589048,0.2763698399066925,-0.44585976004600525,-0.1682161390781402
1737285433.63838,12604,1737285433,636570048,base_link,-0.07064212186228712,-0.05217695208115838,-0.031385353425770625,-0.07839352637529373,-0.1559818983078003,-0.02197771705687044
1737285433.7395375,12605,1737285433,738567232,base_link,-0.0747527388989891,-0.057164029433218855,-0.012937044912169484,-0.004773733206093311,0.07907359302043916,0.08124396950006484
1737285433.8363228,12606,1737285433,834563904,base_link,-0.07714998602147989,-0.035605609175811445,0.020888851737558195,-0.1372448056936264,0.06227146089076993,-0.2318025380373001
1737285433.9374216,12607,1737285433,935560576,base_link,-0.08001109783855745,-0.05458473263267441,0.0327664173959383,-0.09518938511610031,0.35642126202583313,0.005108299665152983
1737285434.0384715,12608,1737285434,37557248,base_link,-0.07228075436602883,-0.0197664318681162,0.015690801322534878,0.06142634153366089,0.07200713455677031,-0.12793928384780884
1737285434.1413236,12609,1737285434,139556224,base_link,-0.07370757673039403,-0.047185736699573065,0.04444007924125181,-0.1432606279850006,0.40649399161338806,0.18483985960483545
1737285434.2395434,12610,1737285434,238552128,base_link,-0.09658747221494186,-0.02558495874355875,0.04950917335122964,0.06823243200778961,-0.024239193648099913,-0.1178678497672081
1737285434.3393867,12611,1737285434,337547520,base_link,-0.0903275507691683,-0.010140001254960253,0.028117206095130874,0.06732936203479767,-0.2728535830974579,-0.13894489407539365
1737285434.437442,12612,1737285434,436544192,base_link,-0.09196314981353401,-0.018904642974483046,0.0521049015066268,-0.19643692672252655,0.35658302903175354,0.19586978852748865
1737285434.5373728,12613,1737285434,535536768,base_link,-0.10236308491832204,-0.009203640043126229,0.015902102898876655,0.03682008385658264,0.11123335361480712,-0.06509703397750856
1737285434.6385553,12614,1737285434,636532416,base_link,-0.09877346293966552,-0.006942247165836314,-0.055933821180978865,0.1638185679912567,-0.16620962321758267,0.1569100469350815
1737285434.7396297,12615,1737285434,738529088,base_link,-0.10432205029829457,0.008946317769252433,-0.036663468387964006,0.309020459651947,-0.37405142188072205,-0.06643827259540554
1737285434.8385496,12616,1737285434,836521920,base_link,-0.10005844896263541,-0.0043871719548916836,-0.0068007045048775,-0.008208801038563251,0.09358885139226916,0.1940413862466812
1737285434.9398925,12617,1737285434,937518080,base_link,-0.10145065369944421,0.004910414640711426,-0.0015791932932289526,-0.08759909868240356,0.18288081884384158,0.17235271632671353
1737285435.0388358,12618,1737285435,36512704,base_link,-0.09542157638549265,0.007509632185196622,0.040782961163239394,-0.1960088312625885,-0.034378010779619245,-0.2019592672586441
1737285435.1405067,12619,1737285435,139508864,base_link,-0.0941260697494812,-0.007471811020274348,0.08091670615984249,-0.12271683663129807,0.2149566113948822,-0.06930293142795566
1737285435.238771,12620,1737285435,237504768,base_link,-0.09440850045364754,0.013573414134738601,-0.03764101472239103,-0.07518262416124344,-0.2894519567489624,-0.13533273339271543
1737285435.3375733,12621,1737285435,336500160,base_link,-0.08856119792281603,-0.0055684961806378355,0.06884610711227712,-0.22840966284275055,0.33482277393341064,-0.0679101794958115
1737285435.4419162,12622,1737285435,439494016,base_link,-0.08383408880616322,0.009018722366646657,0.044301145573690984,0.027498383074998856,-0.12377350032329561,-0.16399163007736203
1737285435.5376976,12623,1737285435,536487104,base_link,-0.09340034214962613,0.024910328626678278,0.019702176618071953,-0.0023653660900890827,0.24642795324325564,0.13464576005935666
1737285435.6388047,12624,1737285435,637479936,base_link,-0.08956754208894292,0.01597377536011129,0.035844505835060846,0.23316144943237305,-0.07848957180976866,0.07023826241493226
1737285435.7407131,12625,1737285435,738475840,base_link,-0.07623642350607089,0.0336039642675109,-0.032689842207148705,-0.010442040860652924,-0.3096391558647156,-0.01708456501364704
1737285435.8396583,12626,1737285435,837470464,base_link,-0.05326386335542386,0.0049596926809524315,0.03458399512247992,-0.16307948529720306,0.38397249579429626,0.08184085041284557
1737285435.9416108,12627,1737285435,939464576,base_link,-0.055545570544237276,0.038126047192042906,0.027738217687720883,-0.205868199467659,-0.05677293986082079,-0.16303148865699768
1737285436.0377724,12628,1737285436,35459968,base_link,-0.05797225688926867,0.05027555142943957,-0.017565930639785,0.009302294813096523,-0.05974576622247696,-0.007242088671773665
1737285436.1416476,12629,1737285436,139455616,base_link,-0.06550876691690817,0.028767578917391297,0.01912910660271475,0.07216416299343109,0.05709744244813917,-0.15344808995723724
1737285436.2427602,12630,1737285436,240450496,base_link,-0.06657985123087495,0.026539718169821338,-0.019593579496416613,0.16287362575531006,-0.23097939789295197,0.04523346200585368
1737285436.346626,12631,1737285436,344443840,base_link,-0.06398770783497301,0.030241570084527058,0.029217594413872415,-0.15613636374473572,-0.03826861828565598,-0.051400221884250634
1737285436.4428043,12632,1737285436,441440768,base_link,-0.06844586355215096,0.019182134598674978,-0.03148861232937537,0.165647953748703,-0.171952411532402,0.17157503962516787
1737285436.5418937,12633,1737285436,540436928,base_link,-0.06855876404416654,-0.002501734219318315,0.059778083908194994,-0.1580343395471573,0.2649182379245758,0.10862102359533307
1737285436.6476843,12634,1737285436,645433088,base_link,-0.07103349075859015,-0.004769928663818384,-0.001203288951986987,0.18437854945659637,-0.14380770921707156,-0.1318460255861282
1737285436.7458384,12635,1737285436,744430272,base_link,-0.0699242353445374,-0.009239589597314723,0.08116699127677975,0.14127841591835022,0.0035090232267975872,0.05386257544159889
1737285436.8428025,12636,1737285436,840426432,base_link,-0.07730868173365961,0.013764084831775757,-0.003847692428899513,-0.12133646011352539,0.06220745295286177,-0.08761259168386461
1737285436.9487045,12637,1737285436,947420288,base_link,-0.07821244327284264,0.015987316527316157,0.056740987899454115,-0.0319436714053154,-0.08898437023162843,-0.16975314915180206
1737285437.0448296,12638,1737285437,43416960,base_link,-0.06692125027231892,-0.00831307239577255,0.03096964876232047,0.18589717149734497,-0.2604565918445587,0.05238747596740726
1737285437.145827,12639,1737285437,144407744,base_link,-0.06512541278524492,-0.017003015907745285,0.05312601127315917,0.10652007907629013,0.06258093565702441,0.18718737363815308
1737285437.2447171,12640,1737285437,243401600,base_link,-0.08241188476869268,0.018840478752103873,0.024526334596310546,-0.34145936369895935,0.0785725489258766,-0.08957124501466752
1737285437.3459601,12641,1737285437,344398784,base_link,-0.07664116115161453,0.026828624650393026,0.0004464176548182392,-0.318203330039978,0.3725520670413971,-0.03549709916114812
1737285437.4480286,12642,1737285437,446395200,base_link,-0.07265050924025279,0.031217990502721494,-0.050793537697511285,0.26038262248039246,-0.43434444069862366,-0.10322321951389307
1737285437.546993,12643,1737285437,545390336,base_link,-0.06915489210798778,-0.010750885543573238,0.018868021413593967,-0.1548958122730255,0.3097378611564636,0.16304938495159146
1737285437.6431494,12644,1737285437,641387008,base_link,-0.06592833481451897,0.009714801352785131,-0.052300721701823635,-0.1893070638179779,0.13256846368312836,-0.08854819834232332
1737285437.7392073,12645,1737285437,737384192,base_link,-0.06794747598733444,0.002356866436925553,0.021762771965934853,-0.13458026945590973,0.19004754722118378,-0.06843509525060656
1737285437.8379364,12646,1737285437,836378304,base_link,-0.06812962556758644,0.01776510897210358,0.004684614688102027,-0.19195188581943512,-0.008509710431098957,-0.15427160263061523
1737285437.9409184,12647,1737285437,939373696,base_link,-0.05269329004362686,-0.013683567445435713,0.03760212286740459,0.08652262389659882,-0.1138935312628746,-0.05201724544167517
1737285438.0403569,12648,1737285438,38367296,base_link,-0.06827457003731179,0.022006664782545603,-0.010660629481723366,0.2618550658226013,-0.10375413298606871,0.0884939953684807
1737285438.139149,12649,1737285438,137361152,base_link,-0.0497520126898382,0.01385596197133942,-0.059174340898274516,-0.22041019797325134,0.09605722129344939,-0.08356155455112459
1737285438.2400305,12650,1737285438,238354752,base_link,-0.04870671833958646,0.010192922604277468,-0.007703898768875842,-0.23545220494270325,0.343502402305603,0.0862970724701881
1737285438.337956,12651,1737285438,336349888,base_link,-0.041533618502099696,0.023453927066360583,-0.004716676414575074,-0.08600679785013199,0.013964202255010588,-0.14863097667694092
1737285438.439231,12652,1737285438,438341952,base_link,-0.042958193016113,0.011732658932244096,0.029179321058377554,0.1582672894001007,0.085973359644413,0.01138528250157832
1737285438.536059,12653,1737285438,534332736,base_link,-0.03794029227379265,0.0034492012076779263,-0.010702168735906306,0.20383264124393463,-0.34696805477142334,-0.15669900178909296
1737285438.6370273,12654,1737285438,635326080,base_link,-0.03939329987448101,0.002423134046940655,-0.04433526156229666,0.22767679393291473,-0.04239993914961814,0.04880569130182267
1737285438.7360911,12655,1737285438,734321984,base_link,-0.02669358491596192,-0.002296168501927227,0.03444658971179445,-0.07751688361167908,0.1240003854036331,-0.08745248615741731
1737285438.8372757,12656,1737285438,836317120,base_link,-0.025487771455605532,0.013362736249928509,-0.0007797406394463133,-0.168421670794487,0.1759215146303177,0.11327231675386426
1737285438.9421377,12657,1737285438,940310720,base_link,-0.0266039656101765,0.033353100995622414,-0.05727062516683726,-0.006961841601878405,0.2795754671096802,-0.01508051529526714
1737285439.038121,12658,1737285439,36306624,base_link,-0.02279908519813061,0.03174688363173861,0.012788260306541309,0.023813048377633095,-0.14220289885997775,-0.1659000366926193
1737285439.1406815,12659,1737285439,138306624,base_link,-0.02540086548660157,-0.004137945481992962,0.038371042765632205,-0.010816704481840134,0.17838862538337708,0.06816227734088895
1737285439.238359,12660,1737285439,236294848,base_link,-0.02686020788342057,0.0018961567203532978,-0.013298212435827062,0.16384625434875488,-0.25151610374450684,-0.13690027594566342
1737285439.337494,12661,1737285439,336280512,base_link,-0.01839417006064278,0.013664468577343726,-0.035485676113800324,0.18028174340724945,-0.3587328791618347,-0.11458883434534069
1737285439.4385283,12662,1737285439,437269504,base_link,-0.014164765370882097,-0.006885340853394227,-0.031552023681360404,0.0733884945511818,0.028138272464275388,0.2397199273109436
1737285439.5384881,12663,1737285439,536270272,base_link,-0.009560513040254825,-0.021875939681465353,0.022662548958570884,0.16249866783618927,-0.2996433675289154,0.03790858387947086
1737285439.6392689,12664,1737285439,637264896,base_link,0.006439710226433572,-0.01118151774356755,-0.0083748274311912,-0.30047962069511414,0.20027399063110354,0.11510512232780454
1737285439.7406998,12665,1737285439,738259008,base_link,-0.002934691030675583,-0.009063598414547364,0.042968332207286124,-0.15088623762130737,0.11187423020601271,-0.15315642952919006
1737285439.8382726,12666,1737285439,837252096,base_link,-0.002337701795255915,0.0003121448755079992,0.0048353923715082426,0.0207635760307312,-0.10116489976644516,-0.023543776944279657
1737285439.9404125,12667,1737285439,938246720,base_link,-0.008943515255312276,0.004655371888217263,-0.011543786242058027,0.014539424329996109,-0.1860069185495377,-0.17031091451644895
1737285440.0369341,12668,1737285440,35242624,base_link,0.006112414622331986,-0.017296842594365508,-0.03872337012044122,0.28159505128860474,-0.1848255395889282,0.14388114213943484
1737285440.1383164,12669,1737285440,137236736,base_link,-0.0047335387789203655,-0.015830255358391276,-0.023933519506951932,0.04176986590027809,-0.0736636146903038,0.04272598773241044
1737285440.2374496,12670,1737285440,236232128,base_link,0.0018249505623552406,-0.022767976612730948,-0.036436129128603556,0.13600488007068634,-0.09714144468307492,0.18892839550971985
1737285440.3405514,12671,1737285440,337224192,base_link,0.01075739073761698,0.0045690484693332424,-0.062311854520961614,-0.10777799040079117,-0.032587639987468726,-0.07680699229240417
1737285440.4396405,12672,1737285440,438223168,base_link,0.0061549426751033535,-0.010743170474199265,-0.021536163333266387,0.053501300513744354,0.05437580123543741,0.08670296519994736
1737285440.536663,12673,1737285440,535219840,base_link,0.019933837948162097,0.011357948717858777,0.029233044332279867,-0.29421862959861755,0.19621799886226654,0.07916732877492902
1737285440.6375792,12674,1737285440,636213184,base_link,0.02518280106166406,-0.013817899511533943,0.0581288357424243,-0.1686069667339325,0.19864465296268466,0.13829888403415677
1737285440.7395322,12675,1737285440,738208064,base_link,0.03441597420232211,0.004335717447220479,-0.0099918431527906,-0.2884630858898163,0.0851336419582367,-0.03980809077620508
1737285440.8389013,12676,1737285440,837201920,base_link,0.027603552307009227,-0.0001972479463122961,0.06733949850355736,0.042209114879369736,0.0578681081533432,0.011517602950334542
1737285440.9355786,12677,1737285440,934199872,base_link,0.02988560418177819,0.03821852151115617,-0.011217124072499463,-0.13488535583019257,-0.08735773712396623,-0.06429731100797652
1737285441.0423372,12678,1737285441,40195776,base_link,0.034723883379212,0.02735432399190166,-0.014205391634490293,-0.22585704922676086,0.35010138154029846,0.044083569198846775
1737285441.147665,12679,1737285441,137189376,base_link,0.025280313893232063,0.041692030451139936,-0.007094263679433246,-0.191361665725708,-0.07024561613798143,-0.09252239018678664
1737285441.2403455,12680,1737285441,239186816,base_link,0.03225215682214671,0.03675926422653379,-0.007939943298399713,-0.014215044677257538,0.1300061792135239,0.1321887373924255
1737285441.3394766,12681,1737285441,338181440,base_link,0.0332257639493672,-0.00041682379738740174,0.049779184627553645,-0.3462862968444824,0.16031895577907562,-0.09652460366487504
1737285441.4385695,12682,1737285441,437176320,base_link,0.0375111676423728,0.03682760402396956,0.012885770927151975,0.1475340574979782,-0.28369635343551636,-0.22011218965053556
1737285441.538566,12683,1737285441,536171712,base_link,0.027206072272053662,0.01760817639707871,-0.0002743789584328003,-0.002875083591789007,-0.07490617036819458,0.04897237196564675
1737285441.6396692,12684,1737285441,638169408,base_link,0.02225314401979015,0.03876179043456799,-0.0606323802099266,-0.010605882853269577,-0.2988194227218628,-0.09800149500370021
1737285441.740779,12685,1737285441,739165568,base_link,0.015897843283922897,0.04435170309223907,-0.03690522583063967,-0.3111982047557831,0.43243491649627686,0.16663342714309687
1737285441.839538,12686,1737285441,838162752,base_link,0.02043431507625959,0.034434991554214534,-0.03858193652896201,-0.12017986178398132,-0.022564696148037907,0.040387384593486786
1737285441.9388905,12687,1737285441,937158912,base_link,0.011594180687893635,0.025631617404545618,0.04892359955907682,0.02133435755968094,0.14488554000854492,0.05482327938079832
1737285442.038076,12688,1737285442,36153280,base_link,0.003816150164059311,0.04217485529839761,-0.0617048579793361,0.03961744159460068,-0.10441151261329651,-0.020602537319064126
1737285442.1390486,12689,1737285442,137144576,base_link,0.013768477700896092,0.02202146346137271,-0.021801811361080885,-0.22501681745052338,0.029118226841092106,-0.0424068532884121
1737285442.2399015,12690,1737285442,238140480,base_link,0.011671060476593597,0.03528821007241912,0.0274892162396313,-0.15056830644607544,0.2527509331703186,-0.11559876054525378
1737285442.3388953,12691,1737285442,337134336,base_link,-0.004281369905358254,0.023076467886027123,-0.011925539745080762,0.08663080632686615,-0.10824654996395108,0.22122883796691895
1737285442.4380534,12692,1737285442,436130496,base_link,0.005593092183947794,0.027011853255867902,0.016390716185335146,0.1278681606054306,-0.03028060868382452,0.1799032986164093
1737285442.5392184,12693,1737285442,537130240,base_link,0.0045462834593879686,0.024525502109574805,0.04685769688323322,-0.10452233999967575,0.3571433424949646,0.08761836588382717
1737285442.6408708,12694,1737285442,639126912,base_link,-0.006910691024172839,0.02516767523917735,-0.02260646137667988,0.25038763880729675,-0.08365363627672194,0.059668503701686866
1737285442.7369497,12695,1737285442,735122816,base_link,-0.0013152262770115106,0.04432006659814491,-0.012270049205318162,-0.07499158382415771,0.11183072626590727,-0.0644282177090645
1737285442.838974,12696,1737285442,837116672,base_link,-0.0008678552556476138,0.038078971697824954,-0.04510492404224812,0.3504611551761627,-0.22884804010391235,-0.052278712391853305
1737285442.9419374,12697,1737285442,940113088,base_link,0.0016393518983427548,0.025489396283310657,0.048921470184443955,-0.10625660419464111,0.07673043012619017,-0.11807805299758913
1737285443.0380259,12698,1737285443,36110016,base_link,0.012965764321436965,0.01749451317080966,-0.02274072275279974,0.04622792825102806,-0.13744685053825378,0.03742056712508203
1737285443.1446924,12699,1737285443,140106944,base_link,0.012159296289928711,0.012929436657479622,-0.019938976289381887,-0.07009965181350708,-0.07065704464912415,-0.009733942337334147
1737285443.2461517,12700,1737285443,243104128,base_link,0.012160386165043984,0.002604605372513753,-0.04482436281843181,-0.18706724047660828,0.3146199882030487,-0.0486986488103867
1737285443.3386643,12701,1737285443,337097216,base_link,0.007020975805174627,-0.005805585043845667,-0.02793869029909264,-0.11307136714458466,-0.1543145626783371,0.034482501447200796
1737285443.438992,12702,1737285443,437091072,base_link,-0.009250935348101622,0.014981033346843666,-0.039610306596303324,-0.009533429518342018,-0.11686524003744128,-0.2580603361129761
1737285443.5385592,12703,1737285443,537082624,base_link,-0.012388949647599519,-0.002249155262826306,-0.008916896814684612,0.10094808787107468,-0.00650609470903872,0.11713404953479767
1737285443.642817,12704,1737285443,641075200,base_link,-0.01443225570164275,-0.008158715123963992,-0.01739069518279522,-0.15780453383922577,0.21836385130882266,0.18326877057552335
1737285443.7449892,12705,1737285443,743071616,base_link,-0.01452092101449851,-0.014688857296650574,-0.02604613802410451,-0.11701297014951706,0.2719379663467407,0.009408096782863107
1737285443.84506,12706,1737285443,843064960,base_link,-0.005517744859826519,-0.009440548319999976,-0.04238889284469494,0.12997350096702576,-0.09772532433271408,0.048326764255762114
1737285443.9488525,12707,1737285443,947056256,base_link,-0.011145586487307155,-0.005517318906080966,-0.06687577479259812,0.13107560575008392,-0.2233269065618515,-0.00773259671404955
1737285444.045821,12708,1737285444,44049856,base_link,-0.008862636925788394,-0.03666659272244228,0.050265912473579005,-0.12714125216007233,0.34914878010749817,0.20452976226806635
1737285444.1362433,12709,1737285444,134044992,base_link,-0.013114817214550349,-0.00045615051510880544,-0.006853249214466238,-0.14331892132759094,0.0628199502825737,-0.01904204487800599
1737285444.2370417,12710,1737285444,235039360,base_link,-0.0007663501404488941,-0.027739681458329928,-0.008928069690878372,0.27666762471199036,-0.35197415947914124,-0.0994302779436111
1737285444.348969,12711,1737285444,347031424,base_link,-0.0033147668978158206,-0.03209532565403916,0.005529282684181274,0.023902645334601402,-0.19098970293998718,-0.08637041598558423
1737285444.447776,12712,1737285444,446025024,base_link,-0.001975547566307338,-0.0020318163910622304,-0.03157146100946993,0.13205163180828094,-0.1725026369094849,-0.20425586402416226
1737285444.5390298,12713,1737285444,537018112,base_link,-0.0010343241094803396,0.0007785765235951872,-0.033965719734797784,0.1697549968957901,-0.32453659176826477,-0.10232907533645626
1737285444.638899,12714,1737285444,637012736,base_link,0.00023805256634551233,-0.011259221928726068,0.015353213932839742,0.02580913156270981,-0.003991916775703423,0.055839307606220245
1737285444.7374532,12715,1737285444,735009408,base_link,0.0063310213606563555,-0.003186183295555033,0.03140364645376504,-0.34807291626930237,0.07953550666570662,-0.10109923034906389
1737285444.8432407,12716,1737285444,841002752,base_link,0.010304431403812604,-0.005292848978532767,-0.02932574054557737,-0.23166200518608093,0.22525808215141296,-0.01868588663637641
1737285444.9390657,12717,1737285444,936997120,base_link,0.008331878678734085,-0.04546494164464022,0.08829931737407111,-0.4019981622695923,0.36784860491752625,0.1976486891508102
1737285445.0409,12718,1737285445,38989440,base_link,0.019047389857266794,-0.028766052313556008,0.03921439959250018,-0.2342858463525772,0.17737092077732086,0.005054303910583236
1737285445.1395197,12719,1737285445,137986112,base_link,0.010313145649528597,-0.03470259487718366,0.08853619968242389,0.0017124612350016832,0.0024331444874405887,0.01980331540107727
1737285445.2413008,12720,1737285445,236982528,base_link,0.02474484143956042,-0.029153088162142564,0.0036515320059131154,-0.19097933173179626,-0.0030268328264355694,-0.029052289202809334
1737285445.3370764,12721,1737285445,335977152,base_link,0.018755985181522845,-0.015418068262745981,0.07985878770020131,-0.11757733672857285,0.3134397864341736,-0.03587779775261883
1737285445.4382505,12722,1737285445,435965376,base_link,0.014851028541894705,-0.0006995294158174464,0.026952486653984822,0.324473112821579,-0.21462878584861755,0.05391750112175944
1737285445.540332,12723,1737285445,537957952,base_link,0.030843849561055632,0.009769270664784807,-0.013739272643350894,0.24421241879463196,-0.2894120514392853,-0.09436336904764171
1737285445.6361163,12724,1737285445,634954112,base_link,0.029208382930447394,-0.001580183167324539,0.049200233497617596,-0.06812513619661331,0.08828607946634291,-0.07960940152406694
1737285445.7403855,12725,1737285445,738953344,base_link,0.03157438936714642,0.00013499589579035222,0.037969515905095674,-0.28210562467575073,0.09834870696067809,-0.08223097771406175
1737285445.841339,12726,1737285445,839948992,base_link,0.025452177186619046,0.021942294624889044,-0.01749096117833794,-0.09112268686294556,0.3246011734008789,0.0022152021992951233
1737285445.9381204,12727,1737285445,936948992,base_link,0.029838549237880707,0.007621393481954726,-0.015924635139982404,-0.07255014032125473,0.18900714814662933,-0.06904859840869906
1737285446.0400877,12728,1737285446,37938752,base_link,0.009355972792532148,-0.0211383476566244,-0.004101363466655344,-0.03919510543346405,0.14182160794734958,0.2050763666629791
1737285446.1361206,12729,1737285446,134927744,base_link,0.010217821919416784,-0.024041522858932175,0.05847967685254105,0.05716077983379364,-0.06935587525367737,0.017862722277641303
1737285446.2401402,12730,1737285446,237924160,base_link,0.0023512915891413804,-0.020707020224159416,-0.012124319039086536,0.2893991470336914,-0.09006248414516446,0.20788328349590302
1737285446.3381047,12731,1737285446,336917760,base_link,-0.006797713119866001,-0.018870439235180135,0.00551369272510864,0.1297881007194519,-0.06591787189245223,0.1020590364933014
1737285446.437346,12732,1737285446,435911616,base_link,0.003946446295545677,-0.00518725542075672,-0.013320396102592268,0.13751912117004395,-0.3693249821662903,0.0165234431624413
1737285446.5390825,12733,1737285446,536904960,base_link,0.0001834735754706795,-0.026368453540711965,0.003013586271101267,0.05372617021203041,0.09438224881887439,0.18815641105175018
1737285446.6372886,12734,1737285446,635901888,base_link,0.005498261676426261,-0.0007462338130138412,-0.005102919771250154,0.288308322429657,-0.367613285779953,-0.08153679221868511
1737285446.736616,12735,1737285446,734896256,base_link,0.014876031876957014,0.00044214874324192065,0.01020190549982281,-0.14213508367538452,0.03145406395196916,0.11815270036458969
1737285446.8375256,12736,1737285446,835892672,base_link,0.01990535870433853,-0.015360486248627946,0.030665281164453734,0.18196184933185577,-0.25242483615875244,0.033925771713256864
1737285446.9412353,12737,1737285446,938886784,base_link,0.01592519438020204,-0.013208297698873016,-0.00898878773412797,-0.27105170488357544,0.1490761637687683,0.08238764107227324
1737285447.0423656,12738,1737285447,40881408,base_link,0.019940893524030612,0.031026660314409645,-0.060270437531983016,-0.23498950898647308,0.34776759147644043,0.058814067393541294
1737285447.1395636,12739,1737285447,137881408,base_link,0.028167250229092937,-0.0015771031268394897,0.016170022699218283,-0.3234211206436157,0.1376088708639145,-0.06611496210098268
1737285447.2384288,12740,1737285447,236876544,base_link,0.019179842516185035,0.0026519171638388996,0.0487165710776368,0.02097300812602043,0.09519136697053909,0.016928190365433683
1737285447.3404014,12741,1737285447,338872192,base_link,0.01842307145692171,0.04856026309359457,-0.016236626798534996,0.05167912691831589,-0.18101835250854495,-0.24330121278762815
1737285447.4397724,12742,1737285447,436866560,base_link,0.0209238630420628,0.028595921557237423,-0.0698726305783307,0.16748058795928955,-0.21167650818824768,0.06112830340862277
1737285447.5385783,12743,1737285447,536861952,base_link,0.01567350695733702,0.02089440487534471,-0.010600897503824263,0.31893494725227356,-0.19166933000087738,-0.03301168233156202
1737285447.6406984,12744,1737285447,638858880,base_link,0.018052772199269308,0.05033851743040335,0.01295139900604156,0.1260143369436264,-0.30723628401756287,-0.17560565471649167
1737285447.741559,12745,1737285447,739852224,base_link,0.013404091033948701,0.048431119790889536,0.03727146373385433,0.020198944956064224,-0.1224294602870941,0.09912685304880144
1737285447.8467774,12746,1737285447,835847872,base_link,0.009406507380917634,0.07533789602164365,-0.050571436695536896,-0.10558799654245377,0.06272388249635695,-0.10273870080709459
1737285447.9404848,12747,1737285447,938839424,base_link,-0.00366804061695166,0.0574554720705893,-0.01191976738258288,0.0672067329287529,0.004473199136555213,0.14798668026924133
1737285448.0384119,12748,1737285448,36832512,base_link,-0.003703854990278634,0.09359478645371633,-0.056987529954189944,0.057262931019067764,-0.14999166131019595,-0.12323888391256331
1737285448.1406164,12749,1737285448,138827648,base_link,-0.003179144531639308,0.058923609332726425,-0.015688403868485783,-0.07795160263776779,0.17052321135997775,0.17657084763050077
1737285448.238408,12750,1737285448,236823040,base_link,0.0022692739134984505,0.06028935639206214,0.03853471571727162,-0.13324923813343048,0.2544284760951996,-0.05329322814941409
1737285448.338905,12751,1737285448,336816384,base_link,-0.0006847584294126833,0.06852043535874579,0.019373721235882706,-0.4386175870895386,0.11510334163904191,0.07391793280839919
1737285448.437567,12752,1737285448,435812800,base_link,-0.008209078032378785,0.034504749148164204,0.07225622017598538,0.022724797949194908,0.18975205719470978,0.1003562584519386
1737285448.5417066,12753,1737285448,537809216,base_link,-0.002450516046322204,0.03359813639064831,0.04383411243094763,-0.4183138310909271,0.13119155168533325,0.02545268088579176
1737285448.6374385,12754,1737285448,635803584,base_link,-0.01352087243190494,0.05041475101679172,0.01990932643006911,0.1286797970533371,-0.08205946534872056,-0.0623517520725727
1737285448.7396224,12755,1737285448,737801792,base_link,-0.004362070660881807,0.03844472882472364,0.002499685235134228,-0.11262805014848709,0.25464552640914917,0.1350407302379608
1737285448.835541,12756,1737285448,833798464,base_link,-0.0036599649232851865,0.06252829770664324,-0.028071297547208544,0.1194765493273735,-0.14356425404548648,-0.14865727722644803
1737285448.940784,12757,1737285448,938796672,base_link,-0.00808807140410465,0.05977393904874723,0.03190258527101608,0.4337138235569,-0.4047633111476898,-0.17664729058742518
1737285449.0396783,12758,1737285449,37790016,base_link,-0.024544789258100233,0.0669639645001537,0.06498900572127564,0.48229914903640747,-0.3968038260936737,0.03763481229543691
1737285449.1388886,12759,1737285449,136785664,base_link,-0.03076762263094964,0.08292562572447336,0.0839200755023804,0.14568322896957397,-0.511337399482727,-0.13413390517234797
1737285449.240683,12760,1737285449,238782848,base_link,-0.04795875074739972,0.0799038203113148,0.08081277309463972,0.17340399324893951,-0.21011516451835635,-0.13645385205745694
1737285449.339746,12761,1737285449,337776960,base_link,-0.0652091710369833,0.049637172678641574,0.07375368589632315,0.03949606418609619,0.027603778988122954,0.1023862287402153
1737285449.438691,12762,1737285449,436771840,base_link,-0.0937774828866753,0.07599057263641479,0.1158487626492332,-0.19961100816726685,0.14050734043121338,-0.07666572928428651
1737285449.5405068,12763,1737285449,538768512,base_link,-0.10130362608058917,0.07498691362849934,0.1079997495741866,0.1565723568201065,0.23656155169010162,-0.008603089489042788
1737285449.6366785,12764,1737285449,635760832,base_link,-0.12731905229538107,0.06862596695356098,0.06225504124600826,0.16145218908786774,0.03662818670272828,0.05558090284466743
1737285449.7370808,12765,1737285449,734754432,base_link,-0.13343650336045437,0.03692397633263513,0.1252911526540992,0.16440698504447937,-0.31160593032836914,-0.07072525471448894
1737285449.8477602,12766,1737285449,845749056,base_link,-0.15635379053497428,0.05492542091110483,0.07506389364427091,-0.12657658755779266,-0.16995406150817874,-0.17366994917392728
1737285449.9495113,12767,1737285449,947743168,base_link,-0.1837831464821931,0.05056132495416952,0.12086780455706551,0.18421967327594757,-0.4550739824771881,0.1242560893297196
1737285450.0436995,12768,1737285450,41736256,base_link,-0.22982412000823388,0.05478213921859699,0.08719029921496388,-0.14344294369220734,0.2435705214738846,0.13443200290203092
1737285450.1479876,12769,1737285450,146728832,base_link,-0.2871395108453252,0.06228192179764341,0.08193395462026655,0.10052012652158737,-0.3587532043457031,-0.14038595557212824
1737285450.2448556,12770,1737285450,242720640,base_link,-0.34418581782080204,0.05293041040354242,0.13177559253348295,-0.21292449533939362,0.4197614789009094,0.07240592688322062
1737285450.3460662,12771,1737285450,344714240,base_link,-0.40819591582699405,0.07385012176713236,0.14222630656025714,-0.3897865116596222,0.21712112426757812,0.08306679874658582
1737285450.4451313,12772,1737285450,443705280,base_link,-0.458683443578444,0.05155285062287323,0.09876872508872134,0.20997966825962067,-0.01925581693649292,-0.01295734755694866
1737285450.54707,12773,1737285450,544699136,base_link,-0.5092338829399614,0.0560899239918117,0.08655066694885659,0.32967716455459595,-0.15377888083457944,0.16455936431884768
1737285450.6460288,12774,1737285450,643695040,base_link,-0.5577511000013308,0.06629262616762167,0.18480712632079013,-0.03379613533616066,-0.015999924391508106,-0.0222987700253725
1737285450.7449727,12775,1737285450,743692224,base_link,-0.5959644002301188,0.01647871834017889,0.15493446087667492,0.2994312345981598,-0.24005411565303805,-0.15386408567428586
1737285450.8410966,12776,1737285450,839686592,base_link,-0.6408105732610205,0.022951623059824636,0.1472398727146168,0.09765129536390305,0.140061154961586,-0.0782851427793503
1737285450.9416883,12777,1737285450,939681984,base_link,-0.6536815646287246,0.013578752344929668,0.19595787145498028,0.2013344019651413,0.235580176115036,-0.00012414844240996145
1737285451.0378287,12778,1737285451,36680192,base_link,-0.6844500111235674,0.02584875386514536,0.11739328478787185,-0.08555391430854797,0.10050128400325777,0.09989257901906966
1737285451.1379073,12779,1737285451,136673280,base_link,-0.689877440363885,0.04422680975495126,0.07492230038000287,0.011523144319653511,-0.16499005258083346,-0.19974154233932492
1737285451.2389834,12780,1737285451,237669440,base_link,-0.6575763542503091,0.0038240898790551448,0.08655241864758861,-0.18595170974731445,0.12798234820365906,0.05534703284502028
1737285451.3368886,12781,1737285451,334661504,base_link,-0.6470551877938583,0.013280593837320316,0.05715522515841621,0.07476814836263657,0.00846323557198048,0.0341256819665432
1737285451.438067,12782,1737285451,436655872,base_link,-0.6480931946909948,0.015147861399814852,0.14460295306364418,-0.05564681813120842,0.040211454033851596,-0.20742426812648773
1737285451.540645,12783,1737285451,538652032,base_link,-0.6524999313663861,0.00834924580671197,0.11056014774685466,0.2459692656993866,-0.30732887983322144,0.07580024749040608
1737285451.638972,12784,1737285451,637646912,base_link,-0.659750025700637,0.023130407678640538,0.07495921291574016,0.02850463055074215,-0.18894562125205994,0.01686961948871615
1737285451.7388465,12785,1737285451,736662528,base_link,-0.6768006320402887,-0.017301735729259665,0.14743834833070396,-0.2812678813934326,0.259827196598053,0.1641825735569
1737285451.8409383,12786,1737285451,837658176,base_link,-0.7106672141597955,0.015774169967375976,0.1534312001984679,-0.024670351296663284,0.01486112922430036,-0.2020569145679474
1737285451.9450321,12787,1737285451,940649984,base_link,-0.7452317423935255,-0.006736627617156775,0.20062875898258536,0.1606590449810028,-0.28958073258399963,-0.0727431625127792
1737285452.0520556,12788,1737285452,36646144,base_link,-0.7700659359461932,-0.010785029507345872,0.1742267636684991,-0.2621482312679291,0.35677370429039,0.10185050219297405
1737285452.137438,12789,1737285452,135646144,base_link,-0.8117552887294872,0.008355421675510986,0.11797163999771951,0.3481578826904297,-0.20610575377941132,0.0412818752229214
1737285452.2395763,12790,1737285452,237646144,base_link,-0.8402264008881685,0.02079833758232259,0.09952207270921493,-0.09329886734485626,-0.2703549563884735,-0.1847485154867172
1737285452.3361216,12791,1737285452,333632064,base_link,-0.861346829746108,0.014414386753138645,0.13233796374733547,-0.32005542516708374,0.21596527099609375,0.010248168371617768
1737285452.4393766,12792,1737285452,437629248,base_link,-0.8877113000831123,-0.012153146779399188,0.11764678731030176,-0.2263035625219345,0.3075079917907715,0.1343729346990585
1737285452.5394764,12793,1737285452,537625152,base_link,-0.9159919580553242,0.0003243841764310612,0.10927732382916722,-0.09091640263795853,0.13208775222301486,0.16042253375053403
1737285452.636386,12794,1737285452,634620032,base_link,-0.9505588964532253,0.032206417843588575,0.11625583908767731,-0.07659619301557541,0.429292768239975,0.14597502350807184
1737285452.7404368,12795,1737285452,738611328,base_link,-0.9517880543414824,0.016917456503139076,0.15593091791202837,-0.07515791058540344,0.3705815076828003,0.06094830483198161
1737285452.839432,12796,1737285452,837605184,base_link,-0.9764875487974024,0.06019836183078139,0.11414377002256978,0.09298843890428543,-0.0773604288697243,-0.1727246195077896
1737285452.9394662,12797,1737285452,937600320,base_link,-0.982037130446853,0.07562764320605289,0.04841158813980576,-0.04857759550213814,-0.153320387005806,-0.15407463908195493
1737285453.0403903,12798,1737285453,38598784,base_link,-0.9927710471841698,0.06324410017017323,0.08296160300763131,-0.059180647134780884,0.06917109340429306,-0.051363121718168266
1737285453.1386046,12799,1737285453,135593408,base_link,-0.9992464217305567,0.08750787344290509,0.13238152854770946,0.1637488454580307,0.14852686226367953,0.1611393094062805
1737285453.239428,12800,1737285453,237587008,base_link,-1.004049983935843,0.13623648064272414,0.12112381354355611,0.20025576651096344,-0.14580565690994263,-0.10721822828054427
1737285453.3383875,12801,1737285453,336583936,base_link,-1.0137823036363807,0.13612024720176183,0.0687710693195106,-0.014083524234592915,-0.22611196339130402,-0.04691595956683156
1737285453.439336,12802,1737285453,437578560,base_link,-1.0196425825017121,0.09086964650486183,0.13532300804640113,-0.038616400212049484,0.15917553007602694,0.3144056797027588
1737285453.5394757,12803,1737285453,537571648,base_link,-1.0226092951888046,0.08619320334874565,0.18051155036086583,-0.22184140980243683,0.2777802348136902,0.19455561041831967
1737285453.6364386,12804,1737285453,634568064,base_link,-1.0562160836726078,0.09703316592263984,0.14673804114631128,0.27934497594833374,-0.2729441225528717,-0.06389103829860684
1737285453.7404423,12805,1737285453,738560384,base_link,-1.0571132481757204,0.09276483894974763,0.22171195903695765,0.02631452865898609,-0.3075712323188782,-0.07511926442384716
1737285453.841546,12806,1737285453,839552448,base_link,-1.0671674225594046,0.06516622560991153,0.15954560796599343,-0.4417405128479004,0.29670792818069464,0.23837696015834806
1737285453.939696,12807,1737285453,937548096,base_link,-1.082455949262241,0.06851765020202338,0.1602163001451955,-0.30840322375297546,0.10645329952239989,-0.07761466503143312
1737285454.0354629,12808,1737285454,33543232,base_link,-1.096264798374777,0.09371270281940978,0.13152969840116546,-0.21143370866775513,-0.00794824678450823,-0.020029257982969284
1737285454.1476102,12809,1737285454,135537344,base_link,-1.1049615224516285,0.035046321312791076,0.11473370491758475,0.1507950723171234,-0.12199620902538302,-0.22276481986045835
1737285454.238189,12810,1737285454,236531968,base_link,-1.116613789026948,0.06859233567090914,0.1001032336399103,-0.12008076906204224,-0.01716043800115589,-0.32038623094558716
1737285454.3457782,12811,1737285454,333526848,base_link,-1.1101033088371919,0.05983894367265287,0.01749084700825237,0.1645614206790924,0.05869317427277564,-0.02934588678181172
1737285454.4376237,12812,1737285454,435521216,base_link,-1.1048689618295309,0.015285878693562568,0.05520724102383197,-0.09750273823738098,0.2723360359668732,0.27302768826484675
1737285454.540987,12813,1737285454,537515840,base_link,-1.0903145254498836,0.056687734251378255,0.06128651071943275,-0.17322179675102234,0.14213512837886808,-0.1773665249347687
1737285454.6374137,12814,1737285454,635513280,base_link,-1.0511899494967383,0.03718817253197224,0.021538617063276443,-0.29004189372062683,0.004367537796497342,-0.02126135490834713
1737285454.7354615,12815,1737285454,733508928,base_link,-1.03184030814263,0.030570681128874067,0.07084875545757945,0.04018387570977211,0.21573665738105774,-0.014833856374025371
1737285454.8365068,12816,1737285454,835504320,base_link,-0.9860601384036427,0.03534695978407521,0.03540223097618907,0.15977363288402557,-0.11928358674049376,0.08170047402381898
1737285454.9443502,12817,1737285454,942500736,base_link,-0.9648142681173687,0.05478337235954726,0.08123599956615796,-0.23980171978473663,0.1781022548675537,0.006660230457782724
1737285455.0353663,12818,1737285455,34496640,base_link,-0.9242763828953892,0.05263054473798524,0.042917651979417284,0.27267012000083923,-0.25431716442108154,-0.07217096537351606
1737285455.1374888,12819,1737285455,135487424,base_link,-0.8694329666631332,0.02704576391600562,0.08877881258569459,-0.009769738651812077,0.14151157438755035,0.024275403469800932
1737285455.2365258,12820,1737285455,234482560,base_link,-0.8054843135215813,0.047008342718678056,0.07561313495429983,-0.3209042251110077,0.6841722130775452,0.22582353651523582
1737285455.3363428,12821,1737285455,334479232,base_link,-0.7298297086468322,0.017322361683591192,0.08930445771963098,0.03811577707529068,0.396858274936676,-0.041364796459674884
1737285455.4406154,12822,1737285455,439476928,base_link,-0.6110724384541016,0.0015913490891324867,0.03282903972444062,0.09869583696126938,0.07023662328720093,0.037523370236158364
1737285455.5445197,12823,1737285455,542472832,base_link,-0.4899776617752316,-0.02196115823131193,0.08277033901465755,0.2850465476512909,-0.04781406000256536,0.14377230405807495
1737285455.6455648,12824,1737285455,644466944,base_link,-0.38423508385502125,0.005915412371205311,0.0964592672548745,-0.025868462398648262,-0.17920063436031344,-0.221473753452301
1737285455.7435954,12825,1737285455,742464640,base_link,-0.2750903242242295,-0.0049094553447388365,0.0759678013340443,0.3911658823490143,-0.16830991208553314,-0.03180928900837896
1737285455.8445098,12826,1737285455,842457472,base_link,-0.16497246209588734,0.0022346821439429712,0.1016460090684901,0.21701227128505707,-0.20122429728507996,0.05613422766327861
1737285455.942428,12827,1737285455,940452352,base_link,-0.05791661539896008,-0.016389318393008397,0.19225554752010374,-0.06796328723430634,-0.2656272351741791,0.010982997715473208
1737285456.0435355,12828,1737285456,42447232,base_link,0.06283825193469546,-0.008386866391020379,0.14576495794706906,0.07271979749202728,0.09629365056753157,-0.09559003263711931
1737285456.1416798,12829,1737285456,139440832,base_link,0.1905848987629766,0.0021369494779347803,0.1921773886024646,0.36920350790023804,-0.05294337868690491,-0.016752494499087327
1737285456.2387292,12830,1737285456,236439040,base_link,0.30220891665119026,-0.030831992675621582,0.2066563221203796,0.14994442462921143,0.0813599228858948,0.24979756772518158
1737285456.3378637,12831,1737285456,335433664,base_link,0.4075946609933894,-0.004657483930230136,0.23637316308409712,-0.12140236049890518,-0.07878244668245317,-0.16168642044067383
1737285456.4387643,12832,1737285456,437428032,base_link,0.5221270491449604,-0.0008737934352657821,0.20375584361182933,0.19722212851047516,-0.45551598072052,-0.12553507089614863
1737285456.5381172,12833,1737285456,536423168,base_link,0.6445419404615452,-0.008093340658431635,0.26461293043177747,-0.03791003301739693,0.24193385243415833,0.027257783338427512
1737285456.6412225,12834,1737285456,639416000,base_link,0.7426768049652414,-0.0004311104329049638,0.29500488170568245,0.2333044707775116,-0.07527558505535127,-0.06098461151123046
1737285456.740457,12835,1737285456,737413440,base_link,0.8573655359738064,-0.0008569673923356541,0.21137426914489846,0.09057492762804031,-0.09246801584959029,0.08596181124448778
1737285456.83675,12836,1737285456,834409856,base_link,0.9386219726502923,-0.011328141046775094,0.3574736548708147,-0.1607714593410492,0.19196107983589172,0.014695287682116007
1737285456.940114,12837,1737285456,937401152,base_link,1.0330718412625741,-0.022385473845765443,0.3180514971717827,0.021048137918114662,0.15858589112758636,0.0566599518060684
1737285457.039396,12838,1737285457,36391680,base_link,1.1044893790138235,-0.012020184720927512,0.29271408517586117,-0.21191057562828064,-0.0026290835812687917,-0.03512028232216835
1737285457.1384401,12839,1737285457,136391680,base_link,1.160224639630026,-0.018025341370998354,0.25706748011835223,-0.22882933914661407,-0.27104002237319946,-0.113862469792366
1737285457.2400355,12840,1737285457,238380672,base_link,1.187036349512779,0.009905761234528423,0.20061204480966188,-0.07339254021644592,-0.0017975317314267154,0.0029532127082347874
1737285457.340987,12841,1737285457,337370944,base_link,1.1982311717535992,-0.0038241687324689824,0.15173868999130344,-0.22280719876289368,-0.27499327063560486,-0.05093746632337567
1737285457.444026,12842,1737285457,439364032,base_link,1.185935772265431,0.029009011439147917,0.10209152830178524,-0.1416177898645401,0.23128266632556918,0.18976421654224393
1737285457.5382059,12843,1737285457,535364032,base_link,1.1686565977357832,-0.008474820473089,0.14140114558825356,-0.11575969308614731,0.12214991450309756,0.19631503522396085
1737285457.6367478,12844,1737285457,634364032,base_link,1.1603176234050705,0.0059732914495565816,0.11815739546841249,0.022876176983118057,-0.13941386342048645,0.08115907758474351
1737285457.7349036,12845,1737285457,733364800,base_link,1.1537169052916132,0.03367443621969135,0.19971443214143036,-0.14274463057518005,0.3430013954639435,0.09286470711231228
1737285457.8399417,12846,1737285457,837358656,base_link,1.1653306870625915,0.030410148902144555,0.18204646195956226,-0.14600230753421783,0.3172565698623657,0.04000357538461681
1737285457.9378293,12847,1737285457,936352256,base_link,1.1838045634398122,0.046324440260626626,0.26788666887551454,-0.10318922996520996,0.32201194763183594,-0.12035599350929264
1737285458.037044,12848,1737285458,35347136,base_link,1.2212171810900367,0.05894640447731758,0.17349979439996877,0.2501331567764282,-0.3215521574020386,0.006676080171018878
1737285458.136475,12849,1737285458,134340480,base_link,1.2615735006648403,0.06722989668620825,0.1447435128291283,0.331613153219223,-0.4842826724052429,-0.022280873730778635
1737285458.2380962,12850,1737285458,236338176,base_link,1.289972518899335,0.06723822211652113,0.12844259498157584,0.004862495698034763,-0.19625899195671082,0.04842299595475199
1737285458.335087,12851,1737285458,333333568,base_link,1.2926506622635483,0.05257962930074761,0.12364698280003442,-0.11661318689584732,-0.06066187843680381,0.05517766997218133
1737285458.4397843,12852,1737285458,437330240,base_link,1.3169465610333995,0.028613046982619537,0.05698089069721814,-0.009161707013845444,0.31594353914260864,0.19787305593490598
1737285458.5378268,12853,1737285458,536327424,base_link,1.3019021510965705,0.029822654879583167,0.10815907397932273,-0.38882264494895935,0.46066391468048096,0.06836514919996256
1737285458.6369946,12854,1737285458,635322304,base_link,1.2975919718755873,0.049085652599406,0.10980077567856564,-0.21979571878910065,0.4751555919647217,0.09752936661243433
1737285458.742895,12855,1737285458,739319488,base_link,1.3077340073495871,0.03662573866687356,0.13742620778100573,0.05993792414665222,-0.08117427676916125,-0.1742318868637085
1737285458.8388848,12856,1737285458,837315904,base_link,1.3117021932641248,0.08632384486589643,0.0741438738724249,0.13072942197322845,-0.3114277124404907,-0.10661850869655605
1737285458.9401557,12857,1737285458,938310016,base_link,1.3299810869016422,0.10469262211790353,0.021523897732190114,0.16208398342132568,-0.4639330804347992,-0.22390143573284144
1737285459.037399,12858,1737285459,34308224,base_link,1.3611296587186394,0.06557167167929553,0.05172613637183569,0.33503028750419617,-0.1365562230348587,0.008823041804134863
1737285459.1351855,12859,1737285459,133308224,base_link,1.3794092061089915,0.08433260337204765,0.020717283578844392,0.10705200582742691,-0.18094860017299652,0.07190328836441043
1737285459.2399683,12860,1737285459,238303616,base_link,1.3900997909900084,0.06863409945546861,0.1202451365220445,0.1189412921667099,0.0764414519071579,-0.013453390449285516
1737285459.3389993,12861,1737285459,337299264,base_link,1.4179759123463245,0.051875781166104494,0.14707211052172078,0.35307297110557556,-0.353427529335022,0.06476722657680516
1737285459.4361837,12862,1737285459,434294400,base_link,1.4544365575763307,0.06571036186858749,0.09442779465559907,0.09023799002170563,-0.30643945932388306,-0.0882073268294334
1737285459.5352466,12863,1737285459,533286208,base_link,1.4980501644740947,0.04871331299940294,0.13383667058540488,-0.06940247118473053,-0.2108871638774872,-0.18293620645999906
1737285459.6393485,12864,1737285459,637280832,base_link,1.5242109285240328,0.05311369808772636,0.0743196775233694,-0.005945447366684675,-0.31042277812957764,-0.15705145895481107
1737285459.7363422,12865,1737285459,734274688,base_link,1.5751632077284472,0.0648920249986936,0.15065596212639826,0.12193227559328079,-0.2405338138341904,-0.2386834919452667
1737285459.840212,12866,1737285459,838267776,base_link,1.594142129375983,0.06912879512296206,0.22172833383451962,0.142961323261261,-0.1419646590948105,-0.13784162700176236
1737285459.9409947,12867,1737285459,939264704,base_link,1.62064835669153,0.05477990009000722,0.19618100955629586,-0.1309892237186432,0.2850516140460968,0.17913994193077085
1737285460.0354285,12868,1737285460,33258560,base_link,1.655438551778974,0.043971846102716365,0.1966807339799468,0.016858963295817375,-0.3737621009349823,-0.0729877576231956
1737285460.139325,12869,1737285460,137253184,base_link,1.6851540289191418,-0.00795491195206665,0.27755620372667966,0.14860446751117706,-0.4188004732131958,-0.11155908554792399
1737285460.2386637,12870,1737285460,237249600,base_link,1.7044967607927695,-0.021954442835485914,0.3105517879396892,0.07269923388957977,-0.30540987849235535,-0.060649935156106914
1737285460.3355649,12871,1737285460,334243712,base_link,1.7286692829536834,-0.00502103840079792,0.25460089623175086,-0.22335310280323029,0.1630104035139084,0.10535989701747893
1737285460.439302,12872,1737285460,438235264,base_link,1.7656906520234503,-0.0300317765122547,0.31535780238785505,-0.0931367576122284,0.07457849383354187,-0.020733777433633815
1737285460.5391889,12873,1737285460,537228352,base_link,1.7871567995914348,0.002973722406036062,0.23498647830848518,0.1347106248140335,-0.4246019721031189,-0.08927436172962183
1737285460.638389,12874,1737285460,636222464,base_link,1.8220320937731715,0.0167704636601771,0.2553216670682089,0.015827175229787827,-0.33773982524871826,-0.17769177258014676
1737285460.7373853,12875,1737285460,735214784,base_link,1.8461545928932697,0.041403725356126755,0.18554280560047348,0.2388392984867096,-0.5105952620506287,-0.09671514481306069
1737285460.836336,12876,1737285460,834210944,base_link,1.8627157968354702,0.060855589349667796,0.19512453159205703,0.13690030574798584,-0.3484322428703308,-0.0552342943847179
1737285460.9386034,12877,1737285460,936207104,base_link,1.8870707662970836,0.04346527257854875,0.27063428005186774,-0.367588073015213,0.20802432298660278,-0.023985223844647432
1737285461.0443711,12878,1737285461,43199168,base_link,1.8950955997526184,0.006263125097206588,0.2423709251307128,0.22812195122241974,-0.30997413396835327,-0.10983141511678692
1737285461.147413,12879,1737285461,145191744,base_link,1.8937297396109587,0.003296881845739396,0.2855307890132362,0.13952696323394775,0.006220560520887388,0.10327718406915665
1737285461.2450905,12880,1737285461,244186112,base_link,1.9044505026715366,3.3235881327258084e-05,0.2899306089651089,-0.16633713245391846,0.1190143898129463,-0.14699545502662661
1737285461.34523,12881,1737285461,344181248,base_link,1.9156887229191057,-0.00010416829089514995,0.2759337957231586,-0.012943573296070099,-0.09337615221738818,-0.1843481957912445
1737285461.4443696,12882,1737285461,443174336,base_link,1.929079734965558,-0.020698351405984538,0.3242491900632251,0.08820848166942596,0.024401459842920296,-0.06255989521741867
1737285461.5483108,12883,1737285461,547168704,base_link,1.953188042555615,0.010879260122961898,0.21762978997584773,0.01651361584663391,-0.11525624990463257,-0.036564733833074556
1737285461.6451576,12884,1737285461,643166144,base_link,1.9685415768626422,-0.02764721239507662,0.27985404807991554,0.08790687471628189,-0.12617269158363342,-0.10106288641691206
1737285461.7456636,12885,1737285461,743162560,base_link,1.980191864561152,-0.03203585077867165,0.242207575335965,0.3233460485935211,-0.16343086957931519,0.06019202992320063
1737285461.8384645,12886,1737285461,836158720,base_link,1.985431871374385,-0.023048014760380927,0.2924900062277783,0.19098904728889465,-0.2059801071882248,0.061161566525697736
1737285461.9414835,12887,1737285461,939151296,base_link,1.9838360635857804,-0.023411530788523986,0.2026043799990157,-0.09688980877399445,0.12817876040935516,0.04674996808171271
1737285462.0366275,12888,1737285462,34145152,base_link,1.9577588572105522,-0.049544261045501886,0.15820372079006623,0.13034671545028687,-0.1485051065683365,0.10801637917757036
1737285462.1407564,12889,1737285462,138140544,base_link,1.9403257177477693,-0.022471693583529878,0.13111828362544553,0.24576440453529358,-0.2918991446495056,-0.12112476676702495
1737285462.2387016,12890,1737285462,237135936,base_link,1.8946651957635334,-0.009797632237379693,0.08492442689649415,0.2557882070541382,-0.3207378685474396,-0.19218960404396054
1737285462.3359501,12891,1737285462,334129536,base_link,1.8340943412870527,0.002341641614768436,0.07949584830002698,0.16985204815864563,-0.2200678735971451,-0.11683788150548932
1737285462.4430728,12892,1737285462,440126976,base_link,1.7970102395574512,-0.030120149865979932,0.09485637104821562,-0.2111627757549286,-0.04277011379599573,-0.15528522431850433
