Time,header.seq,header.stamp.secs,header.stamp.nsecs,header.frame_id,status.status,status.service,latitude,longitude,altitude,position_covariance_0,position_covariance_1,position_covariance_2,position_covariance_3,position_covariance_4,position_covariance_5,position_covariance_6,position_covariance_7,position_covariance_8,position_covariance_type
1737285429.128523,12556,1737285428,657811712,base_link,0,1,33.6371292,72.9912535,486.456062979687,1.077444,0.0,0.0,0.0,1.077444,0.0,0.0,0.0,2.019241,2
1737285429.128656,12557,1737285428,857809664,base_link,0,1,33.6371293,72.9912535,486.4960635926435,1.083681,0.0,0.0,0.0,1.083681,0.0,0.0,0.0,2.024929,2
1737285429.1288893,12558,1737285428,857805056,base_link,0,1,33.6371293,72.9912535,486.4960635926435,1.083681,0.0,0.0,0.0,1.083681,0.0,0.0,0.0,2.024929,2
1737285429.13585,12559,1737285429,57797888,base_link,0,1,33.6371293,72.9912536,486.54606398982344,1.089936,0.0,0.0,0.0,1.089936,0.0,0.0,0.0,2.033476,2
1737285429.2326856,12560,1737285429,57794816,base_link,0,1,33.6371293,72.9912536,486.54606398982344,1.089936,0.0,0.0,0.0,1.089936,0.0,0.0,0.0,2.033476,2
1737285429.339916,12561,1737285429,257791232,base_link,0,1,33.6371293,72.9912536,486.5760639898234,1.0962089999999998,0.0,0.0,0.0,1.0962089999999998,0.0,0.0,0.0,2.0391839999999997,2
1737285429.4426608,12562,1737285429,257787392,base_link,0,1,33.6371293,72.9912536,486.5760639898234,1.0962089999999998,0.0,0.0,0.0,1.0962089999999998,0.0,0.0,0.0,2.0391839999999997,2
1737285429.5400665,12563,1737285429,457784832,base_link,0,1,33.6371294,72.9912537,486.6060649999602,1.104601,0.0,0.0,0.0,1.104601,0.0,0.0,0.0,2.047761,2
1737285429.642665,12564,1737285429,457780992,base_link,0,1,33.6371294,72.9912537,486.6060649999602,1.104601,0.0,0.0,0.0,1.104601,0.0,0.0,0.0,2.047761,2
1737285429.7327266,12565,1737285429,657775872,base_link,0,1,33.6371294,72.9912536,486.62606460278005,1.108809,0.0,0.0,0.0,1.108809,0.0,0.0,0.0,2.0534890000000003,2
1737285429.8424597,12566,1737285429,657769216,base_link,0,1,33.6371294,72.9912536,486.62606460278005,1.108809,0.0,0.0,0.0,1.108809,0.0,0.0,0.0,2.0534890000000003,2
1737285429.9405909,12567,1737285429,857764352,base_link,0,1,33.6371294,72.9912537,486.66606499996016,1.1151360000000001,0.0,0.0,0.0,1.1151360000000001,0.0,0.0,0.0,2.062096,2
1737285430.0385995,12568,1737285429,857755648,base_link,0,1,33.6371294,72.9912537,486.66606499996016,1.1151360000000001,0.0,0.0,0.0,1.1151360000000001,0.0,0.0,0.0,2.062096,2
1737285430.1368656,12569,1737285430,57748736,base_link,0,1,33.6371294,72.9912537,486.69606499996013,1.121481,0.0,0.0,0.0,1.121481,0.0,0.0,0.0,2.0707210000000003,2
1737285430.2407424,12570,1737285430,57745920,base_link,0,1,33.6371294,72.9912537,486.69606499996013,1.121481,0.0,0.0,0.0,1.121481,0.0,0.0,0.0,2.0707210000000003,2
1737285430.3342068,12571,1737285430,257740288,base_link,0,1,33.6371293,72.9912537,486.7160643870036,1.1236000000000002,0.0,0.0,0.0,1.1236000000000002,0.0,0.0,0.0,2.0764810000000002,2
1737285430.433431,12572,1737285430,257734656,base_link,0,1,33.6371293,72.9912537,486.7160643870036,1.1236000000000002,0.0,0.0,0.0,1.1236000000000002,0.0,0.0,0.0,2.0764810000000002,2
1737285430.5349965,12573,1737285430,457730304,base_link,0,1,33.6371293,72.9912536,486.7460639898235,1.125721,0.0,0.0,0.0,1.125721,0.0,0.0,0.0,2.082249,2
1737285430.6326988,12574,1737285430,457726208,base_link,0,1,33.6371293,72.9912536,486.7460639898235,1.125721,0.0,0.0,0.0,1.125721,0.0,0.0,0.0,2.082249,2
1737285430.7347407,12575,1737285430,657722112,base_link,0,1,33.6371292,72.9912536,486.776063376867,1.125721,0.0,0.0,0.0,1.125721,0.0,0.0,0.0,2.085136,2
1737285430.8341954,12576,1737285430,657717504,base_link,0,1,33.6371292,72.9912536,486.776063376867,1.125721,0.0,0.0,0.0,1.125721,0.0,0.0,0.0,2.085136,2
1737285430.9348793,12577,1737285430,857710592,base_link,0,1,33.6371292,72.9912535,486.786062979687,1.127844,0.0,0.0,0.0,1.127844,0.0,0.0,0.0,2.088025,2
1737285431.0339568,12578,1737285430,857706496,base_link,0,1,33.6371292,72.9912535,486.786062979687,1.127844,0.0,0.0,0.0,1.127844,0.0,0.0,0.0,2.088025,2
1737285431.1382997,12579,1737285431,57693952,base_link,0,1,33.6371292,72.9912535,486.816062979687,1.1299689999999998,0.0,0.0,0.0,1.1299689999999998,0.0,0.0,0.0,2.0938090000000003,2
1737285431.232438,12580,1737285431,57688832,base_link,0,1,33.6371292,72.9912535,486.816062979687,1.1299689999999998,0.0,0.0,0.0,1.1299689999999998,0.0,0.0,0.0,2.0938090000000003,2
1737285431.3331814,12581,1737285431,257681152,base_link,0,1,33.6371293,72.9912536,486.8460639898235,1.1320960000000002,0.0,0.0,0.0,1.1320960000000002,0.0,0.0,0.0,2.0938090000000003,2
1737285431.43701,12582,1737285431,257673984,base_link,0,1,33.6371293,72.9912536,486.8460639898235,1.1320960000000002,0.0,0.0,0.0,1.1320960000000002,0.0,0.0,0.0,2.0938090000000003,2
1737285431.5334742,12583,1737285431,457670144,base_link,0,1,33.6371293,72.9912537,486.87606438700357,1.1320960000000002,0.0,0.0,0.0,1.1320960000000002,0.0,0.0,0.0,2.096704,2
1737285431.6326654,12584,1737285431,457666560,base_link,0,1,33.6371293,72.9912537,486.87606438700357,1.1320960000000002,0.0,0.0,0.0,1.1320960000000002,0.0,0.0,0.0,2.096704,2
1737285431.7349753,12585,1737285431,657659904,base_link,0,1,33.6371293,72.9912538,486.89606478418364,1.1342249999999998,0.0,0.0,0.0,1.1342249999999998,0.0,0.0,0.0,2.0996010000000003,2
1737285431.8324828,12586,1737285431,657655040,base_link,0,1,33.6371293,72.9912538,486.89606478418364,1.1342249999999998,0.0,0.0,0.0,1.1342249999999998,0.0,0.0,0.0,2.0996010000000003,2
1737285431.936405,12587,1737285431,857643776,base_link,0,1,33.6371293,72.9912539,486.91606518136376,1.1363560000000001,0.0,0.0,0.0,1.1363560000000001,0.0,0.0,0.0,2.0996010000000003,2
1737285432.0327814,12588,1737285431,857638912,base_link,0,1,33.6371293,72.9912539,486.91606518136376,1.1363560000000001,0.0,0.0,0.0,1.1363560000000001,0.0,0.0,0.0,2.0996010000000003,2
1737285432.134648,12589,1737285432,57636352,base_link,0,1,33.6371293,72.991254,486.9260655785439,1.1363560000000001,0.0,0.0,0.0,1.1363560000000001,0.0,0.0,0.0,2.0996010000000003,2
1737285432.2319899,12590,1737285432,57632512,base_link,0,1,33.6371293,72.991254,486.9260655785439,1.1363560000000001,0.0,0.0,0.0,1.1363560000000001,0.0,0.0,0.0,2.0996010000000003,2
1737285432.3332033,12591,1737285432,257625856,base_link,0,1,33.6371293,72.9912541,486.9460659757241,1.1363560000000001,0.0,0.0,0.0,1.1363560000000001,0.0,0.0,0.0,2.0996010000000003,2
1737285432.433996,12592,1737285432,257620736,base_link,0,1,33.6371293,72.9912541,486.9460659757241,1.1363560000000001,0.0,0.0,0.0,1.1363560000000001,0.0,0.0,0.0,2.0996010000000003,2
1737285432.5332541,12593,1737285432,457620736,base_link,0,1,33.6371293,72.9912542,486.96606637290427,1.1384889999999999,0.0,0.0,0.0,1.1384889999999999,0.0,0.0,0.0,2.0996010000000003,2
1737285432.6370764,12594,1737285432,457617408,base_link,0,1,33.6371293,72.9912542,486.96606637290427,1.1384889999999999,0.0,0.0,0.0,1.1384889999999999,0.0,0.0,0.0,2.0996010000000003,2
1737285432.7340503,12595,1737285432,657612800,base_link,0,1,33.6371294,72.9912544,486.9860677802216,1.1384889999999999,0.0,0.0,0.0,1.1384889999999999,0.0,0.0,0.0,2.0996010000000003,2
1737285432.835636,12596,1737285432,657609728,base_link,0,1,33.6371294,72.9912544,486.9860677802216,1.1384889999999999,0.0,0.0,0.0,1.1384889999999999,0.0,0.0,0.0,2.0996010000000003,2
1737285432.934339,12597,1737285432,857605632,base_link,0,1,33.6371294,72.9912546,487.0160685745823,1.1384889999999999,0.0,0.0,0.0,1.1384889999999999,0.0,0.0,0.0,2.1025,2
1737285433.035222,12598,1737285432,857601536,base_link,0,1,33.6371294,72.9912546,487.0160685745823,1.1384889999999999,0.0,0.0,0.0,1.1384889999999999,0.0,0.0,0.0,2.1025,2
1737285433.1340077,12599,1737285433,57594880,base_link,0,1,33.6371294,72.9912548,487.0360693689429,1.140624,0.0,0.0,0.0,1.140624,0.0,0.0,0.0,2.1025,2
1737285433.233556,12600,1737285433,57589504,base_link,0,1,33.6371294,72.9912548,487.0360693689429,1.140624,0.0,0.0,0.0,1.140624,0.0,0.0,0.0,2.1025,2
1737285433.332403,12601,1737285433,257588736,base_link,0,1,33.6371294,72.9912551,487.08607056048413,1.140624,0.0,0.0,0.0,1.140624,0.0,0.0,0.0,2.1025,2
1737285433.434553,12602,1737285433,257582080,base_link,0,1,33.6371294,72.9912551,487.08607056048413,1.140624,0.0,0.0,0.0,1.140624,0.0,0.0,0.0,2.1025,2
1737285433.5335445,12603,1737285433,457578240,base_link,0,1,33.6371294,72.9912553,487.10607135484514,1.140624,0.0,0.0,0.0,1.140624,0.0,0.0,0.0,2.1025,2
1737285433.6344914,12604,1737285433,457570048,base_link,0,1,33.6371294,72.9912553,487.10607135484514,1.140624,0.0,0.0,0.0,1.140624,0.0,0.0,0.0,2.1025,2
1737285433.7344933,12605,1737285433,657567232,base_link,0,1,33.6371294,72.9912555,487.1460721492061,1.140624,0.0,0.0,0.0,1.140624,0.0,0.0,0.0,2.105401,2
1737285433.8315604,12606,1737285433,657563904,base_link,0,1,33.6371294,72.9912555,487.1460721492061,1.140624,0.0,0.0,0.0,1.140624,0.0,0.0,0.0,2.105401,2
1737285433.9330115,12607,1737285433,857560576,base_link,0,1,33.6371294,72.9912557,487.1760729435672,1.1384889999999999,0.0,0.0,0.0,1.1384889999999999,0.0,0.0,0.0,2.105401,2
1737285434.0331175,12608,1737285433,857557248,base_link,0,1,33.6371294,72.9912557,487.1760729435672,1.1384889999999999,0.0,0.0,0.0,1.1384889999999999,0.0,0.0,0.0,2.105401,2
1737285434.136004,12609,1737285434,57556224,base_link,0,1,33.6371293,72.9912558,487.1860727277903,1.1384889999999999,0.0,0.0,0.0,1.1384889999999999,0.0,0.0,0.0,2.105401,2
1737285434.234495,12610,1737285434,57552128,base_link,0,1,33.6371293,72.9912558,487.1860727277903,1.1384889999999999,0.0,0.0,0.0,1.1384889999999999,0.0,0.0,0.0,2.105401,2
1737285434.3315225,12611,1737285434,257547520,base_link,0,1,33.6371293,72.9912559,487.2260731249709,1.1384889999999999,0.0,0.0,0.0,1.1384889999999999,0.0,0.0,0.0,2.105401,2
1737285434.43299,12612,1737285434,257544192,base_link,0,1,33.6371293,72.9912559,487.2260731249709,1.1384889999999999,0.0,0.0,0.0,1.1384889999999999,0.0,0.0,0.0,2.105401,2
1737285434.5315616,12613,1737285434,457536768,base_link,0,1,33.6371293,72.991256,487.2560735221515,1.1384889999999999,0.0,0.0,0.0,1.1384889999999999,0.0,0.0,0.0,2.105401,2
1737285434.6334732,12614,1737285434,457532416,base_link,0,1,33.6371293,72.991256,487.2560735221515,1.1384889999999999,0.0,0.0,0.0,1.1384889999999999,0.0,0.0,0.0,2.105401,2
1737285434.734839,12615,1737285434,657529088,base_link,0,1,33.6371292,72.991256,487.266072909194,1.1363560000000001,0.0,0.0,0.0,1.1363560000000001,0.0,0.0,0.0,2.105401,2
1737285434.8338401,12616,1737285434,657521920,base_link,0,1,33.6371292,72.991256,487.266072909194,1.1363560000000001,0.0,0.0,0.0,1.1363560000000001,0.0,0.0,0.0,2.105401,2
1737285434.9350476,12617,1737285434,857518080,base_link,0,1,33.6371291,72.9912561,487.29607269341716,1.1363560000000001,0.0,0.0,0.0,1.1363560000000001,0.0,0.0,0.0,2.105401,2
1737285435.031664,12618,1737285434,857512704,base_link,0,1,33.6371291,72.9912561,487.29607269341716,1.1363560000000001,0.0,0.0,0.0,1.1363560000000001,0.0,0.0,0.0,2.105401,2
1737285435.1343272,12619,1737285435,57508864,base_link,0,1,33.637129,72.9912561,487.3160720804598,1.1363560000000001,0.0,0.0,0.0,1.1363560000000001,0.0,0.0,0.0,2.105401,2
1737285435.2336211,12620,1737285435,57504768,base_link,0,1,33.637129,72.9912561,487.3160720804598,1.1363560000000001,0.0,0.0,0.0,1.1363560000000001,0.0,0.0,0.0,2.105401,2
1737285435.3331885,12621,1737285435,257500160,base_link,0,1,33.6371288,72.9912561,487.34607085454536,1.1363560000000001,0.0,0.0,0.0,1.1363560000000001,0.0,0.0,0.0,2.108304,2
1737285435.4333465,12622,1737285435,257494016,base_link,0,1,33.6371288,72.9912561,487.34607085454536,1.1363560000000001,0.0,0.0,0.0,1.1363560000000001,0.0,0.0,0.0,2.108304,2
1737285435.5327637,12623,1737285435,457487104,base_link,0,1,33.6371288,72.9912562,487.3860712517257,1.1363560000000001,0.0,0.0,0.0,1.1363560000000001,0.0,0.0,0.0,2.108304,2
1737285435.6348271,12624,1737285435,457479936,base_link,0,1,33.6371288,72.9912562,487.3860712517257,1.1363560000000001,0.0,0.0,0.0,1.1363560000000001,0.0,0.0,0.0,2.108304,2
1737285435.734327,12625,1737285435,657475840,base_link,0,1,33.6371288,72.9912561,487.4260708545453,1.1363560000000001,0.0,0.0,0.0,1.1363560000000001,0.0,0.0,0.0,2.108304,2
1737285435.8344908,12626,1737285435,657470464,base_link,0,1,33.6371288,72.9912561,487.4260708545453,1.1363560000000001,0.0,0.0,0.0,1.1363560000000001,0.0,0.0,0.0,2.108304,2
1737285435.9359694,12627,1737285435,857464576,base_link,0,1,33.6371287,72.9912561,487.4560702415882,1.1363560000000001,0.0,0.0,0.0,1.1363560000000001,0.0,0.0,0.0,2.108304,2
1737285436.0332353,12628,1737285435,857459968,base_link,0,1,33.6371287,72.9912561,487.4560702415882,1.1363560000000001,0.0,0.0,0.0,1.1363560000000001,0.0,0.0,0.0,2.108304,2
1737285436.136047,12629,1737285436,57455616,base_link,0,1,33.6371287,72.9912562,487.4860706387686,1.1363560000000001,0.0,0.0,0.0,1.1363560000000001,0.0,0.0,0.0,2.108304,2
1737285436.2365105,12630,1737285436,57450496,base_link,0,1,33.6371287,72.9912562,487.4860706387686,1.1363560000000001,0.0,0.0,0.0,1.1363560000000001,0.0,0.0,0.0,2.108304,2
1737285436.3415773,12631,1737285436,257443840,base_link,0,1,33.6371286,72.9912563,487.5060704229919,1.1342249999999998,0.0,0.0,0.0,1.1342249999999998,0.0,0.0,0.0,2.108304,2
1737285436.437951,12632,1737285436,257440768,base_link,0,1,33.6371286,72.9912563,487.5060704229919,1.1342249999999998,0.0,0.0,0.0,1.1342249999999998,0.0,0.0,0.0,2.108304,2
1737285436.5369375,12633,1737285436,457436928,base_link,0,1,33.6371286,72.9912563,487.5360704229919,1.1342249999999998,0.0,0.0,0.0,1.1342249999999998,0.0,0.0,0.0,2.108304,2
1737285436.6426394,12634,1737285436,457433088,base_link,0,1,33.6371286,72.9912563,487.5360704229919,1.1342249999999998,0.0,0.0,0.0,1.1342249999999998,0.0,0.0,0.0,2.108304,2
1737285436.7405612,12635,1737285436,657430272,base_link,0,1,33.6371285,72.9912564,487.55607020721527,1.1342249999999998,0.0,0.0,0.0,1.1342249999999998,0.0,0.0,0.0,2.108304,2
1737285436.8309743,12636,1737285436,657426432,base_link,0,1,33.6371285,72.9912564,487.55607020721527,1.1342249999999998,0.0,0.0,0.0,1.1342249999999998,0.0,0.0,0.0,2.108304,2
1737285436.9435873,12637,1737285436,857420288,base_link,0,1,33.6371284,72.9912564,487.5760695942583,1.1320960000000002,0.0,0.0,0.0,1.1320960000000002,0.0,0.0,0.0,2.108304,2
1737285437.0400987,12638,1737285436,857416960,base_link,0,1,33.6371284,72.9912564,487.5760695942583,1.1320960000000002,0.0,0.0,0.0,1.1320960000000002,0.0,0.0,0.0,2.108304,2
1737285437.1407266,12639,1737285437,57407744,base_link,0,1,33.6371282,72.9912564,487.58606836834457,1.1299689999999998,0.0,0.0,0.0,1.1299689999999998,0.0,0.0,0.0,2.108304,2
1737285437.2370193,12640,1737285437,57401600,base_link,0,1,33.6371282,72.9912564,487.58606836834457,1.1299689999999998,0.0,0.0,0.0,1.1299689999999998,0.0,0.0,0.0,2.108304,2
1737285437.3336673,12641,1737285437,257398784,base_link,0,1,33.6371281,72.9912565,487.6160681525682,1.1299689999999998,0.0,0.0,0.0,1.1299689999999998,0.0,0.0,0.0,2.108304,2
1737285437.4340093,12642,1737285437,257395200,base_link,0,1,33.6371281,72.9912565,487.6160681525682,1.1299689999999998,0.0,0.0,0.0,1.1299689999999998,0.0,0.0,0.0,2.108304,2
1737285437.5330913,12643,1737285437,457390336,base_link,0,1,33.637128,72.9912564,487.6460671424314,1.127844,0.0,0.0,0.0,1.127844,0.0,0.0,0.0,2.105401,2
1737285437.6340663,12644,1737285437,457387008,base_link,0,1,33.637128,72.9912564,487.6460671424314,1.127844,0.0,0.0,0.0,1.127844,0.0,0.0,0.0,2.105401,2
1737285437.732895,12645,1737285437,657384192,base_link,0,1,33.6371279,72.9912564,487.65606652947486,1.125721,0.0,0.0,0.0,1.125721,0.0,0.0,0.0,2.105401,2
1737285437.832197,12646,1737285437,657378304,base_link,0,1,33.6371279,72.9912564,487.65606652947486,1.125721,0.0,0.0,0.0,1.125721,0.0,0.0,0.0,2.105401,2
1737285437.9341183,12647,1737285437,857373696,base_link,0,1,33.6371278,72.9912564,487.6860659165184,1.125721,0.0,0.0,0.0,1.125721,0.0,0.0,0.0,2.105401,2
1737285438.0349574,12648,1737285437,857367296,base_link,0,1,33.6371278,72.9912564,487.6860659165184,1.125721,0.0,0.0,0.0,1.125721,0.0,0.0,0.0,2.105401,2
1737285438.1349714,12649,1737285438,57361152,base_link,0,1,33.6371277,72.9912563,487.70606490638204,1.1236000000000002,0.0,0.0,0.0,1.1236000000000002,0.0,0.0,0.0,2.1025,2
1737285438.23696,12650,1737285438,57354752,base_link,0,1,33.6371277,72.9912563,487.70606490638204,1.1236000000000002,0.0,0.0,0.0,1.1236000000000002,0.0,0.0,0.0,2.1025,2
1737285438.3345017,12651,1737285438,257349888,base_link,0,1,33.6371276,72.9912563,487.72606429342596,1.1236000000000002,0.0,0.0,0.0,1.1236000000000002,0.0,0.0,0.0,2.1025,2
1737285438.4332004,12652,1737285438,257341952,base_link,0,1,33.6371276,72.9912563,487.72606429342596,1.1236000000000002,0.0,0.0,0.0,1.1236000000000002,0.0,0.0,0.0,2.1025,2
1737285438.5312724,12653,1737285438,457332736,base_link,0,1,33.6371276,72.9912562,487.72606389624593,1.121481,0.0,0.0,0.0,1.121481,0.0,0.0,0.0,2.1025,2
1737285438.6334515,12654,1737285438,457326080,base_link,0,1,33.6371276,72.9912562,487.72606389624593,1.121481,0.0,0.0,0.0,1.121481,0.0,0.0,0.0,2.1025,2
1737285438.7314107,12655,1737285438,657321984,base_link,0,1,33.6371275,72.9912561,487.74606288611005,1.121481,0.0,0.0,0.0,1.121481,0.0,0.0,0.0,2.1025,2
1737285438.833476,12656,1737285438,657317120,base_link,0,1,33.6371275,72.9912561,487.74606288611005,1.121481,0.0,0.0,0.0,1.121481,0.0,0.0,0.0,2.1025,2
1737285438.9344401,12657,1737285438,857310720,base_link,0,1,33.6371274,72.9912561,487.7560622731541,1.119364,0.0,0.0,0.0,1.119364,0.0,0.0,0.0,2.1025,2
1737285439.0328565,12658,1737285438,857306624,base_link,0,1,33.6371274,72.9912561,487.7560622731541,1.119364,0.0,0.0,0.0,1.119364,0.0,0.0,0.0,2.1025,2
1737285439.1349103,12659,1737285439,57306624,base_link,0,1,33.6371274,72.9912561,487.7760622731541,1.117249,0.0,0.0,0.0,1.117249,0.0,0.0,0.0,2.0996010000000003,2
1737285439.2308724,12660,1737285439,57294848,base_link,0,1,33.6371274,72.9912561,487.7760622731541,1.117249,0.0,0.0,0.0,1.117249,0.0,0.0,0.0,2.0996010000000003,2
1737285439.332894,12661,1737285439,257280512,base_link,0,1,33.6371273,72.9912561,487.7960616601983,1.117249,0.0,0.0,0.0,1.117249,0.0,0.0,0.0,2.1025,2
1737285439.4338439,12662,1737285439,257269504,base_link,0,1,33.6371273,72.9912561,487.7960616601983,1.117249,0.0,0.0,0.0,1.117249,0.0,0.0,0.0,2.1025,2
1737285439.5327213,12663,1737285439,457270272,base_link,0,1,33.6371272,72.991256,487.81606065006275,1.117249,0.0,0.0,0.0,1.117249,0.0,0.0,0.0,2.105401,2
1737285439.631587,12664,1737285439,457264896,base_link,0,1,33.6371272,72.991256,487.81606065006275,1.117249,0.0,0.0,0.0,1.117249,0.0,0.0,0.0,2.105401,2
1737285439.7358375,12665,1737285439,657259008,base_link,0,1,33.6371271,72.9912561,487.84606043428687,1.1151360000000001,0.0,0.0,0.0,1.1151360000000001,0.0,0.0,0.0,2.105401,2
1737285439.8317072,12666,1737285439,657252096,base_link,0,1,33.6371271,72.9912561,487.84606043428687,1.1151360000000001,0.0,0.0,0.0,1.1151360000000001,0.0,0.0,0.0,2.105401,2
1737285439.9350817,12667,1737285439,857246720,base_link,0,1,33.6371271,72.9912562,487.8660608314665,1.1151360000000001,0.0,0.0,0.0,1.1151360000000001,0.0,0.0,0.0,2.108304,2
1737285440.0323644,12668,1737285439,857242624,base_link,0,1,33.6371271,72.9912562,487.8660608314665,1.1151360000000001,0.0,0.0,0.0,1.1151360000000001,0.0,0.0,0.0,2.108304,2
1737285440.1343899,12669,1737285440,57236736,base_link,0,1,33.637127,72.9912563,487.8860606156906,1.1151360000000001,0.0,0.0,0.0,1.1151360000000001,0.0,0.0,0.0,2.111209,2
1737285440.2324855,12670,1737285440,57232128,base_link,0,1,33.637127,72.9912563,487.8860606156906,1.1151360000000001,0.0,0.0,0.0,1.1151360000000001,0.0,0.0,0.0,2.111209,2
1737285440.3335924,12671,1737285440,257224192,base_link,0,1,33.637127,72.9912563,487.8960606156906,1.1151360000000001,0.0,0.0,0.0,1.1151360000000001,0.0,0.0,0.0,2.1141159999999997,2
1737285440.4333584,12672,1737285440,257223168,base_link,0,1,33.637127,72.9912563,487.8960606156906,1.1151360000000001,0.0,0.0,0.0,1.1151360000000001,0.0,0.0,0.0,2.1141159999999997,2
1737285440.532678,12673,1737285440,457219840,base_link,0,1,33.6371269,72.9912563,487.92606000273497,1.1151360000000001,0.0,0.0,0.0,1.1151360000000001,0.0,0.0,0.0,2.1170250000000004,2
1737285440.6337779,12674,1737285440,457213184,base_link,0,1,33.6371269,72.9912563,487.92606000273497,1.1151360000000001,0.0,0.0,0.0,1.1151360000000001,0.0,0.0,0.0,2.1170250000000004,2
1737285440.7322643,12675,1737285440,657208064,base_link,0,1,33.6371269,72.9912563,487.93606000273496,1.1151360000000001,0.0,0.0,0.0,1.1151360000000001,0.0,0.0,0.0,2.1228490000000004,2
1737285440.8331208,12676,1737285440,657201920,base_link,0,1,33.6371269,72.9912563,487.93606000273496,1.1151360000000001,0.0,0.0,0.0,1.1151360000000001,0.0,0.0,0.0,2.1228490000000004,2
1737285440.9316301,12677,1737285440,857199872,base_link,0,1,33.6371269,72.9912563,487.95606000273494,1.113025,0.0,0.0,0.0,1.113025,0.0,0.0,0.0,2.1257639999999998,2
1737285441.034639,12678,1737285440,857195776,base_link,0,1,33.6371269,72.9912563,487.95606000273494,1.113025,0.0,0.0,0.0,1.113025,0.0,0.0,0.0,2.1257639999999998,2
1737285441.1341472,12679,1737285441,57189376,base_link,0,1,33.637127,72.9912563,487.98606061569063,1.113025,0.0,0.0,0.0,1.113025,0.0,0.0,0.0,2.1286810000000003,2
1737285441.2326186,12680,1737285441,57186816,base_link,0,1,33.637127,72.9912563,487.98606061569063,1.113025,0.0,0.0,0.0,1.113025,0.0,0.0,0.0,2.1286810000000003,2
1737285441.3345,12681,1737285441,257181440,base_link,0,1,33.637127,72.9912562,487.9960602185109,1.113025,0.0,0.0,0.0,1.113025,0.0,0.0,0.0,2.1315999999999997,2
1737285441.433724,12682,1737285441,257176320,base_link,0,1,33.637127,72.9912562,487.9960602185109,1.113025,0.0,0.0,0.0,1.113025,0.0,0.0,0.0,2.1315999999999997,2
1737285441.5342455,12683,1737285441,457171712,base_link,0,1,33.637127,72.9912561,488.0060598213313,1.110916,0.0,0.0,0.0,1.110916,0.0,0.0,0.0,2.1345210000000003,2
1737285441.6343324,12684,1737285441,457169408,base_link,0,1,33.637127,72.9912561,488.0060598213313,1.110916,0.0,0.0,0.0,1.110916,0.0,0.0,0.0,2.1345210000000003,2
1737285441.732839,12685,1737285441,657165568,base_link,0,1,33.6371271,72.991256,488.02606003710713,1.110916,0.0,0.0,0.0,1.110916,0.0,0.0,0.0,2.1345210000000003,2
1737285441.831391,12686,1737285441,657162752,base_link,0,1,33.6371271,72.991256,488.02606003710713,1.110916,0.0,0.0,0.0,1.110916,0.0,0.0,0.0,2.1345210000000003,2
1737285441.9335723,12687,1737285441,857158912,base_link,0,1,33.6371271,72.9912559,488.0460596399275,1.110916,0.0,0.0,0.0,1.110916,0.0,0.0,0.0,2.1345210000000003,2
1737285442.0330875,12688,1737285441,857153280,base_link,0,1,33.6371271,72.9912559,488.0460596399275,1.110916,0.0,0.0,0.0,1.110916,0.0,0.0,0.0,2.1345210000000003,2
1737285442.1354454,12689,1737285442,57144576,base_link,0,1,33.6371272,72.9912559,488.06606025288306,1.108809,0.0,0.0,0.0,1.108809,0.0,0.0,0.0,2.1345210000000003,2
1737285442.2332034,12690,1737285442,57140480,base_link,0,1,33.6371272,72.9912559,488.06606025288306,1.108809,0.0,0.0,0.0,1.108809,0.0,0.0,0.0,2.1345210000000003,2
1737285442.3344717,12691,1737285442,257134336,base_link,0,1,33.6371272,72.9912557,488.0660594585237,1.108809,0.0,0.0,0.0,1.108809,0.0,0.0,0.0,2.1345210000000003,2
1737285442.4331422,12692,1737285442,257130496,base_link,0,1,33.6371272,72.9912557,488.0660594585237,1.108809,0.0,0.0,0.0,1.108809,0.0,0.0,0.0,2.1345210000000003,2
1737285442.5339248,12693,1737285442,457130240,base_link,0,1,33.6371271,72.9912556,488.06605844838873,1.108809,0.0,0.0,0.0,1.108809,0.0,0.0,0.0,2.1345210000000003,2
1737285442.6348424,12694,1737285442,457126912,base_link,0,1,33.6371271,72.9912556,488.06605844838873,1.108809,0.0,0.0,0.0,1.108809,0.0,0.0,0.0,2.1345210000000003,2
1737285442.7323632,12695,1737285442,657122816,base_link,0,1,33.637127,72.9912555,488.09605743825387,1.108809,0.0,0.0,0.0,1.108809,0.0,0.0,0.0,2.137444,2
1737285442.8330085,12696,1737285442,657116672,base_link,0,1,33.637127,72.9912555,488.09605743825387,1.108809,0.0,0.0,0.0,1.108809,0.0,0.0,0.0,2.137444,2
1737285442.9370387,12697,1737285442,857113088,base_link,0,1,33.637127,72.9912554,488.0960570410744,1.108809,0.0,0.0,0.0,1.108809,0.0,0.0,0.0,2.137444,2
1737285443.0329013,12698,1737285442,857110016,base_link,0,1,33.637127,72.9912554,488.0960570410744,1.108809,0.0,0.0,0.0,1.108809,0.0,0.0,0.0,2.137444,2
1737285443.13734,12699,1737285443,57106944,base_link,0,1,33.6371269,72.9912553,488.0660560309397,1.108809,0.0,0.0,0.0,1.108809,0.0,0.0,0.0,2.140369,2
1737285443.236272,12700,1737285443,57104128,base_link,0,1,33.6371269,72.9912553,488.0660560309397,1.108809,0.0,0.0,0.0,1.108809,0.0,0.0,0.0,2.140369,2
1737285443.335008,12701,1737285443,257097216,base_link,0,1,33.6371269,72.9912552,488.0660556337603,1.108809,0.0,0.0,0.0,1.108809,0.0,0.0,0.0,2.140369,2
1737285443.4337986,12702,1737285443,257091072,base_link,0,1,33.6371269,72.9912552,488.0660556337603,1.108809,0.0,0.0,0.0,1.108809,0.0,0.0,0.0,2.140369,2
1737285443.5336106,12703,1737285443,457082624,base_link,0,1,33.6371268,72.9912552,488.06605502080527,1.108809,0.0,0.0,0.0,1.108809,0.0,0.0,0.0,2.143296,2
1737285443.637758,12704,1737285443,457075200,base_link,0,1,33.6371268,72.9912552,488.06605502080527,1.108809,0.0,0.0,0.0,1.108809,0.0,0.0,0.0,2.143296,2
1737285443.7389495,12705,1737285443,657071616,base_link,0,1,33.6371267,72.9912551,488.0460540106711,1.110916,0.0,0.0,0.0,1.110916,0.0,0.0,0.0,2.1462250000000003,2
1737285443.8406544,12706,1737285443,657064960,base_link,0,1,33.6371267,72.9912551,488.0460540106711,1.110916,0.0,0.0,0.0,1.110916,0.0,0.0,0.0,2.1462250000000003,2
1737285443.9423122,12707,1737285443,857056256,base_link,0,1,33.6371266,72.9912551,488.06605339771636,1.110916,0.0,0.0,0.0,1.110916,0.0,0.0,0.0,2.1462250000000003,2
1737285444.0375543,12708,1737285443,857049856,base_link,0,1,33.6371266,72.9912551,488.06605339771636,1.110916,0.0,0.0,0.0,1.110916,0.0,0.0,0.0,2.1462250000000003,2
1737285444.1311488,12709,1737285444,57044992,base_link,0,1,33.6371265,72.9912551,488.07605278476166,1.110916,0.0,0.0,0.0,1.110916,0.0,0.0,0.0,2.1462250000000003,2
1737285444.2322242,12710,1737285444,57039360,base_link,0,1,33.6371265,72.9912551,488.07605278476166,1.110916,0.0,0.0,0.0,1.110916,0.0,0.0,0.0,2.1462250000000003,2
1737285444.3349006,12711,1737285444,257031424,base_link,0,1,33.6371265,72.9912553,488.09605357912017,1.110916,0.0,0.0,0.0,1.110916,0.0,0.0,0.0,2.1462250000000003,2
1737285444.4340253,12712,1737285444,257025024,base_link,0,1,33.6371265,72.9912553,488.09605357912017,1.110916,0.0,0.0,0.0,1.110916,0.0,0.0,0.0,2.1462250000000003,2
1737285444.5318048,12713,1737285444,457018112,base_link,0,1,33.6371265,72.9912554,488.10605397629934,1.110916,0.0,0.0,0.0,1.110916,0.0,0.0,0.0,2.149156,2
1737285444.632047,12714,1737285444,457012736,base_link,0,1,33.6371265,72.9912554,488.10605397629934,1.110916,0.0,0.0,0.0,1.110916,0.0,0.0,0.0,2.149156,2
1737285444.7342641,12715,1737285444,657009408,base_link,0,1,33.6371265,72.9912554,488.1160539762993,1.110916,0.0,0.0,0.0,1.110916,0.0,0.0,0.0,2.149156,2
1737285444.8381941,12716,1737285444,657002752,base_link,0,1,33.6371265,72.9912554,488.1160539762993,1.110916,0.0,0.0,0.0,1.110916,0.0,0.0,0.0,2.149156,2
1737285444.93572,12717,1737285444,856997120,base_link,0,1,33.6371265,72.9912554,488.1260539762993,1.113025,0.0,0.0,0.0,1.113025,0.0,0.0,0.0,2.149156,2
1737285445.0359306,12718,1737285444,856989440,base_link,0,1,33.6371265,72.9912554,488.1260539762993,1.113025,0.0,0.0,0.0,1.113025,0.0,0.0,0.0,2.149156,2
1737285445.133939,12719,1737285445,56986112,base_link,0,1,33.6371265,72.9912555,488.1460543734786,1.113025,0.0,0.0,0.0,1.113025,0.0,0.0,0.0,2.149156,2
1737285445.2330275,12720,1737285445,56982528,base_link,0,1,33.6371265,72.9912555,488.1460543734786,1.113025,0.0,0.0,0.0,1.113025,0.0,0.0,0.0,2.149156,2
1737285445.332171,12721,1737285445,256977152,base_link,0,1,33.6371265,72.9912556,488.17605477065786,1.113025,0.0,0.0,0.0,1.113025,0.0,0.0,0.0,2.149156,2
1737285445.4321456,12722,1737285445,256965376,base_link,0,1,33.6371265,72.9912556,488.17605477065786,1.113025,0.0,0.0,0.0,1.113025,0.0,0.0,0.0,2.149156,2
1737285445.5331645,12723,1737285445,456957952,base_link,0,1,33.6371265,72.9912556,488.20605477065783,1.113025,0.0,0.0,0.0,1.113025,0.0,0.0,0.0,2.152089,2
1737285445.6313012,12724,1737285445,456954112,base_link,0,1,33.6371265,72.9912556,488.20605477065783,1.113025,0.0,0.0,0.0,1.113025,0.0,0.0,0.0,2.152089,2
1737285445.7349102,12725,1737285445,656953344,base_link,0,1,33.6371265,72.9912555,488.21605437347864,1.113025,0.0,0.0,0.0,1.113025,0.0,0.0,0.0,2.152089,2
1737285445.8331785,12726,1737285445,656948992,base_link,0,1,33.6371265,72.9912555,488.21605437347864,1.113025,0.0,0.0,0.0,1.113025,0.0,0.0,0.0,2.152089,2
1737285445.933081,12727,1737285445,856948992,base_link,0,1,33.6371266,72.9912556,488.2360553836129,1.113025,0.0,0.0,0.0,1.113025,0.0,0.0,0.0,2.152089,2
1737285446.0349078,12728,1737285445,856938752,base_link,0,1,33.6371266,72.9912556,488.2360553836129,1.113025,0.0,0.0,0.0,1.113025,0.0,0.0,0.0,2.152089,2
1737285446.131215,12729,1737285446,56927744,base_link,0,1,33.6371265,72.9912556,488.2360547706579,1.113025,0.0,0.0,0.0,1.113025,0.0,0.0,0.0,2.152089,2
1737285446.2349846,12730,1737285446,56924160,base_link,0,1,33.6371265,72.9912556,488.2360547706579,1.113025,0.0,0.0,0.0,1.113025,0.0,0.0,0.0,2.152089,2
1737285446.333075,12731,1737285446,256917760,base_link,0,1,33.6371266,72.9912557,488.2560557807921,1.1151360000000001,0.0,0.0,0.0,1.1151360000000001,0.0,0.0,0.0,2.155024,2
1737285446.4361622,12732,1737285446,256911616,base_link,0,1,33.6371266,72.9912557,488.2560557807921,1.1151360000000001,0.0,0.0,0.0,1.1151360000000001,0.0,0.0,0.0,2.155024,2
1737285446.5312288,12733,1737285446,456904960,base_link,0,1,33.6371266,72.9912557,488.2760557807921,1.1151360000000001,0.0,0.0,0.0,1.1151360000000001,0.0,0.0,0.0,2.155024,2
1737285446.6323516,12734,1737285446,456901888,base_link,0,1,33.6371266,72.9912557,488.2760557807921,1.1151360000000001,0.0,0.0,0.0,1.1151360000000001,0.0,0.0,0.0,2.155024,2
1737285446.7314756,12735,1737285446,656896256,base_link,0,1,33.6371266,72.9912557,488.2960557807921,1.1151360000000001,0.0,0.0,0.0,1.1151360000000001,0.0,0.0,0.0,2.1579610000000002,2
1737285446.8323424,12736,1737285446,656892672,base_link,0,1,33.6371266,72.9912557,488.2960557807921,1.1151360000000001,0.0,0.0,0.0,1.1151360000000001,0.0,0.0,0.0,2.1579610000000002,2
1737285446.9360247,12737,1737285446,856886784,base_link,0,1,33.6371267,72.9912558,488.3260567909266,1.1151360000000001,0.0,0.0,0.0,1.1151360000000001,0.0,0.0,0.0,2.1579610000000002,2
1737285447.0349126,12738,1737285446,856881408,base_link,0,1,33.6371267,72.9912558,488.3260567909266,1.1151360000000001,0.0,0.0,0.0,1.1151360000000001,0.0,0.0,0.0,2.1579610000000002,2
1737285447.1343102,12739,1737285447,56881408,base_link,0,1,33.6371267,72.9912558,488.3460567909267,1.1151360000000001,0.0,0.0,0.0,1.1151360000000001,0.0,0.0,0.0,2.1579610000000002,2
1737285447.2329683,12740,1737285447,56876544,base_link,0,1,33.6371267,72.9912558,488.3460567909267,1.1151360000000001,0.0,0.0,0.0,1.1151360000000001,0.0,0.0,0.0,2.1579610000000002,2
1737285447.335236,12741,1737285447,256872192,base_link,0,1,33.6371268,72.9912559,488.3760578010613,1.1151360000000001,0.0,0.0,0.0,1.1151360000000001,0.0,0.0,0.0,2.1579610000000002,2
1737285447.4313648,12742,1737285447,256866560,base_link,0,1,33.6371268,72.9912559,488.3760578010613,1.1151360000000001,0.0,0.0,0.0,1.1151360000000001,0.0,0.0,0.0,2.1579610000000002,2
1737285447.5322337,12743,1737285447,456861952,base_link,0,1,33.6371268,72.9912559,488.38605780106127,1.117249,0.0,0.0,0.0,1.117249,0.0,0.0,0.0,2.1609,2
1737285447.6324127,12744,1737285447,456858880,base_link,0,1,33.6371268,72.9912559,488.38605780106127,1.117249,0.0,0.0,0.0,1.117249,0.0,0.0,0.0,2.1609,2
1737285447.7347088,12745,1737285447,656852224,base_link,0,1,33.6371268,72.9912559,488.38605780106127,1.1151360000000001,0.0,0.0,0.0,1.1151360000000001,0.0,0.0,0.0,2.1609,2
1737285447.8463607,12746,1737285447,656847872,base_link,0,1,33.6371268,72.9912559,488.38605780106127,1.1151360000000001,0.0,0.0,0.0,1.1151360000000001,0.0,0.0,0.0,2.1609,2
1737285447.9357276,12747,1737285447,856839424,base_link,0,1,33.6371269,72.9912557,488.38605761965755,1.1151360000000001,0.0,0.0,0.0,1.1151360000000001,0.0,0.0,0.0,2.1609,2
1737285448.0330257,12748,1737285447,856832512,base_link,0,1,33.6371269,72.9912557,488.38605761965755,1.1151360000000001,0.0,0.0,0.0,1.1151360000000001,0.0,0.0,0.0,2.1609,2
1737285448.1340697,12749,1737285448,56827648,base_link,0,1,33.637127,72.9912556,488.3960578354334,1.1151360000000001,0.0,0.0,0.0,1.1151360000000001,0.0,0.0,0.0,2.1609,2
1737285448.2333033,12750,1737285448,56823040,base_link,0,1,33.637127,72.9912556,488.3960578354334,1.1151360000000001,0.0,0.0,0.0,1.1151360000000001,0.0,0.0,0.0,2.1609,2
1737285448.333303,12751,1737285448,256816384,base_link,0,1,33.637127,72.9912555,488.3960574382538,1.1151360000000001,0.0,0.0,0.0,1.1151360000000001,0.0,0.0,0.0,2.1609,2
1737285448.4323068,12752,1737285448,256812800,base_link,0,1,33.637127,72.9912555,488.3960574382538,1.1151360000000001,0.0,0.0,0.0,1.1151360000000001,0.0,0.0,0.0,2.1609,2
1737285448.5332625,12753,1737285448,456809216,base_link,0,1,33.6371271,72.9912553,488.38605725685017,1.113025,0.0,0.0,0.0,1.113025,0.0,0.0,0.0,2.1609,2
1737285448.6335459,12754,1737285448,456803584,base_link,0,1,33.6371271,72.9912553,488.38605725685017,1.113025,0.0,0.0,0.0,1.113025,0.0,0.0,0.0,2.1609,2
1737285448.7350347,12755,1737285448,656801792,base_link,0,1,33.6371271,72.9912553,488.40605725685015,1.113025,0.0,0.0,0.0,1.113025,0.0,0.0,0.0,2.1609,2
1737285448.831815,12756,1737285448,656798464,base_link,0,1,33.6371271,72.9912553,488.40605725685015,1.113025,0.0,0.0,0.0,1.113025,0.0,0.0,0.0,2.1609,2
1737285448.9363697,12757,1737285448,856796672,base_link,0,1,33.6371271,72.9912551,488.4060564624912,1.110916,0.0,0.0,0.0,1.110916,0.0,0.0,0.0,2.1609,2
1737285449.0332546,12758,1737285448,856790016,base_link,0,1,33.6371271,72.9912551,488.4060564624912,1.110916,0.0,0.0,0.0,1.110916,0.0,0.0,0.0,2.1609,2
1737285449.134282,12759,1737285449,56785664,base_link,0,1,33.6371271,72.991255,488.41605606531175,1.110916,0.0,0.0,0.0,1.110916,0.0,0.0,0.0,2.1609,2
1737285449.2360241,12760,1737285449,56782848,base_link,0,1,33.6371271,72.991255,488.41605606531175,1.110916,0.0,0.0,0.0,1.110916,0.0,0.0,0.0,2.1609,2
1737285449.3348458,12761,1737285449,256776960,base_link,0,1,33.6371271,72.9912549,488.4360556681323,1.108809,0.0,0.0,0.0,1.108809,0.0,0.0,0.0,2.1609,2
1737285449.4317412,12762,1737285449,256771840,base_link,0,1,33.6371271,72.9912549,488.4360556681323,1.108809,0.0,0.0,0.0,1.108809,0.0,0.0,0.0,2.1609,2
1737285449.5339565,12763,1737285449,456768512,base_link,0,1,33.6371271,72.9912548,488.466055270953,1.1067040000000001,0.0,0.0,0.0,1.1067040000000001,0.0,0.0,0.0,2.1609,2
1737285449.632092,12764,1737285449,456760832,base_link,0,1,33.6371271,72.9912548,488.466055270953,1.1067040000000001,0.0,0.0,0.0,1.1067040000000001,0.0,0.0,0.0,2.1609,2
1737285449.733114,12765,1737285449,656754432,base_link,0,1,33.637127,72.9912546,488.4960538636394,1.1067040000000001,0.0,0.0,0.0,1.1067040000000001,0.0,0.0,0.0,2.1609,2
1737285449.8418143,12766,1737285449,656749056,base_link,0,1,33.637127,72.9912546,488.4960538636394,1.1067040000000001,0.0,0.0,0.0,1.1067040000000001,0.0,0.0,0.0,2.1609,2
1737285449.9420562,12767,1737285449,856743168,base_link,0,1,33.6371268,72.9912543,488.4960514461922,1.1067040000000001,0.0,0.0,0.0,1.1067040000000001,0.0,0.0,0.0,2.163841,2
1737285450.0366008,12768,1737285449,856736256,base_link,0,1,33.6371268,72.9912543,488.4960514461922,1.1067040000000001,0.0,0.0,0.0,1.1067040000000001,0.0,0.0,0.0,2.163841,2
1737285450.1420684,12769,1737285450,56728832,base_link,0,1,33.6371265,72.9912541,488.526048812971,1.1067040000000001,0.0,0.0,0.0,1.1067040000000001,0.0,0.0,0.0,2.163841,2
1737285450.2390754,12770,1737285450,56720640,base_link,0,1,33.6371265,72.9912541,488.526048812971,1.1067040000000001,0.0,0.0,0.0,1.1067040000000001,0.0,0.0,0.0,2.163841,2
1737285450.340799,12771,1737285450,256714240,base_link,0,1,33.637126,72.9912539,488.54604495384353,1.1067040000000001,0.0,0.0,0.0,1.1067040000000001,0.0,0.0,0.0,2.166784,2
1737285450.4361374,12772,1737285450,256705280,base_link,0,1,33.637126,72.9912539,488.54604495384353,1.1067040000000001,0.0,0.0,0.0,1.1067040000000001,0.0,0.0,0.0,2.166784,2
1737285450.5348358,12773,1737285450,456699136,base_link,0,1,33.6371253,72.9912535,488.5860390744565,1.1067040000000001,0.0,0.0,0.0,1.1067040000000001,0.0,0.0,0.0,2.166784,2
1737285450.6343334,12774,1737285450,456695040,base_link,0,1,33.6371253,72.9912535,488.5860390744565,1.1067040000000001,0.0,0.0,0.0,1.1067040000000001,0.0,0.0,0.0,2.166784,2
1737285450.7313259,12775,1737285450,656692224,base_link,0,1,33.6371245,72.991253,488.60603218494686,1.104601,0.0,0.0,0.0,1.104601,0.0,0.0,0.0,2.1697290000000002,2
1737285450.831731,12776,1737285450,656686592,base_link,0,1,33.6371245,72.991253,488.60603218494686,1.104601,0.0,0.0,0.0,1.104601,0.0,0.0,0.0,2.1697290000000002,2
1737285450.9366083,12777,1737285450,856681984,base_link,0,1,33.6371235,72.9912527,488.6360248638996,1.104601,0.0,0.0,0.0,1.104601,0.0,0.0,0.0,2.172676,2
1737285451.033638,12778,1737285450,856680192,base_link,0,1,33.6371235,72.9912527,488.6360248638996,1.104601,0.0,0.0,0.0,1.104601,0.0,0.0,0.0,2.172676,2
1737285451.1343002,12779,1737285451,56673280,base_link,0,1,33.6371223,72.9912522,488.63601552261093,1.1025,0.0,0.0,0.0,1.1025,0.0,0.0,0.0,2.172676,2
1737285451.2352152,12780,1737285451,56669440,base_link,0,1,33.6371223,72.9912522,488.63601552261093,1.1025,0.0,0.0,0.0,1.1025,0.0,0.0,0.0,2.172676,2
1737285451.334189,12781,1737285451,256661504,base_link,0,1,33.6371212,72.9912518,488.6760071914655,1.1025,0.0,0.0,0.0,1.1025,0.0,0.0,0.0,2.178576,2
1737285451.4350042,12782,1737285451,256655872,base_link,0,1,33.6371212,72.9912518,488.6760071914655,1.1025,0.0,0.0,0.0,1.1025,0.0,0.0,0.0,2.178576,2
1737285451.538261,12783,1737285451,456652032,base_link,0,1,33.63712,72.9912515,488.7059986445631,1.104601,0.0,0.0,0.0,1.104601,0.0,0.0,0.0,2.184484,2
1737285451.633749,12784,1737285451,456646912,base_link,0,1,33.63712,72.9912515,488.7059986445631,1.104601,0.0,0.0,0.0,1.104601,0.0,0.0,0.0,2.184484,2
1737285451.733719,12785,1737285451,656662528,base_link,0,1,33.6371188,72.9912511,488.7259897005021,1.1067040000000001,0.0,0.0,0.0,1.1067040000000001,0.0,0.0,0.0,2.1933610000000003,2
1737285451.8347447,12786,1737285451,656658176,base_link,0,1,33.6371188,72.9912511,488.7259897005021,1.1067040000000001,0.0,0.0,0.0,1.1067040000000001,0.0,0.0,0.0,2.1933610000000003,2
1737285451.9363565,12787,1737285451,856649984,base_link,0,1,33.6371176,72.9912507,488.7159807564584,1.110916,0.0,0.0,0.0,1.110916,0.0,0.0,0.0,2.2022559999999998,2
1737285452.0516386,12788,1737285451,856646144,base_link,0,1,33.6371176,72.9912507,488.7159807564584,1.110916,0.0,0.0,0.0,1.110916,0.0,0.0,0.0,2.2022559999999998,2
1737285452.1337621,12789,1737285452,56646144,base_link,0,1,33.6371164,72.9912502,488.75597141525833,1.113025,0.0,0.0,0.0,1.113025,0.0,0.0,0.0,2.208196,2
1737285452.23305,12790,1737285452,56646144,base_link,0,1,33.6371164,72.9912502,488.75597141525833,1.113025,0.0,0.0,0.0,1.113025,0.0,0.0,0.0,2.208196,2
1737285452.3330033,12791,1737285452,256632064,base_link,0,1,33.6371149,72.9912498,488.79596063242354,1.1151360000000001,0.0,0.0,0.0,1.1151360000000001,0.0,0.0,0.0,2.208196,2
1737285452.4352484,12792,1737285452,256629248,base_link,0,1,33.6371149,72.9912498,488.79596063242354,1.1151360000000001,0.0,0.0,0.0,1.1151360000000001,0.0,0.0,0.0,2.208196,2
1737285452.5346239,12793,1737285452,456625152,base_link,0,1,33.6371134,72.9912492,488.8159490552699,1.113025,0.0,0.0,0.0,1.113025,0.0,0.0,0.0,2.2111690000000004,2
1737285452.6333866,12794,1737285452,456620032,base_link,0,1,33.6371134,72.9912492,488.8159490552699,1.113025,0.0,0.0,0.0,1.113025,0.0,0.0,0.0,2.2111690000000004,2
1737285452.7337897,12795,1737285452,656611328,base_link,0,1,33.6371118,72.9912486,488.8859368652064,1.113025,0.0,0.0,0.0,1.113025,0.0,0.0,0.0,2.2111690000000004,2
1737285452.8343692,12796,1737285452,656605184,base_link,0,1,33.6371118,72.9912486,488.8859368652064,1.113025,0.0,0.0,0.0,1.113025,0.0,0.0,0.0,2.2111690000000004,2
1737285452.9347696,12797,1737285452,856600320,base_link,0,1,33.6371102,72.9912478,488.90592388083394,1.110916,0.0,0.0,0.0,1.110916,0.0,0.0,0.0,2.2111690000000004,2
1737285453.0353823,12798,1737285452,856598784,base_link,0,1,33.6371102,72.9912478,488.90592388083394,1.110916,0.0,0.0,0.0,1.110916,0.0,0.0,0.0,2.2111690000000004,2
1737285453.1323643,12799,1737285453,56593408,base_link,0,1,33.6371086,72.9912467,488.8959097049884,1.108809,0.0,0.0,0.0,1.108809,0.0,0.0,0.0,2.2111690000000004,2
1737285453.2316408,12800,1737285453,56587008,base_link,0,1,33.6371086,72.9912467,488.8959097049884,1.108809,0.0,0.0,0.0,1.108809,0.0,0.0,0.0,2.2111690000000004,2
1737285453.3334434,12801,1737285453,256583936,base_link,0,1,33.6371071,72.9912458,488.9158969364541,1.108809,0.0,0.0,0.0,1.108809,0.0,0.0,0.0,2.2111690000000004,2
1737285453.4357166,12802,1737285453,256578560,base_link,0,1,33.6371071,72.9912458,488.9158969364541,1.108809,0.0,0.0,0.0,1.108809,0.0,0.0,0.0,2.2111690000000004,2
1737285453.5348186,12803,1737285453,456571648,base_link,0,1,33.6371055,72.9912448,488.9358831578542,1.108809,0.0,0.0,0.0,1.108809,0.0,0.0,0.0,2.2111690000000004,2
1737285453.6318214,12804,1737285453,456568064,base_link,0,1,33.6371055,72.9912448,488.9358831578542,1.108809,0.0,0.0,0.0,1.108809,0.0,0.0,0.0,2.2111690000000004,2
1737285453.7355738,12805,1737285453,656560384,base_link,0,1,33.6371039,72.991244,489.0158701736269,1.108809,0.0,0.0,0.0,1.108809,0.0,0.0,0.0,2.2111690000000004,2
1737285453.834451,12806,1737285453,656552448,base_link,0,1,33.6371039,72.991244,489.0158701736269,1.108809,0.0,0.0,0.0,1.108809,0.0,0.0,0.0,2.2111690000000004,2
1737285453.9369543,12807,1737285453,856548096,base_link,0,1,33.6371023,72.9912431,489.07585679226906,1.110916,0.0,0.0,0.0,1.110916,0.0,0.0,0.0,2.2111690000000004,2
1737285454.0302968,12808,1737285453,856543232,base_link,0,1,33.6371023,72.9912431,489.07585679226906,1.110916,0.0,0.0,0.0,1.110916,0.0,0.0,0.0,2.2111690000000004,2
1737285454.146883,12809,1737285454,56537344,base_link,0,1,33.6371005,72.9912423,489.1358425822614,1.110916,0.0,0.0,0.0,1.110916,0.0,0.0,0.0,2.214144,2
1737285454.2314243,12810,1737285454,56531968,base_link,0,1,33.6371005,72.9912423,489.1358425822614,1.110916,0.0,0.0,0.0,1.110916,0.0,0.0,0.0,2.214144,2
1737285454.3305435,12811,1737285454,256526848,base_link,0,1,33.6370986,72.9912414,489.16582736220874,1.113025,0.0,0.0,0.0,1.113025,0.0,0.0,0.0,2.217121,2
1737285454.4321928,12812,1737285454,256521216,base_link,0,1,33.6370986,72.9912414,489.16582736220874,1.113025,0.0,0.0,0.0,1.113025,0.0,0.0,0.0,2.217121,2
1737285454.5406296,12813,1737285454,456515840,base_link,0,1,33.6370967,72.9912405,489.19581214220494,1.113025,0.0,0.0,0.0,1.113025,0.0,0.0,0.0,2.217121,2
1737285454.6334236,12814,1737285454,456513280,base_link,0,1,33.6370967,72.9912405,489.19581214220494,1.113025,0.0,0.0,0.0,1.113025,0.0,0.0,0.0,2.217121,2
1737285454.7304475,12815,1737285454,656508928,base_link,0,1,33.6370948,72.9912396,489.2157969222501,1.113025,0.0,0.0,0.0,1.113025,0.0,0.0,0.0,2.2201,2
1737285454.831581,12816,1737285454,656504320,base_link,0,1,33.6370948,72.9912396,489.2157969222501,1.113025,0.0,0.0,0.0,1.113025,0.0,0.0,0.0,2.2201,2
1737285454.9395645,12817,1737285454,856500736,base_link,0,1,33.637093,72.9912387,489.24578231526175,1.110916,0.0,0.0,0.0,1.110916,0.0,0.0,0.0,2.226064,2
1737285455.0309458,12818,1737285454,856496640,base_link,0,1,33.637093,72.9912387,489.24578231526175,1.110916,0.0,0.0,0.0,1.110916,0.0,0.0,0.0,2.226064,2
1737285455.1337528,12819,1737285455,56487424,base_link,0,1,33.6370913,72.9912378,489.26576832123396,1.110916,0.0,0.0,0.0,1.110916,0.0,0.0,0.0,2.2290490000000003,2
1737285455.2320662,12820,1737285455,56482560,base_link,0,1,33.6370913,72.9912378,489.26576832123396,1.110916,0.0,0.0,0.0,1.110916,0.0,0.0,0.0,2.2290490000000003,2
1737285455.331574,12821,1737285455,256479232,base_link,0,1,33.6370898,72.9912371,489.29575634739314,1.113025,0.0,0.0,0.0,1.113025,0.0,0.0,0.0,2.2350250000000003,2
1737285455.4354749,12822,1737285455,256476928,base_link,0,1,33.6370898,72.9912371,489.29575634739314,1.113025,0.0,0.0,0.0,1.113025,0.0,0.0,0.0,2.2350250000000003,2
1737285455.5422952,12823,1737285455,456472832,base_link,0,1,33.6370886,72.9912365,489.32574660947887,1.1151360000000001,0.0,0.0,0.0,1.1151360000000001,0.0,0.0,0.0,2.2350250000000003,2
1737285455.640468,12824,1737285455,456466944,base_link,0,1,33.6370886,72.9912365,489.32574660947887,1.1151360000000001,0.0,0.0,0.0,1.1151360000000001,0.0,0.0,0.0,2.2350250000000003,2
1737285455.7389839,12825,1737285455,656464640,base_link,0,1,33.6370877,72.9912361,489.38573950463535,1.1151360000000001,0.0,0.0,0.0,1.1151360000000001,0.0,0.0,0.0,2.2350250000000003,2
1737285455.8402848,12826,1737285455,656457472,base_link,0,1,33.6370877,72.9912361,489.38573950463535,1.1151360000000001,0.0,0.0,0.0,1.1151360000000001,0.0,0.0,0.0,2.2350250000000003,2
1737285455.930213,12827,1737285455,856452352,base_link,0,1,33.6370872,72.9912359,489.4457356457619,1.117249,0.0,0.0,0.0,1.117249,0.0,0.0,0.0,2.2350250000000003,2
1737285456.03187,12828,1737285455,856447232,base_link,0,1,33.6370872,72.9912359,489.4457356457619,1.117249,0.0,0.0,0.0,1.117249,0.0,0.0,0.0,2.2350250000000003,2
1737285456.1349604,12829,1737285456,56440832,base_link,0,1,33.6370871,72.9912359,489.49573503285063,1.117249,0.0,0.0,0.0,1.117249,0.0,0.0,0.0,2.232036,2
1737285456.2334301,12830,1737285456,56439040,base_link,0,1,33.6370871,72.9912359,489.49573503285063,1.117249,0.0,0.0,0.0,1.117249,0.0,0.0,0.0,2.232036,2
1737285456.3331256,12831,1737285456,256433664,base_link,0,1,33.6370872,72.991236,489.5157360429195,1.1151360000000001,0.0,0.0,0.0,1.1151360000000001,0.0,0.0,0.0,2.2290490000000003,2
1737285456.4320211,12832,1737285456,256428032,base_link,0,1,33.6370872,72.991236,489.5157360429195,1.1151360000000001,0.0,0.0,0.0,1.1151360000000001,0.0,0.0,0.0,2.2290490000000003,2
1737285456.532045,12833,1737285456,456423168,base_link,0,1,33.637088,72.9912363,489.56574213768727,1.117249,0.0,0.0,0.0,1.117249,0.0,0.0,0.0,2.232036,2
1737285456.633261,12834,1737285456,456416000,base_link,0,1,33.637088,72.9912363,489.56574213768727,1.117249,0.0,0.0,0.0,1.117249,0.0,0.0,0.0,2.232036,2
1737285456.733407,12835,1737285456,656413440,base_link,0,1,33.637089,72.9912366,489.57574945828947,1.119364,0.0,0.0,0.0,1.119364,0.0,0.0,0.0,2.2350250000000003,2
1737285456.8344162,12836,1737285456,656409856,base_link,0,1,33.637089,72.9912366,489.57574945828947,1.119364,0.0,0.0,0.0,1.119364,0.0,0.0,0.0,2.2350250000000003,2
1737285456.9368026,12837,1737285456,856401152,base_link,0,1,33.6370904,72.9912371,489.5957600248797,1.121481,0.0,0.0,0.0,1.121481,0.0,0.0,0.0,2.2410090000000005,2
1737285457.0371675,12838,1737285456,856391680,base_link,0,1,33.6370904,72.9912371,489.5957600248797,1.121481,0.0,0.0,0.0,1.121481,0.0,0.0,0.0,2.2410090000000005,2
1737285457.1355772,12839,1737285457,56391680,base_link,0,1,33.6370921,72.9912379,489.63577362172344,1.1236000000000002,0.0,0.0,0.0,1.1236000000000002,0.0,0.0,0.0,2.2410090000000005,2
1737285457.2345607,12840,1737285457,56380672,base_link,0,1,33.6370921,72.9912379,489.63577362172344,1.1236000000000002,0.0,0.0,0.0,1.1236000000000002,0.0,0.0,0.0,2.2410090000000005,2
1737285457.3335493,12841,1737285457,256370944,base_link,0,1,33.6370939,72.9912388,489.68578822868585,1.125721,0.0,0.0,0.0,1.125721,0.0,0.0,0.0,2.244004,2
1737285457.4329035,12842,1737285457,256364032,base_link,0,1,33.6370939,72.9912388,489.68578822868585,1.125721,0.0,0.0,0.0,1.125721,0.0,0.0,0.0,2.244004,2
1737285457.5321577,12843,1737285457,456364032,base_link,0,1,33.6370959,72.9912397,489.78580406153435,1.127844,0.0,0.0,0.0,1.127844,0.0,0.0,0.0,2.2470010000000005,2
1737285457.6312137,12844,1737285457,456364032,base_link,0,1,33.6370959,72.9912397,489.78580406153435,1.127844,0.0,0.0,0.0,1.127844,0.0,0.0,0.0,2.2470010000000005,2
1737285457.7302907,12845,1737285457,656364800,base_link,0,1,33.6370978,72.9912405,489.83581888434986,1.127844,0.0,0.0,0.0,1.127844,0.0,0.0,0.0,2.2470010000000005,2
1737285457.8348892,12846,1737285457,656358656,base_link,0,1,33.6370978,72.9912405,489.83581888434986,1.127844,0.0,0.0,0.0,1.127844,0.0,0.0,0.0,2.2470010000000005,2
1737285457.9341927,12847,1737285457,856352256,base_link,0,1,33.6370998,72.9912413,489.8558343201371,1.1299689999999998,0.0,0.0,0.0,1.1299689999999998,0.0,0.0,0.0,2.25,2
1737285458.0333161,12848,1737285457,856347136,base_link,0,1,33.6370998,72.9912413,489.8558343201371,1.1299689999999998,0.0,0.0,0.0,1.1299689999999998,0.0,0.0,0.0,2.25,2
1737285458.1342182,12849,1737285458,56340480,base_link,0,1,33.6371019,72.9912422,489.9158507660678,1.1299689999999998,0.0,0.0,0.0,1.1299689999999998,0.0,0.0,0.0,2.253001,2
1737285458.2326114,12850,1737285458,56338176,base_link,0,1,33.6371019,72.9912422,489.9158507660678,1.1299689999999998,0.0,0.0,0.0,1.1299689999999998,0.0,0.0,0.0,2.253001,2
1737285458.3302898,12851,1737285458,256333568,base_link,0,1,33.6371041,72.991243,489.9558674278189,1.127844,0.0,0.0,0.0,1.127844,0.0,0.0,0.0,2.253001,2
1737285458.4344482,12852,1737285458,256330240,base_link,0,1,33.6371041,72.991243,489.9558674278189,1.127844,0.0,0.0,0.0,1.127844,0.0,0.0,0.0,2.253001,2
1737285458.530244,12853,1737285458,456327424,base_link,0,1,33.6371063,72.9912438,489.96588408963004,1.127844,0.0,0.0,0.0,1.127844,0.0,0.0,0.0,2.253001,2
1737285458.6338136,12854,1737285458,456322304,base_link,0,1,33.6371063,72.9912438,489.96588408963004,1.127844,0.0,0.0,0.0,1.127844,0.0,0.0,0.0,2.253001,2
1737285458.7311678,12855,1737285458,656319488,base_link,0,1,33.6371084,72.9912446,489.9859001385669,1.127844,0.0,0.0,0.0,1.127844,0.0,0.0,0.0,2.256004,2
1737285458.8322792,12856,1737285458,656315904,base_link,0,1,33.6371084,72.9912446,489.9859001385669,1.127844,0.0,0.0,0.0,1.127844,0.0,0.0,0.0,2.256004,2
1737285458.9341705,12857,1737285458,856310016,base_link,0,1,33.6371106,72.9912455,489.9859171976654,1.127844,0.0,0.0,0.0,1.127844,0.0,0.0,0.0,2.256004,2
1737285459.0366576,12858,1737285458,856308224,base_link,0,1,33.6371106,72.9912455,489.9859171976654,1.127844,0.0,0.0,0.0,1.127844,0.0,0.0,0.0,2.256004,2
1737285459.13207,12859,1737285459,56308224,base_link,0,1,33.6371128,72.9912462,489.96593346248375,1.127844,0.0,0.0,0.0,1.127844,0.0,0.0,0.0,2.259009,2
1737285459.233853,12860,1737285459,56303616,base_link,0,1,33.6371128,72.9912462,489.96593346248375,1.127844,0.0,0.0,0.0,1.127844,0.0,0.0,0.0,2.259009,2
1737285459.3340437,12861,1737285459,256299264,base_link,0,1,33.6371151,72.991247,489.94595073747286,1.127844,0.0,0.0,0.0,1.127844,0.0,0.0,0.0,2.262016,2
1737285459.4315283,12862,1737285459,256294400,base_link,0,1,33.6371151,72.991247,489.94595073747286,1.127844,0.0,0.0,0.0,1.127844,0.0,0.0,0.0,2.262016,2
1737285459.5293705,12863,1737285459,456286208,base_link,0,1,33.6371175,72.9912479,489.93596902264363,1.127844,0.0,0.0,0.0,1.127844,0.0,0.0,0.0,2.2650249999999996,2
1737285459.6326628,12864,1737285459,456280832,base_link,0,1,33.6371175,72.9912479,489.93596902264363,1.127844,0.0,0.0,0.0,1.127844,0.0,0.0,0.0,2.2650249999999996,2
1737285459.731049,12865,1737285459,656274688,base_link,0,1,33.6371201,72.9912488,489.9359885337785,1.127844,0.0,0.0,0.0,1.127844,0.0,0.0,0.0,2.2650249999999996,2
1737285459.8343785,12866,1737285459,656267776,base_link,0,1,33.6371201,72.9912488,489.9359885337785,1.127844,0.0,0.0,0.0,1.127844,0.0,0.0,0.0,2.2650249999999996,2
1737285459.9337318,12867,1737285459,856264704,base_link,0,1,33.6371227,72.99125,489.9460092365249,1.127844,0.0,0.0,0.0,1.127844,0.0,0.0,0.0,2.268036,2
1737285460.0304615,12868,1737285459,856258560,base_link,0,1,33.6371227,72.99125,489.9460092365249,1.127844,0.0,0.0,0.0,1.127844,0.0,0.0,0.0,2.268036,2
1737285460.1353502,12869,1737285460,56253184,base_link,0,1,33.6371254,72.9912512,489.9960305523139,1.127844,0.0,0.0,0.0,1.127844,0.0,0.0,0.0,2.268036,2
1737285460.2342212,12870,1737285460,56249600,base_link,0,1,33.6371254,72.9912512,489.9960305523139,1.127844,0.0,0.0,0.0,1.127844,0.0,0.0,0.0,2.268036,2
1737285460.3312268,12871,1737285460,256243712,base_link,0,1,33.6371283,72.9912523,489.99605269692995,1.127844,0.0,0.0,0.0,1.127844,0.0,0.0,0.0,2.268036,2
1737285460.4353116,12872,1737285460,256235264,base_link,0,1,33.6371283,72.9912523,489.99605269692995,1.127844,0.0,0.0,0.0,1.127844,0.0,0.0,0.0,2.268036,2
1737285460.5332785,12873,1737285460,456228352,base_link,0,1,33.6371313,72.9912536,490.0160762489713,1.1299689999999998,0.0,0.0,0.0,1.1299689999999998,0.0,0.0,0.0,2.268036,2
1737285460.6333923,12874,1737285460,456222464,base_link,0,1,33.6371313,72.9912536,490.0160762489713,1.1299689999999998,0.0,0.0,0.0,1.1299689999999998,0.0,0.0,0.0,2.268036,2
1737285460.732361,12875,1737285460,656214784,base_link,0,1,33.6371344,72.9912548,489.9961000169096,1.1299689999999998,0.0,0.0,0.0,1.1299689999999998,0.0,0.0,0.0,2.2710489999999997,2
1737285460.8322113,12876,1737285460,656210944,base_link,0,1,33.6371344,72.9912548,489.9961000169096,1.1299689999999998,0.0,0.0,0.0,1.1299689999999998,0.0,0.0,0.0,2.2710489999999997,2
1737285460.9330263,12877,1737285460,856207104,base_link,0,1,33.6371378,72.9912563,490.0261268154171,1.1320960000000002,0.0,0.0,0.0,1.1320960000000002,0.0,0.0,0.0,2.274064,2
1737285461.0393984,12878,1737285460,856199168,base_link,0,1,33.6371378,72.9912563,490.0261268154171,1.1320960000000002,0.0,0.0,0.0,1.1320960000000002,0.0,0.0,0.0,2.274064,2
1737285461.1392403,12879,1737285461,56191744,base_link,0,1,33.637141,72.9912576,490.0061515937673,1.1342249999999998,0.0,0.0,0.0,1.1342249999999998,0.0,0.0,0.0,2.277081,2
1737285461.2395265,12880,1737285461,56186112,base_link,0,1,33.637141,72.9912576,490.0061515937673,1.1342249999999998,0.0,0.0,0.0,1.1342249999999998,0.0,0.0,0.0,2.277081,2
1737285461.3375869,12881,1737285461,256181248,base_link,0,1,33.6371444,72.991259,490.04617799538073,1.1384889999999999,0.0,0.0,0.0,1.1384889999999999,0.0,0.0,0.0,2.2801,2
1737285461.4353945,12882,1737285461,256174336,base_link,0,1,33.6371444,72.991259,490.04617799538073,1.1384889999999999,0.0,0.0,0.0,1.1384889999999999,0.0,0.0,0.0,2.2801,2
1737285461.5365348,12883,1737285461,456168704,base_link,0,1,33.6371477,72.9912604,490.10620378416735,1.140624,0.0,0.0,0.0,1.140624,0.0,0.0,0.0,2.2831209999999995,2
1737285461.634089,12884,1737285461,456166144,base_link,0,1,33.6371477,72.9912604,490.10620378416735,1.140624,0.0,0.0,0.0,1.140624,0.0,0.0,0.0,2.2831209999999995,2
1737285461.731844,12885,1737285461,656162560,base_link,0,1,33.6371511,72.9912619,490.12623058326636,1.142761,0.0,0.0,0.0,1.142761,0.0,0.0,0.0,2.286144,2
1737285461.8328555,12886,1737285461,656158720,base_link,0,1,33.6371511,72.9912619,490.12623058326636,1.142761,0.0,0.0,0.0,1.142761,0.0,0.0,0.0,2.286144,2
1737285461.9347305,12887,1737285461,856151296,base_link,0,1,33.6371545,72.9912633,490.1162569853246,1.142761,0.0,0.0,0.0,1.142761,0.0,0.0,0.0,2.286144,2
1737285462.0311594,12888,1737285461,856145152,base_link,0,1,33.6371545,72.9912633,490.1162569853246,1.142761,0.0,0.0,0.0,1.142761,0.0,0.0,0.0,2.286144,2
1737285462.1300292,12889,1737285462,56140544,base_link,0,1,33.6371579,72.9912647,490.14628338753164,1.142761,0.0,0.0,0.0,1.142761,0.0,0.0,0.0,2.289169,2
1737285462.234761,12890,1737285462,56135936,base_link,0,1,33.6371579,72.9912647,490.14628338753164,1.142761,0.0,0.0,0.0,1.142761,0.0,0.0,0.0,2.289169,2
1737285462.3320515,12891,1737285462,258129536,base_link,0,1,33.6371612,72.991266,490.18630877970025,1.142761,0.0,0.0,0.0,1.142761,0.0,0.0,0.0,2.289169,2
1737285462.4345915,12892,1737285462,258126976,base_link,0,1,33.6371612,72.991266,490.18630877970025,1.142761,0.0,0.0,0.0,1.142761,0.0,0.0,0.0,2.289169,2
1737285462.533806,12893,1737285462,458123136,base_link,0,1,33.6371644,72.9912674,490.1963339562119,1.140624,0.0,0.0,0.0,1.140624,0.0,0.0,0.0,2.292196,2
1737285462.633217,12894,1737285462,458119552,base_link,0,1,33.6371644,72.9912674,490.1963339562119,1.140624,0.0,0.0,0.0,1.140624,0.0,0.0,0.0,2.292196,2
1737285462.729917,12895,1737285462,658114688,base_link,0,1,33.6371675,72.9912686,490.2363577254606,1.140624,0.0,0.0,0.0,1.140624,0.0,0.0,0.0,2.295225,2
1737285462.833517,12896,1737285462,658114688,base_link,0,1,33.6371675,72.9912686,490.2363577254606,1.140624,0.0,0.0,0.0,1.140624,0.0,0.0,0.0,2.295225,2
1737285462.93299,12897,1737285462,858103424,base_link,0,1,33.6371704,72.9912698,490.24638026883025,1.1384889999999999,0.0,0.0,0.0,1.1384889999999999,0.0,0.0,0.0,2.295225,2
1737285463.0317626,12898,1737285462,858096256,base_link,0,1,33.6371704,72.9912698,490.24638026883025,1.1384889999999999,0.0,0.0,0.0,1.1384889999999999,0.0,0.0,0.0,2.295225,2
1737285463.1367073,12899,1737285463,58091904,base_link,0,1,33.6371731,72.9912709,490.24640118909883,1.1384889999999999,0.0,0.0,0.0,1.1384889999999999,0.0,0.0,0.0,2.295225,2
1737285463.2315023,12900,1737285463,58086272,base_link,0,1,33.6371731,72.9912709,490.24640118909883,1.1384889999999999,0.0,0.0,0.0,1.1384889999999999,0.0,0.0,0.0,2.295225,2
1737285463.3349574,12901,1737285463,258078592,base_link,0,1,33.6371756,72.991272,490.26642088344926,1.1363560000000001,0.0,0.0,0.0,1.1363560000000001,0.0,0.0,0.0,2.298256,2
1737285463.4335573,12902,1737285463,258072960,base_link,0,1,33.6371756,72.991272,490.26642088344926,1.1363560000000001,0.0,0.0,0.0,1.1363560000000001,0.0,0.0,0.0,2.298256,2
1737285463.5336702,12903,1737285463,458075776,base_link,0,1,33.6371778,72.9912729,490.276437944446,1.1363560000000001,0.0,0.0,0.0,1.1363560000000001,0.0,0.0,0.0,2.298256,2
1737285463.6346388,12904,1737285463,458071168,base_link,0,1,33.6371778,72.9912729,490.276437944446,1.1363560000000001,0.0,0.0,0.0,1.1363560000000001,0.0,0.0,0.0,2.298256,2
1737285463.7324505,12905,1737285463,658067072,base_link,0,1,33.6371798,72.9912737,490.28645338227756,1.1363560000000001,0.0,0.0,0.0,1.1363560000000001,0.0,0.0,0.0,2.3012889999999997,2
1737285463.8316512,12906,1737285463,658063488,base_link,0,1,33.6371798,72.9912737,490.28645338227756,1.1363560000000001,0.0,0.0,0.0,1.1363560000000001,0.0,0.0,0.0,2.3012889999999997,2
1737285463.9319003,12907,1737285463,858058880,base_link,0,1,33.6371815,72.9912744,490.32646658391593,1.1384889999999999,0.0,0.0,0.0,1.1384889999999999,0.0,0.0,0.0,2.3012889999999997,2
1737285464.0339332,12908,1737285463,858054528,base_link,0,1,33.6371815,72.9912744,490.32646658391593,1.1384889999999999,0.0,0.0,0.0,1.1384889999999999,0.0,0.0,0.0,2.3012889999999997,2
1737285464.1363528,12909,1737285464,58051456,base_link,0,1,33.6371829,72.991275,490.36647754934233,1.1384889999999999,0.0,0.0,0.0,1.1384889999999999,0.0,0.0,0.0,2.3043240000000003,2
1737285464.2301254,12910,1737285464,58047104,base_link,0,1,33.6371829,72.991275,490.36647754934233,1.1384889999999999,0.0,0.0,0.0,1.1384889999999999,0.0,0.0,0.0,2.3043240000000003,2
1737285464.3338654,12911,1737285464,258038144,base_link,0,1,33.6371838,72.9912754,490.3564846553026,1.140624,0.0,0.0,0.0,1.140624,0.0,0.0,0.0,2.3043240000000003,2
1737285464.4297545,12912,1737285464,258032768,base_link,0,1,33.6371838,72.9912754,490.3564846553026,1.140624,0.0,0.0,0.0,1.140624,0.0,0.0,0.0,2.3043240000000003,2
1737285464.5299735,12913,1737285464,458029184,base_link,0,1,33.6371843,72.9912756,490.38648851479417,1.140624,0.0,0.0,0.0,1.140624,0.0,0.0,0.0,2.3012889999999997,2
1737285464.634943,12914,1737285464,458017920,base_link,0,1,33.6371843,72.9912756,490.38648851479417,1.140624,0.0,0.0,0.0,1.140624,0.0,0.0,0.0,2.3012889999999997,2
1737285464.7339444,12915,1737285464,658016896,base_link,0,1,33.6371844,72.9912757,490.39648952501835,1.140624,0.0,0.0,0.0,1.140624,0.0,0.0,0.0,2.3012889999999997,2
1737285464.830308,12916,1737285464,658012544,base_link,0,1,33.6371844,72.9912757,490.39648952501835,1.140624,0.0,0.0,0.0,1.140624,0.0,0.0,0.0,2.3012889999999997,2
1737285464.9330454,12917,1737285464,858005632,base_link,0,1,33.637184,72.9912755,490.43648627854054,1.1384889999999999,0.0,0.0,0.0,1.1384889999999999,0.0,0.0,0.0,2.298256,2
