Time,header.seq,header.stamp.secs,header.stamp.nsecs,header.frame_id,voltage,temperature,current,charge,capacity,design_capacity,percentage,power_supply_status,power_supply_health,power_supply_technology,present,cell_voltage_0,location,serial_number
1737285429.2386124,12561,1737285429,238023873,,0.7289999723434448,0.0,-0.9200000166893005,nan,nan,nan,0.800000011920929,2,0,0,True,0.7289999723434448,id0,
1737285429.346565,12562,1737285429,345336503,,0.7260000109672546,0.0,-0.9100000262260437,nan,nan,nan,0.800000011920929,2,0,0,True,0.7260000109672546,id0,
1737285429.448356,12563,1737285429,448057429,,0.7229999899864197,0.0,-0.9100000262260437,nan,nan,nan,0.800000011920929,2,0,0,True,0.7229999899864197,id0,
1737285429.547373,12564,1737285429,547059484,,0.7250000238418579,0.0,-0.9100000262260437,nan,nan,nan,0.800000011920929,2,0,0,True,0.7250000238418579,id0,
1737285429.64839,12565,1737285429,648070040,,0.718999981880188,0.0,-0.9300000071525574,nan,nan,nan,0.800000011920929,2,0,0,True,0.718999981880188,id0,
1737285429.7444456,12566,1737285429,744107706,,0.7239999771118164,0.0,-0.8899999856948853,nan,nan,nan,0.800000011920929,2,0,0,True,0.7239999771118164,id0,
1737285429.8497102,12567,1737285429,849116743,,0.722000002861023,0.0,-0.9100000262260437,nan,nan,nan,0.800000011920929,2,0,0,True,0.722000002861023,id0,
1737285429.9507203,12568,1737285429,950185317,,0.7300000190734863,0.0,-0.9100000262260437,nan,nan,nan,0.800000011920929,2,0,0,True,0.7300000190734863,id0,
1737285430.048774,12569,1737285430,48186225,,0.7260000109672546,0.0,-0.9399999976158142,nan,nan,nan,0.800000011920929,2,0,0,True,0.7260000109672546,id0,
1737285430.1485658,12570,1737285430,147212762,,0.7170000076293945,0.0,-0.9100000262260437,nan,nan,nan,0.800000011920929,2,0,0,True,0.7170000076293945,id0,
1737285430.2465258,12571,1737285430,246172595,,0.7200000286102295,0.0,-0.9200000166893005,nan,nan,nan,0.800000011920929,2,0,0,True,0.7200000286102295,id0,
1737285430.3445187,12572,1737285430,344179150,,0.7319999933242798,0.0,-0.9200000166893005,nan,nan,nan,0.800000011920929,2,0,0,True,0.7319999933242798,id0,
1737285430.4441047,12573,1737285430,443548224,,0.7260000109672546,0.0,-0.9100000262260437,nan,nan,nan,0.800000011920929,2,0,0,True,0.7260000109672546,id0,
1737285430.542313,12574,1737285430,541550947,,0.7229999899864197,0.0,-0.9200000166893005,nan,nan,nan,0.800000011920929,2,0,0,True,0.7229999899864197,id0,
1737285430.6393552,12575,1737285430,638589317,,0.7300000190734863,0.0,-0.9200000166893005,nan,nan,nan,0.800000011920929,2,0,0,True,0.7300000190734863,id0,
1737285430.7397137,12576,1737285430,739308706,,0.7250000238418579,0.0,-0.9100000262260437,nan,nan,nan,0.800000011920929,2,0,0,True,0.7250000238418579,id0,
1737285430.8407543,12577,1737285430,840318520,,0.7239999771118164,0.0,-0.9200000166893005,nan,nan,nan,0.800000011920929,2,0,0,True,0.7239999771118164,id0,
1737285430.9431083,12578,1737285430,942520150,,0.7160000205039978,0.0,-0.9200000166893005,nan,nan,nan,0.800000011920929,2,0,0,True,0.7160000205039978,id0,
1737285431.0407383,12579,1737285431,40335039,,0.7239999771118164,0.0,-0.9200000166893005,nan,nan,nan,0.800000011920929,2,0,0,True,0.7239999771118164,id0,
1737285431.141619,12580,1737285431,139543335,,0.7250000238418579,0.0,-0.9100000262260437,nan,nan,nan,0.800000011920929,2,0,0,True,0.7250000238418579,id0,
1737285431.238757,12581,1737285431,238375298,,0.7229999899864197,0.0,-0.9200000166893005,nan,nan,nan,0.800000011920929,2,0,0,True,0.7229999899864197,id0,
1737285431.3407946,12582,1737285431,340390557,,0.7289999723434448,0.0,-0.9200000166893005,nan,nan,nan,0.800000011920929,2,0,0,True,0.7289999723434448,id0,
1737285431.4419591,12583,1737285431,441413409,,0.7239999771118164,0.0,-0.9100000262260437,nan,nan,nan,0.800000011920929,2,0,0,True,0.7239999771118164,id0,
1737285431.5427804,12584,1737285431,542449039,,0.7279999852180481,0.0,-0.9200000166893005,nan,nan,nan,0.800000011920929,2,0,0,True,0.7279999852180481,id0,
1737285431.639706,12585,1737285431,639373076,,0.7239999771118164,0.0,-0.9200000166893005,nan,nan,nan,0.800000011920929,2,0,0,True,0.7239999771118164,id0,
1737285431.7412074,12586,1737285431,740725316,,0.7200000286102295,0.0,-0.9100000262260437,nan,nan,nan,0.800000011920929,2,0,0,True,0.7200000286102295,id0,
1737285431.8398526,12587,1737285431,838809538,,0.718999981880188,0.0,-0.9100000262260437,nan,nan,nan,0.800000011920929,2,0,0,True,0.718999981880188,id0,
1737285431.9402752,12588,1737285431,939672205,,0.7200000286102295,0.0,-0.9200000166893005,nan,nan,nan,0.800000011920929,2,0,0,True,0.7200000286102295,id0,
1737285432.0372999,12589,1737285432,36782594,,0.7229999899864197,0.0,-0.9100000262260437,nan,nan,nan,0.800000011920929,2,0,0,True,0.7229999899864197,id0,
1737285432.1427722,12590,1737285432,142446594,,0.7179999947547913,0.0,-0.9200000166893005,nan,nan,nan,0.800000011920929,2,0,0,True,0.7179999947547913,id0,
1737285432.2373528,12591,1737285432,236709409,,0.7269999980926514,0.0,-0.9200000166893005,nan,nan,nan,0.800000011920929,2,0,0,True,0.7269999980926514,id0,
1737285432.3408105,12592,1737285432,340479705,,0.722000002861023,0.0,-0.9300000071525574,nan,nan,nan,0.800000011920929,2,0,0,True,0.722000002861023,id0,
1737285432.4419262,12593,1737285432,441538186,,0.7300000190734863,0.0,-0.9200000166893005,nan,nan,nan,0.800000011920929,2,0,0,True,0.7300000190734863,id0,
1737285432.540955,12594,1737285432,540542390,,0.7200000286102295,0.0,-0.9200000166893005,nan,nan,nan,0.800000011920929,2,0,0,True,0.7200000286102295,id0,
1737285432.6439471,12595,1737285432,643506556,,0.7300000190734863,0.0,-0.9100000262260437,nan,nan,nan,0.800000011920929,2,0,0,True,0.7300000190734863,id0,
1737285432.738679,12596,1737285432,737907427,,0.7300000190734863,0.0,-0.9200000166893005,nan,nan,nan,0.800000011920929,2,0,0,True,0.718999981880188,id0,
1737285432.840437,12597,1737285432,839795890,,0.718999981880188,0.0,-0.9200000166893005,nan,nan,nan,0.800000011920929,2,0,0,True,0.722000002861023,id0,
1737285432.943903,12598,1737285432,943556760,,0.722000002861023,0.0,-0.9100000262260437,nan,nan,nan,0.800000011920929,2,0,0,True,0.7160000205039978,id0,
1737285433.0425508,12599,1737285433,41764778,,0.7160000205039978,0.0,-0.9200000166893005,nan,nan,nan,0.800000011920929,2,0,0,True,0.7269999980926514,id0,
1737285433.138889,12600,1737285433,138581630,,0.7269999980926514,0.0,-0.9100000262260437,nan,nan,nan,0.800000011920929,2,0,0,True,0.7239999771118164,id0,
1737285433.2410579,12601,1737285433,240651075,,0.7239999771118164,0.0,-0.9200000166893005,nan,nan,nan,0.800000011920929,2,0,0,True,0.7229999899864197,id0,
1737285433.3419204,12602,1737285433,341603945,,0.7229999899864197,0.0,-0.9100000262260437,nan,nan,nan,0.800000011920929,2,0,0,True,0.7229999899864197,id0,
1737285433.4411683,12603,1737285433,440677834,,0.7229999899864197,0.0,-0.9200000166893005,nan,nan,nan,0.800000011920929,2,0,0,True,0.722000002861023,id0,
1737285433.540516,12604,1737285433,539895000,,0.722000002861023,0.0,-0.9200000166893005,nan,nan,nan,0.800000011920929,2,0,0,True,0.722000002861023,id0,
1737285433.6409974,12605,1737285433,640652278,,0.7260000109672546,0.0,-0.9200000166893005,nan,nan,nan,0.800000011920929,2,0,0,True,0.7260000109672546,id0,
1737285433.7397363,12606,1737285433,739024908,,0.7319999933242798,0.0,-0.9200000166893005,nan,nan,nan,0.800000011920929,2,0,0,True,0.7319999933242798,id0,
1737285433.8381088,12607,1737285433,837673593,,0.722000002861023,0.0,-0.9200000166893005,nan,nan,nan,0.800000011920929,2,0,0,True,0.722000002861023,id0,
1737285433.940239,12608,1737285433,939754648,,0.7210000157356262,0.0,-0.9200000166893005,nan,nan,nan,0.800000011920929,2,0,0,True,0.7210000157356262,id0,
1737285434.041034,12609,1737285434,40704926,,0.7310000061988831,0.0,-0.9100000262260437,nan,nan,nan,0.800000011920929,2,0,0,True,0.7310000061988831,id0,
1737285434.1422029,12610,1737285434,141777093,,0.7229999899864197,0.0,-0.9200000166893005,nan,nan,nan,0.800000011920929,2,0,0,True,0.7229999899864197,id0,
1737285434.239651,12611,1737285434,239100981,,0.7239999771118164,0.0,-0.9200000166893005,nan,nan,nan,0.800000011920929,2,0,0,True,0.7239999771118164,id0,
1737285434.3396094,12612,1737285434,339115204,,0.7300000190734863,0.0,-0.9200000166893005,nan,nan,nan,0.800000011920929,2,0,0,True,0.7300000190734863,id0,
1737285434.4400895,12613,1737285434,439761222,,0.7319999933242798,0.0,-0.9200000166893005,nan,nan,nan,0.800000011920929,2,0,0,True,0.7319999933242798,id0,
1737285434.539133,12614,1737285434,538779185,,0.7269999980926514,0.0,-0.9100000262260437,nan,nan,nan,0.800000011920929,2,0,0,True,0.7269999980926514,id0,
1737285434.6403017,12615,1737285434,639806555,,0.7229999899864197,0.0,-0.9200000166893005,nan,nan,nan,0.800000011920929,2,0,0,True,0.7229999899864197,id0,
1737285434.739755,12616,1737285434,739104444,,0.7250000238418579,0.0,-0.9100000262260437,nan,nan,nan,0.800000011920929,2,0,0,True,0.7250000238418579,id0,
1737285434.8404036,12617,1737285434,839903074,,0.7289999723434448,0.0,-0.9300000071525574,nan,nan,nan,0.800000011920929,2,0,0,True,0.7289999723434448,id0,
1737285434.9399955,12618,1737285434,939139648,,0.7239999771118164,0.0,-0.9300000071525574,nan,nan,nan,0.800000011920929,2,0,0,True,0.7239999771118164,id0,
1737285435.0412457,12619,1737285435,40867685,,0.7289999723434448,0.0,-0.9200000166893005,nan,nan,nan,0.800000011920929,2,0,0,True,0.7289999723434448,id0,
1737285435.1421747,12620,1737285435,141862722,,0.7269999980926514,0.0,-0.9100000262260437,nan,nan,nan,0.800000011920929,2,0,0,True,0.7269999980926514,id0,
1737285435.2388866,12621,1737285435,238102240,,0.7250000238418579,0.0,-0.9200000166893005,nan,nan,nan,0.800000011920929,2,0,0,True,0.7250000238418579,id0,
1737285435.3403473,12622,1737285435,339927759,,0.7310000061988831,0.0,-0.9200000166893005,nan,nan,nan,0.800000011920929,2,0,0,True,0.7310000061988831,id0,
1737285435.4420722,12623,1737285435,441185666,,0.7239999771118164,0.0,-0.9200000166893005,nan,nan,nan,0.800000011920929,2,0,0,True,0.7239999771118164,id0,
1737285435.538042,12624,1737285435,537284370,,0.7250000238418579,0.0,-0.9100000262260437,nan,nan,nan,0.800000011920929,2,0,0,True,0.7250000238418579,id0,
1737285435.638881,12625,1737285435,638160073,,0.7310000061988831,0.0,-0.9200000166893005,nan,nan,nan,0.800000011920929,2,0,0,True,0.7310000061988831,id0,
1737285435.740978,12626,1737285435,740256166,,0.7210000157356262,0.0,-0.9200000166893005,nan,nan,nan,0.800000011920929,2,0,0,True,0.7210000157356262,id0,
1737285435.842383,12627,1737285435,842004184,,0.718999981880188,0.0,-0.9200000166893005,nan,nan,nan,0.800000011920929,2,0,0,True,0.718999981880188,id0,
1737285435.9433944,12628,1737285435,942959758,,0.722000002861023,0.0,-0.9100000262260437,nan,nan,nan,0.800000011920929,2,0,0,True,0.722000002861023,id0,
1737285436.0392804,12629,1737285436,38974628,,0.718999981880188,0.0,-0.9100000262260437,nan,nan,nan,0.800000011920929,2,0,0,True,0.718999981880188,id0,
1737285436.1433547,12630,1737285436,143004684,,0.7229999899864197,0.0,-0.9100000262260437,nan,nan,nan,0.800000011920929,2,0,0,True,0.7229999899864197,id0,
1737285436.2444484,12631,1737285436,244009554,,0.7289999723434448,0.0,-0.9300000071525574,nan,nan,nan,0.800000011920929,2,0,0,True,0.7289999723434448,id0,
1737285436.3483682,12632,1737285436,348018036,,0.7269999980926514,0.0,-0.9100000262260437,nan,nan,nan,0.800000011920929,2,0,0,True,0.7269999980926514,id0,
1737285436.4443681,12633,1737285436,444027813,,0.7279999852180481,0.0,-0.9200000166893005,nan,nan,nan,0.800000011920929,2,0,0,True,0.7279999852180481,id0,
1737285436.5433946,12634,1737285436,543055610,,0.718999981880188,0.0,-0.9100000262260437,nan,nan,nan,0.800000011920929,2,0,0,True,0.718999981880188,id0,
1737285436.64954,12635,1737285436,649122036,,0.7250000238418579,0.0,-0.9200000166893005,nan,nan,nan,0.800000011920929,2,0,0,True,0.7250000238418579,id0,
1737285436.7484975,12636,1737285436,748077573,,0.7269999980926514,0.0,-0.9100000262260437,nan,nan,nan,0.800000011920929,2,0,0,True,0.7269999980926514,id0,
1737285436.8444705,12637,1737285436,844096609,,0.7229999899864197,0.0,-0.9200000166893005,nan,nan,nan,0.800000011920929,2,0,0,True,0.7229999899864197,id0,
1737285436.9492798,12638,1737285436,948368517,,0.7350000143051147,0.0,-0.9200000166893005,nan,nan,nan,0.800000011920929,2,0,0,True,0.7350000143051147,id0,
1737285437.0464897,12639,1737285437,46141239,,0.722000002861023,0.0,-0.9200000166893005,nan,nan,nan,0.800000011920929,2,0,0,True,0.722000002861023,id0,
1737285437.1476324,12640,1737285437,147181609,,0.722000002861023,0.0,-0.9200000166893005,nan,nan,nan,0.800000011920929,2,0,0,True,0.722000002861023,id0,
1737285437.247697,12641,1737285437,247205480,,0.7239999771118164,0.0,-0.9100000262260437,nan,nan,nan,0.800000011920929,2,0,0,True,0.7239999771118164,id0,
1737285437.346075,12642,1737285437,345575128,,0.7300000190734863,0.0,-0.9200000166893005,nan,nan,nan,0.800000011920929,2,0,0,True,0.7300000190734863,id0,
1737285437.448166,12643,1737285437,447511202,,0.7229999899864197,0.0,-0.9200000166893005,nan,nan,nan,0.800000011920929,2,0,0,True,0.7229999899864197,id0,
1737285437.5495346,12644,1737285437,549180887,,0.7319999933242798,0.0,-0.9200000166893005,nan,nan,nan,0.800000011920929,2,0,0,True,0.7319999933242798,id0,
1737285437.6446664,12645,1737285437,644267350,,0.722000002861023,0.0,-0.9100000262260437,nan,nan,nan,0.800000011920929,2,0,0,True,0.722000002861023,id0,
1737285437.7394304,12646,1737285437,738580109,,0.7300000190734863,0.0,-0.9200000166893005,nan,nan,nan,0.800000011920929,2,0,0,True,0.7300000190734863,id0,
1737285437.83867,12647,1737285437,838292220,,0.7210000157356262,0.0,-0.9200000166893005,nan,nan,nan,0.800000011920929,2,0,0,True,0.7210000157356262,id0,
1737285437.9426894,12648,1737285437,942241276,,0.7279999852180481,0.0,-0.9200000166893005,nan,nan,nan,0.800000011920929,2,0,0,True,0.7279999852180481,id0,
1737285438.0405765,12649,1737285438,39611979,,0.7269999980926514,0.0,-0.9200000166893005,nan,nan,nan,0.800000011920929,2,0,0,True,0.7269999980926514,id0,
1737285438.1392207,12650,1737285438,138669072,,0.7229999899864197,0.0,-0.9200000166893005,nan,nan,nan,0.800000011920929,2,0,0,True,0.7229999899864197,id0,
1737285438.2417107,12651,1737285438,241274127,,0.7250000238418579,0.0,-0.9200000166893005,nan,nan,nan,0.800000011920929,2,0,0,True,0.7250000238418579,id0,
1737285438.3407981,12652,1737285438,340350646,,0.7239999771118164,0.0,-0.9200000166893005,nan,nan,nan,0.800000011920929,2,0,0,True,0.7239999771118164,id0,
1737285438.441837,12653,1737285438,441362516,,0.7260000109672546,0.0,-0.9200000166893005,nan,nan,nan,0.800000011920929,2,0,0,True,0.7260000109672546,id0,
1737285438.5387747,12654,1737285438,538327386,,0.7200000286102295,0.0,-0.9100000262260437,nan,nan,nan,0.800000011920929,2,0,0,True,0.7200000286102295,id0,
1737285438.6408992,12655,1737285438,640404664,,0.7269999980926514,0.0,-0.9200000166893005,nan,nan,nan,0.800000011920929,2,0,0,True,0.7269999980926514,id0,
1737285438.737806,12656,1737285438,737364812,,0.7269999980926514,0.0,-0.9200000166893005,nan,nan,nan,0.800000011920929,2,0,0,True,0.7269999980926514,id0,
1737285438.8399477,12657,1737285438,839431090,,0.7260000109672546,0.0,-0.9200000166893005,nan,nan,nan,0.800000011920929,2,0,0,True,0.7260000109672546,id0,
1737285438.9458108,12658,1737285438,945459590,,0.7239999771118164,0.0,-0.9100000262260437,nan,nan,nan,0.800000011920929,2,0,0,True,0.7239999771118164,id0,
1737285439.0398672,12659,1737285439,39412182,,0.7210000157356262,0.0,-0.9200000166893005,nan,nan,nan,0.800000011920929,2,0,0,True,0.7210000157356262,id0,
1737285439.1421537,12660,1737285439,141496590,,0.7200000286102295,0.0,-0.9200000166893005,nan,nan,nan,0.800000011920929,2,0,0,True,0.7200000286102295,id0,
1737285439.2387047,12661,1737285439,237810664,,0.722000002861023,0.0,-0.9200000166893005,nan,nan,nan,0.800000011920929,2,0,0,True,0.722000002861023,id0,
1737285439.3390393,12662,1737285439,338540108,,0.7329999804496765,0.0,-0.9200000166893005,nan,nan,nan,0.800000011920929,2,0,0,True,0.7329999804496765,id0,
1737285439.4410803,12663,1737285439,440540145,,0.7360000014305115,0.0,-0.9300000071525574,nan,nan,nan,0.800000011920929,2,0,0,True,0.7360000014305115,id0,
1737285439.5399513,12664,1737285439,539493367,,0.722000002861023,0.0,-0.9200000166893005,nan,nan,nan,0.800000011920929,2,0,0,True,0.722000002861023,id0,
1737285439.6395605,12665,1737285439,638808997,,0.7279999852180481,0.0,-0.9200000166893005,nan,nan,nan,0.800000011920929,2,0,0,True,0.7279999852180481,id0,
1737285439.7410045,12666,1737285439,739911404,,0.7269999980926514,0.0,-0.9200000166893005,nan,nan,nan,0.800000011920929,2,0,0,True,0.7269999980926514,id0,
1737285439.8410275,12667,1737285439,840511756,,0.7269999980926514,0.0,-0.9200000166893005,nan,nan,nan,0.800000011920929,2,0,0,True,0.7279999852180481,id0,
1737285439.9428937,12668,1737285439,942517293,,0.7279999852180481,0.0,-0.9100000262260437,nan,nan,nan,0.800000011920929,2,0,0,True,0.7269999980926514,id0,
1737285440.0390425,12669,1737285440,38589700,,0.7269999980926514,0.0,-0.9100000262260437,nan,nan,nan,0.800000011920929,2,0,0,True,0.7200000286102295,id0,
1737285440.1410184,12670,1737285440,140563422,,0.7200000286102295,0.0,-0.9100000262260437,nan,nan,nan,0.800000011920929,2,0,0,True,0.7179999947547913,id0,
1737285440.2378082,12671,1737285440,236956330,,0.7179999947547913,0.0,-0.9300000071525574,nan,nan,nan,0.800000011920929,2,0,0,True,0.7229999899864197,id0,
1737285440.3407652,12672,1737285440,338849552,,0.7229999899864197,0.0,-0.9200000166893005,nan,nan,nan,0.800000011920929,2,0,0,True,0.7260000109672546,id0,
1737285440.4419746,12673,1737285440,441631200,,0.7260000109672546,0.0,-0.9200000166893005,nan,nan,nan,0.800000011920929,2,0,0,True,0.7310000061988831,id0,
1737285440.539098,12674,1737285440,538688867,,0.7310000061988831,0.0,-0.9100000262260437,nan,nan,nan,0.800000011920929,2,0,0,True,0.7210000157356262,id0,
1737285440.6409733,12675,1737285440,640623533,,0.7210000157356262,0.0,-0.9300000071525574,nan,nan,nan,0.800000011920929,2,0,0,True,0.7289999723434448,id0,
1737285440.7396393,12676,1737285440,738912941,,0.7289999723434448,0.0,-0.9300000071525574,nan,nan,nan,0.800000011920929,2,0,0,True,0.7289999723434448,id0,
1737285440.83912,12677,1737285440,837967515,,0.7260000109672546,0.0,-0.9100000262260437,nan,nan,nan,0.800000011920929,2,0,0,True,0.7260000109672546,id0,
1737285440.938223,12678,1737285440,937744181,,0.7229999899864197,0.0,-0.9200000166893005,nan,nan,nan,0.800000011920929,2,0,0,True,0.7229999899864197,id0,
1737285441.044188,12679,1737285441,43709848,,0.7269999980926514,0.0,-0.9100000262260437,nan,nan,nan,0.800000011920929,2,0,0,True,0.7269999980926514,id0,
1737285441.1478076,12680,1737285441,140675255,,0.7289999723434448,0.0,-0.9200000166893005,nan,nan,nan,0.800000011920929,2,0,0,True,0.7289999723434448,id0,
1737285441.2407796,12681,1737285441,239972477,,0.7210000157356262,0.0,-0.9200000166893005,nan,nan,nan,0.800000011920929,2,0,0,True,0.7210000157356262,id0,
1737285441.3421807,12682,1737285441,341734588,,0.7260000109672546,0.0,-0.9200000166893005,nan,nan,nan,0.800000011920929,2,0,0,True,0.7260000109672546,id0,
1737285441.4412127,12683,1737285441,440746088,,0.7269999980926514,0.0,-0.9200000166893005,nan,nan,nan,0.800000011920929,2,0,0,True,0.7269999980926514,id0,
1737285441.5403564,12684,1737285441,539814755,,0.722000002861023,0.0,-0.9200000166893005,nan,nan,nan,0.800000011920929,2,0,0,True,0.722000002861023,id0,
1737285441.639931,12685,1737285441,639071181,,0.7229999899864197,0.0,-0.9100000262260437,nan,nan,nan,0.800000011920929,2,0,0,True,0.7229999899864197,id0,
1737285441.743191,12686,1737285441,742787088,,0.7269999980926514,0.0,-0.9200000166893005,nan,nan,nan,0.800000011920929,2,0,0,True,0.7269999980926514,id0,
1737285441.8411891,12687,1737285441,840788403,,0.7250000238418579,0.0,-0.9200000166893005,nan,nan,nan,0.800000011920929,2,0,0,True,0.7250000238418579,id0,
1737285441.9412718,12688,1737285441,940801736,,0.7289999723434448,0.0,-0.9100000262260437,nan,nan,nan,0.800000011920929,2,0,0,True,0.7289999723434448,id0,
1737285442.0402086,12689,1737285442,39837421,,0.718999981880188,0.0,-0.9100000262260437,nan,nan,nan,0.800000011920929,2,0,0,True,0.718999981880188,id0,
1737285442.1391704,12690,1737285442,138184421,,0.7310000061988831,0.0,-0.9200000166893005,nan,nan,nan,0.800000011920929,2,0,0,True,0.7310000061988831,id0,
1737285442.2424133,12691,1737285442,241843958,,0.7239999771118164,0.0,-0.9200000166893005,nan,nan,nan,0.800000011920929,2,0,0,True,0.7239999771118164,id0,
1737285442.3404179,12692,1737285442,339858569,,0.7279999852180481,0.0,-0.9200000166893005,nan,nan,nan,0.800000011920929,2,0,0,True,0.7279999852180481,id0,
1737285442.439456,12693,1737285442,438926977,,0.7269999980926514,0.0,-0.9100000262260437,nan,nan,nan,0.800000011920929,2,0,0,True,0.7269999980926514,id0,
1737285442.5393057,12694,1737285442,538258976,,0.722000002861023,0.0,-0.9100000262260437,nan,nan,nan,0.800000011920929,2,0,0,True,0.722000002861023,id0,
1737285442.642433,12695,1737285442,641936588,,0.7229999899864197,0.0,-0.9200000166893005,nan,nan,nan,0.800000011920929,2,0,0,True,0.7229999899864197,id0,
1737285442.7393358,12696,1737285442,738903884,,0.7279999852180481,0.0,-0.9200000166893005,nan,nan,nan,0.800000011920929,2,0,0,True,0.7279999852180481,id0,
1737285442.8391347,12697,1737285442,838251865,,0.7269999980926514,0.0,-0.9100000262260437,nan,nan,nan,0.800000011920929,2,0,0,True,0.7269999980926514,id0,
1737285442.943459,12698,1737285442,942938791,,0.7250000238418579,0.0,-0.9100000262260437,nan,nan,nan,0.800000011920929,2,0,0,True,0.7250000238418579,id0,
1737285443.0403903,12699,1737285443,39957976,,0.7229999899864197,0.0,-0.9100000262260437,nan,nan,nan,0.800000011920929,2,0,0,True,0.7229999899864197,id0,
1737285443.1447554,12700,1737285443,143833365,,0.718999981880188,0.0,-0.9200000166893005,nan,nan,nan,0.800000011920929,2,0,0,True,0.718999981880188,id0,
1737285443.2463305,12701,1737285443,245277717,,0.7269999980926514,0.0,-0.9200000166893005,nan,nan,nan,0.800000011920929,2,0,0,True,0.7269999980926514,id0,
1737285443.3391905,12702,1737285443,338671606,,0.7250000238418579,0.0,-0.9200000166893005,nan,nan,nan,0.800000011920929,2,0,0,True,0.7250000238418579,id0,
1737285443.4391422,12703,1737285443,438605624,,0.7239999771118164,0.0,-0.9200000166893005,nan,nan,nan,0.800000011920929,2,0,0,True,0.7239999771118164,id0,
1737285443.541539,12704,1737285443,541097957,,0.7239999771118164,0.0,-0.9100000262260437,nan,nan,nan,0.800000011920929,2,0,0,True,0.7239999771118164,id0,
1737285443.6455607,12705,1737285443,645121050,,0.7239999771118164,0.0,-0.9100000262260437,nan,nan,nan,0.800000011920929,2,0,0,True,0.7239999771118164,id0,
1737285443.7465377,12706,1737285443,746069365,,0.7260000109672546,0.0,-0.9100000262260437,nan,nan,nan,0.800000011920929,2,0,0,True,0.7260000109672546,id0,
1737285443.84522,12707,1737285443,844347661,,0.7229999899864197,0.0,-0.9100000262260437,nan,nan,nan,0.800000011920929,2,0,0,True,0.7229999899864197,id0,
1737285443.9528103,12708,1737285443,951164735,,0.7229999899864197,0.0,-0.9200000166893005,nan,nan,nan,0.800000011920929,2,0,0,True,0.7229999899864197,id0,
1737285444.046113,12709,1737285444,45412846,,0.7260000109672546,0.0,-0.9200000166893005,nan,nan,nan,0.800000011920929,2,0,0,True,0.7260000109672546,id0,
1737285444.1375165,12710,1737285444,137125568,,0.7229999899864197,0.0,-0.9100000262260437,nan,nan,nan,0.800000011920929,2,0,0,True,0.7229999899864197,id0,
1737285444.2384634,12711,1737285444,238131568,,0.7179999947547913,0.0,-0.9100000262260437,nan,nan,nan,0.800000011920929,2,0,0,True,0.7179999947547913,id0,
1737285444.3493268,12712,1737285444,348407549,,0.7179999947547913,0.0,-0.9200000166893005,nan,nan,nan,0.800000011920929,2,0,0,True,0.7179999947547913,id0,
1737285444.4483771,12713,1737285444,447434068,,0.7260000109672546,0.0,-0.9200000166893005,nan,nan,nan,0.800000011920929,2,0,0,True,0.7260000109672546,id0,
1737285444.54356,12714,1737285444,543177364,,0.7239999771118164,0.0,-0.9200000166893005,nan,nan,nan,0.800000011920929,2,0,0,True,0.7239999771118164,id0,
1737285444.6392095,12715,1737285444,638450883,,0.7269999980926514,0.0,-0.9200000166893005,nan,nan,nan,0.800000011920929,2,0,0,True,0.7269999980926514,id0,
1737285444.7376237,12716,1737285444,736447660,,0.7260000109672546,0.0,-0.9100000262260437,nan,nan,nan,0.800000011920929,2,0,0,True,0.7260000109672546,id0,
1737285444.8432932,12717,1737285444,842454845,,0.7269999980926514,0.0,-0.9300000071525574,nan,nan,nan,0.800000011920929,2,0,0,True,0.7269999980926514,id0,
1737285444.9416735,12718,1737285444,941222327,,0.722000002861023,0.0,-0.9100000262260437,nan,nan,nan,0.800000011920929,2,0,0,True,0.722000002861023,id0,
1737285445.042755,12719,1737285445,42245160,,0.7179999947547913,0.0,-0.9200000166893005,nan,nan,nan,0.800000011920929,2,0,0,True,0.7179999947547913,id0,
1737285445.141617,12720,1737285445,141262493,,0.7239999771118164,0.0,-0.9200000166893005,nan,nan,nan,0.800000011920929,2,0,0,True,0.7239999771118164,id0,
1737285445.241597,12721,1737285445,240565086,,0.7279999852180481,0.0,-0.9100000262260437,nan,nan,nan,0.800000011920929,2,0,0,True,0.7279999852180481,id0,
1737285445.339656,12722,1737285445,339289345,,0.7239999771118164,0.0,-0.9200000166893005,nan,nan,nan,0.800000011920929,2,0,0,True,0.7239999771118164,id0,
1737285445.438383,12723,1737285445,437564086,,0.7139999866485596,0.0,-0.9200000166893005,nan,nan,nan,0.800000011920929,2,0,0,True,0.7139999866485596,id0,
1737285445.5406406,12724,1737285445,539554586,,0.7300000190734863,0.0,-0.9200000166893005,nan,nan,nan,0.800000011920929,2,0,0,True,0.7300000190734863,id0,
1737285445.6366656,12725,1737285445,636301771,,0.7239999771118164,0.0,-0.9200000166893005,nan,nan,nan,0.800000011920929,2,0,0,True,0.7239999771118164,id0,
1737285445.7427146,12726,1737285445,742344789,,0.7329999804496765,0.0,-0.9200000166893005,nan,nan,nan,0.800000011920929,2,0,0,True,0.7329999804496765,id0,
1737285445.842695,12727,1737285445,842353289,,0.7260000109672546,0.0,-0.9100000262260437,nan,nan,nan,0.800000011920929,2,0,0,True,0.7260000109672546,id0,
1737285445.9409924,12728,1737285445,940371363,,0.7260000109672546,0.0,-0.9200000166893005,nan,nan,nan,0.800000011920929,2,0,0,True,0.7260000109672546,id0,
1737285446.0418332,12729,1737285446,41403789,,0.734000027179718,0.0,-0.9300000071525574,nan,nan,nan,0.800000011920929,2,0,0,True,0.734000027179718,id0,
1737285446.1379077,12730,1737285446,137450660,,0.722000002861023,0.0,-0.9100000262260437,nan,nan,nan,0.800000011920929,2,0,0,True,0.722000002861023,id0,
1737285446.2417455,12731,1737285446,241409382,,0.7289999723434448,0.0,-0.9100000262260437,nan,nan,nan,0.800000011920929,2,0,0,True,0.7289999723434448,id0,
1737285446.3408895,12732,1737285446,340481733,,0.7279999852180481,0.0,-0.9200000166893005,nan,nan,nan,0.800000011920929,2,0,0,True,0.7279999852180481,id0,
1737285446.4400017,12733,1737285446,439499030,,0.7269999980926514,0.0,-0.9200000166893005,nan,nan,nan,0.800000011920929,2,0,0,True,0.7269999980926514,id0,
1737285446.5407832,12734,1737285446,540450085,,0.7269999980926514,0.0,-0.9100000262260437,nan,nan,nan,0.800000011920929,2,0,0,True,0.7179999947547913,id0,
1737285446.6397963,12735,1737285446,639464604,,0.7179999947547913,0.0,-0.9200000166893005,nan,nan,nan,0.800000011920929,2,0,0,True,0.718999981880188,id0,
1737285446.7379463,12736,1737285446,737536344,,0.718999981880188,0.0,-0.9100000262260437,nan,nan,nan,0.800000011920929,2,0,0,True,0.7250000238418579,id0,
1737285446.8376098,12737,1737285446,836755659,,0.7250000238418579,0.0,-0.9100000262260437,nan,nan,nan,0.800000011920929,2,0,0,True,0.7239999771118164,id0,
1737285446.9415474,12738,1737285446,941037659,,0.7239999771118164,0.0,-0.9100000262260437,nan,nan,nan,0.800000011920929,2,0,0,True,0.7260000109672546,id0,
1737285447.045052,12739,1737285447,44522270,,0.7260000109672546,0.0,-0.9200000166893005,nan,nan,nan,0.800000011920929,2,0,0,True,0.7250000238418579,id0,
1737285447.1420362,12740,1737285447,141595381,,0.7250000238418579,0.0,-0.9100000262260437,nan,nan,nan,0.800000011920929,2,0,0,True,0.722000002861023,id0,
1737285447.2409883,12741,1737285447,240554529,,0.722000002861023,0.0,-0.9100000262260437,nan,nan,nan,0.800000011920929,2,0,0,True,0.7210000157356262,id0,
1737285447.340491,12742,1737285447,339817603,,0.7210000157356262,0.0,-0.9100000262260437,nan,nan,nan,0.800000011920929,2,0,0,True,0.722000002861023,id0,
1737285447.4398546,12743,1737285447,438860196,,0.722000002861023,0.0,-0.9100000262260437,nan,nan,nan,0.800000011920929,2,0,0,True,0.722000002861023,id0,
1737285447.5386698,12744,1737285447,537845048,,0.7229999899864197,0.0,-0.8999999761581421,nan,nan,nan,0.800000011920929,2,0,0,True,0.7229999899864197,id0,
1737285447.6407883,12745,1737285447,639897140,,0.7260000109672546,0.0,-0.9200000166893005,nan,nan,nan,0.800000011920929,2,0,0,True,0.7260000109672546,id0,
1737285447.7417498,12746,1737285447,740939270,,0.7250000238418579,0.0,-0.9200000166893005,nan,nan,nan,0.800000011920929,2,0,0,True,0.7250000238418579,id0,
1737285447.846861,12747,1737285447,839600103,,0.7269999980926514,0.0,-0.9200000166893005,nan,nan,nan,0.800000011920929,2,0,0,True,0.7269999980926514,id0,
1737285447.9419796,12748,1737285447,941647473,,0.7229999899864197,0.0,-0.9200000166893005,nan,nan,nan,0.800000011920929,2,0,0,True,0.7229999899864197,id0,
1737285448.0409985,12749,1737285448,40664547,,0.7289999723434448,0.0,-0.9200000166893005,nan,nan,nan,0.800000011920929,2,0,0,True,0.7289999723434448,id0,
1737285448.1407492,12750,1737285448,139964084,,0.7170000076293945,0.0,-0.9100000262260437,nan,nan,nan,0.800000011920929,2,0,0,True,0.7170000076293945,id0,
1737285448.2412374,12751,1737285448,240740918,,0.7319999933242798,0.0,-0.9200000166893005,nan,nan,nan,0.800000011920929,2,0,0,True,0.7319999933242798,id0,
1737285448.3390326,12752,1737285448,337952621,,0.7300000190734863,0.0,-0.9200000166893005,nan,nan,nan,0.800000011920929,2,0,0,True,0.7300000190734863,id0,
1737285448.4390786,12753,1737285448,438717288,,0.7260000109672546,0.0,-0.9200000166893005,nan,nan,nan,0.800000011920929,2,0,0,True,0.7260000109672546,id0,
1737285448.5417442,12754,1737285448,541006269,,0.7260000109672546,0.0,-0.9200000166893005,nan,nan,nan,0.800000011920929,2,0,0,True,0.7260000109672546,id0,
1737285448.6402488,12755,1737285448,639814880,,0.7260000109672546,0.0,-0.9100000262260437,nan,nan,nan,0.800000011920929,2,0,0,True,0.7260000109672546,id0,
1737285448.741093,12756,1737285448,740755269,,0.7229999899864197,0.0,-0.9300000071525574,nan,nan,nan,0.800000011920929,2,0,0,True,0.7229999899864197,id0,
1737285448.8381116,12757,1737285448,837782010,,0.7239999771118164,0.0,-0.9200000166893005,nan,nan,nan,0.800000011920929,2,0,0,True,0.7239999771118164,id0,
1737285448.9409227,12758,1737285448,940070362,,0.7279999852180481,0.0,-0.9300000071525574,nan,nan,nan,0.800000011920929,2,0,0,True,0.7279999852180481,id0,
1737285449.0412612,12759,1737285449,40809380,,0.7210000157356262,0.0,-0.9100000262260437,nan,nan,nan,0.800000011920929,2,0,0,True,0.7210000157356262,id0,
1737285449.1391046,12760,1737285449,138121787,,0.7229999899864197,0.0,-0.9100000262260437,nan,nan,nan,0.800000011920929,2,0,0,True,0.7229999899864197,id0,
1737285449.2422888,12761,1737285449,241829102,,0.7239999771118164,0.0,-0.9200000166893005,nan,nan,nan,0.800000011920929,2,0,0,True,0.7239999771118164,id0,
1737285449.3414125,12762,1737285449,340908250,,0.7279999852180481,0.0,-0.9200000166893005,nan,nan,nan,0.800000011920929,2,0,0,True,0.7279999852180481,id0,
1737285449.4388456,12763,1737285449,438213380,,0.718999981880188,0.0,-0.9100000262260437,nan,nan,nan,0.800000011920929,2,0,0,True,0.718999981880188,id0,
1737285449.542212,12764,1737285449,541865343,,0.722000002861023,0.0,-0.9200000166893005,nan,nan,nan,0.800000011920929,2,0,0,True,0.722000002861023,id0,
1737285449.6392424,12765,1737285449,638887028,,0.722000002861023,0.0,-0.9200000166893005,nan,nan,nan,0.800000011920929,2,0,0,True,0.722000002861023,id0,
1737285449.7393486,12766,1737285449,738955694,,0.7269999980926514,0.0,-0.9200000166893005,nan,nan,nan,0.800000011920929,2,0,0,True,0.7269999980926514,id0,
1737285449.8478773,12767,1737285449,847237361,,0.7250000238418579,0.0,-0.9200000166893005,nan,nan,nan,0.800000011920929,2,0,0,True,0.7250000238418579,id0,
1737285449.9524932,12768,1737285449,951986287,,0.7300000190734863,0.0,-0.9200000166893005,nan,nan,nan,0.800000011920929,2,0,0,True,0.7300000190734863,id0,
1737285450.0463648,12769,1737285450,45941324,,0.7229999899864197,0.0,-0.9300000071525574,nan,nan,nan,0.800000011920929,2,0,0,True,0.7229999899864197,id0,
1737285450.1494136,12770,1737285450,148967602,,0.7300000190734863,0.0,-0.9200000166893005,nan,nan,nan,0.800000011920929,2,0,0,True,0.7300000190734863,id0,
1737285450.2464182,12771,1737285450,245962842,,0.7239999771118164,0.0,-0.9100000262260437,nan,nan,nan,0.800000011920929,2,0,0,True,0.7239999771118164,id0,
1737285450.3474333,12772,1737285450,346981824,,0.7269999980926514,0.0,-0.9100000262260437,nan,nan,nan,0.800000011920929,2,0,0,True,0.7269999980926514,id0,
1737285450.4452055,12773,1737285450,444270842,,0.7229999899864197,0.0,-0.9300000071525574,nan,nan,nan,0.800000011920929,2,0,0,True,0.7229999899864197,id0,
1737285450.548447,12774,1737285450,548012194,,0.7229999899864197,0.0,-0.9200000166893005,nan,nan,nan,0.800000011920929,2,0,0,True,0.7229999899864197,id0,
1737285450.6474683,12775,1737285450,647025305,,0.7269999980926514,0.0,-0.9100000262260437,nan,nan,nan,0.800000011920929,2,0,0,True,0.7269999980926514,id0,
1737285450.7474642,12776,1737285450,747033786,,0.7149999737739563,0.0,-0.9100000262260437,nan,nan,nan,0.800000011920929,2,0,0,True,0.7149999737739563,id0,
1737285450.8411896,12777,1737285450,840303342,,0.7250000238418579,0.0,-0.9200000166893005,nan,nan,nan,0.800000011920929,2,0,0,True,0.7250000238418579,id0,
1737285450.9434226,12778,1737285450,943059768,,0.7239999771118164,0.0,-0.9100000262260437,nan,nan,nan,0.800000011920929,2,0,0,True,0.7239999771118164,id0,
1737285451.0404396,12779,1737285451,40074083,,0.7229999899864197,0.0,-0.9200000166893005,nan,nan,nan,0.800000011920929,2,0,0,True,0.7229999899864197,id0,
1737285451.1380918,12780,1737285451,137368786,,0.7300000190734863,0.0,-0.9100000262260437,nan,nan,nan,0.800000011920929,2,0,0,True,0.7300000190734863,id0,
1737285451.2414746,12781,1737285451,241116119,,0.7260000109672546,0.0,-0.9200000166893005,nan,nan,nan,0.800000011920929,2,0,0,True,0.7260000109672546,id0,
1737285451.3386214,12782,1737285451,338171897,,0.7200000286102295,0.0,-0.9100000262260437,nan,nan,nan,0.800000011920929,2,0,0,True,0.7200000286102295,id0,
1737285451.4381711,12783,1737285451,437326471,,0.7179999947547913,0.0,-0.9100000262260437,nan,nan,nan,0.800000011920929,2,0,0,True,0.7179999947547913,id0,
1737285451.541523,12784,1737285451,541259767,,0.7229999899864197,0.0,-0.9200000166893005,nan,nan,nan,0.800000011920929,2,0,0,True,0.7229999899864197,id0,
1737285451.6394718,12785,1737285451,639171323,,0.7260000109672546,0.0,-0.9100000262260437,nan,nan,nan,0.800000011920929,2,0,0,True,0.7260000109672546,id0,
1737285451.740504,12786,1737285451,740164027,,0.7250000238418579,0.0,-0.9200000166893005,nan,nan,nan,0.800000011920929,2,0,0,True,0.7250000238418579,id0,
1737285451.841137,12787,1737285451,840453415,,0.7229999899864197,0.0,-0.9200000166893005,nan,nan,nan,0.800000011920929,2,0,0,True,0.7229999899864197,id0,
1737285451.9452188,12788,1737285451,944466341,,0.7269999980926514,0.0,-0.9100000262260437,nan,nan,nan,0.800000011920929,2,0,0,True,0.7269999980926514,id0,
1737285452.0521889,12789,1737285452,40238489,,0.7279999852180481,0.0,-0.9200000166893005,nan,nan,nan,0.800000011920929,2,0,0,True,0.7279999852180481,id0,
1737285452.137496,12790,1737285452,136505841,,0.7250000238418579,0.0,-0.9200000166893005,nan,nan,nan,0.800000011920929,2,0,0,True,0.7250000238418579,id0,
1737285452.2396543,12791,1737285452,238478804,,0.7300000190734863,0.0,-0.9200000166893005,nan,nan,nan,0.800000011920929,2,0,0,True,0.7300000190734863,id0,
1737285452.3378973,12792,1737285452,337320304,,0.718999981880188,0.0,-0.9100000262260437,nan,nan,nan,0.800000011920929,2,0,0,True,0.718999981880188,id0,
1737285452.4394531,12793,1737285452,438514378,,0.7269999980926514,0.0,-0.9200000166893005,nan,nan,nan,0.800000011920929,2,0,0,True,0.7269999980926514,id0,
1737285452.539542,12794,1737285452,538554248,,0.7269999980926514,0.0,-0.9200000166893005,nan,nan,nan,0.800000011920929,2,0,0,True,0.7300000190734863,id0,
1737285452.6378007,12795,1737285452,637302359,,0.7300000190734863,0.0,-0.9200000166893005,nan,nan,nan,0.800000011920929,2,0,0,True,0.7229999899864197,id0,
1737285452.7404907,12796,1737285452,739556581,,0.7229999899864197,0.0,-0.9200000166893005,nan,nan,nan,0.800000011920929,2,0,0,True,0.718999981880188,id0,
1737285452.8395216,12797,1737285452,838614970,,0.718999981880188,0.0,-0.9100000262260437,nan,nan,nan,0.800000011920929,2,0,0,True,0.7229999899864197,id0,
1737285452.9395514,12798,1737285452,938637007,,0.7229999899864197,0.0,-0.9300000071525574,nan,nan,nan,0.800000011920929,2,0,0,True,0.722000002861023,id0,
1737285453.0418365,12799,1737285453,41353026,,0.722000002861023,0.0,-0.9200000166893005,nan,nan,nan,0.800000011920929,2,0,0,True,0.7310000061988831,id0,
1737285453.138682,12800,1737285453,137658100,,0.7310000061988831,0.0,-0.9200000166893005,nan,nan,nan,0.800000011920929,2,0,0,True,0.7310000061988831,id0,
1737285453.2395828,12801,1737285453,238633859,,0.7279999852180481,0.0,-0.9200000166893005,nan,nan,nan,0.800000011920929,2,0,0,True,0.7279999852180481,id0,
1737285453.3398993,12802,1737285453,339393470,,0.7239999771118164,0.0,-0.9200000166893005,nan,nan,nan,0.800000011920929,2,0,0,True,0.7239999771118164,id0,
1737285453.4419024,12803,1737285453,441403359,,0.7269999980926514,0.0,-0.9100000262260437,nan,nan,nan,0.800000011920929,2,0,0,True,0.7269999980926514,id0,
1737285453.5418644,12804,1737285453,541428766,,0.7229999899864197,0.0,-0.9200000166893005,nan,nan,nan,0.800000011920929,2,0,0,True,0.7229999899864197,id0,
1737285453.6379964,12805,1737285453,637485951,,0.7250000238418579,0.0,-0.9200000166893005,nan,nan,nan,0.800000011920929,2,0,0,True,0.7250000238418579,id0,
1737285453.7429402,12806,1737285453,742451396,,0.7260000109672546,0.0,-0.9200000166893005,nan,nan,nan,0.800000011920929,2,0,0,True,0.7260000109672546,id0,
1737285453.8416085,12807,1737285453,840847525,,0.7250000238418579,0.0,-0.9200000166893005,nan,nan,nan,0.800000011920929,2,0,0,True,0.7250000238418579,id0,
1737285453.9397326,12808,1737285453,938825433,,0.7300000190734863,0.0,-0.9200000166893005,nan,nan,nan,0.800000011920929,2,0,0,True,0.7300000190734863,id0,
1737285454.0368354,12809,1737285454,36491729,,0.718999981880188,0.0,-0.9200000166893005,nan,nan,nan,0.800000011920929,2,0,0,True,0.718999981880188,id0,
1737285454.1477,12810,1737285454,138475988,,0.718999981880188,0.0,-0.9200000166893005,nan,nan,nan,0.800000011920929,2,0,0,True,0.718999981880188,id0,
1737285454.240922,12811,1737285454,240520932,,0.7210000157356262,0.0,-0.9200000166893005,nan,nan,nan,0.800000011920929,2,0,0,True,0.7210000157356262,id0,
1737285454.3458235,12812,1737285454,337515636,,0.7250000238418579,0.0,-0.9200000166893005,nan,nan,nan,0.800000011920929,2,0,0,True,0.7250000238418579,id0,
1737285454.437779,12813,1737285454,436792932,,0.7310000061988831,0.0,-0.9200000166893005,nan,nan,nan,0.800000011920929,2,0,0,True,0.7310000061988831,id0,
1737285454.5410552,12814,1737285454,538730210,,0.7279999852180481,0.0,-0.9200000166893005,nan,nan,nan,0.800000011920929,2,0,0,True,0.7279999852180481,id0,
1737285454.6375177,12815,1737285454,636830877,,0.7239999771118164,0.0,-0.9200000166893005,nan,nan,nan,0.800000011920929,2,0,0,True,0.7239999771118164,id0,
1737285454.7355697,12816,1737285454,734874265,,0.7239999771118164,0.0,-0.9300000071525574,nan,nan,nan,0.7900000214576721,2,0,0,True,0.7239999771118164,id0,
1737285454.8390656,12817,1737285454,838660821,,0.7120000123977661,0.0,-0.8799999952316284,nan,nan,nan,0.7900000214576721,2,0,0,True,0.7120000123977661,id0,
1737285454.9460719,12818,1737285454,945685562,,0.7250000238418579,0.0,-0.9300000071525574,nan,nan,nan,0.7900000214576721,2,0,0,True,0.7250000238418579,id0,
1737285455.038144,12819,1737285455,37705673,,0.7269999980926514,0.0,-0.9100000262260437,nan,nan,nan,0.7900000214576721,2,0,0,True,0.7269999980926514,id0,
1737285455.1390157,12820,1737285455,138644339,,0.7250000238418579,0.0,-0.9200000166893005,nan,nan,nan,0.7900000214576721,2,0,0,True,0.7250000238418579,id0,
1737285455.2382739,12821,1737285455,237697636,,0.7210000157356262,0.0,-0.9200000166893005,nan,nan,nan,0.7900000214576721,2,0,0,True,0.7210000157356262,id0,
1737285455.3381176,12822,1737285455,337739191,,0.7319999933242798,0.0,-0.9200000166893005,nan,nan,nan,0.7900000214576721,2,0,0,True,0.7319999933242798,id0,
1737285455.442134,12823,1737285455,441753969,,0.7289999723434448,0.0,-0.9200000166893005,nan,nan,nan,0.7900000214576721,2,0,0,True,0.7289999723434448,id0,
1737285455.5446143,12824,1737285455,544006450,,0.7239999771118164,0.0,-0.9200000166893005,nan,nan,nan,0.7900000214576721,2,0,0,True,0.7239999771118164,id0,
1737285455.645682,12825,1737285455,644987154,,0.7239999771118164,0.0,-0.9200000166893005,nan,nan,nan,0.7900000214576721,2,0,0,True,0.7239999771118164,id0,
1737285455.7436988,12826,1737285455,743014932,,0.718999981880188,0.0,-0.9100000262260437,nan,nan,nan,0.7900000214576721,2,0,0,True,0.718999981880188,id0,
1737285455.8446288,12827,1737285455,844021320,,0.7279999852180481,0.0,-0.9100000262260437,nan,nan,nan,0.7900000214576721,2,0,0,True,0.7279999852180481,id0,
1737285455.944134,12828,1737285455,943765394,,0.7390000224113464,0.0,-0.9200000166893005,nan,nan,nan,0.7900000214576721,2,0,0,True,0.7390000224113464,id0,
1737285456.0437174,12829,1737285456,43047783,,0.7279999852180481,0.0,-0.9200000166893005,nan,nan,nan,0.7900000214576721,2,0,0,True,0.7279999852180481,id0,
1737285456.141712,12830,1737285456,141055117,,0.7260000109672546,0.0,-0.9200000166893005,nan,nan,nan,0.7900000214576721,2,0,0,True,0.7260000109672546,id0,
1737285456.2387767,12831,1737285456,238057635,,0.7229999899864197,0.0,-0.9200000166893005,nan,nan,nan,0.7900000214576721,2,0,0,True,0.7229999899864197,id0,
1737285456.3380902,12832,1737285456,337084653,,0.7200000286102295,0.0,-0.9100000262260437,nan,nan,nan,0.7900000214576721,2,0,0,True,0.7200000286102295,id0,
1737285456.439042,12833,1737285456,438087135,,0.7229999899864197,0.0,-0.9100000262260437,nan,nan,nan,0.7900000214576721,2,0,0,True,0.7229999899864197,id0,
1737285456.5382915,12834,1737285456,537226487,,0.7239999771118164,0.0,-0.9200000166893005,nan,nan,nan,0.7900000214576721,2,0,0,True,0.7239999771118164,id0,
1737285456.6413984,12835,1737285456,640117172,,0.7210000157356262,0.0,-0.9100000262260437,nan,nan,nan,0.7900000214576721,2,0,0,True,0.7210000157356262,id0,
1737285456.7413268,12836,1737285456,740885042,,0.7239999771118164,0.0,-0.9200000166893005,nan,nan,nan,0.7900000214576721,2,0,0,True,0.7239999771118164,id0,
1737285456.8370554,12837,1737285456,835238005,,0.7200000286102295,0.0,-0.9200000166893005,nan,nan,nan,0.7900000214576721,2,0,0,True,0.7200000286102295,id0,
1737285456.9415524,12838,1737285456,940931153,,0.7269999980926514,0.0,-0.9200000166893005,nan,nan,nan,0.7900000214576721,2,0,0,True,0.7269999980926514,id0,
1737285457.0395305,12839,1737285457,38169912,,0.7260000109672546,0.0,-0.9200000166893005,nan,nan,nan,0.7900000214576721,2,0,0,True,0.7260000109672546,id0,
1737285457.1403751,12840,1737285457,139929560,,0.7269999980926514,0.0,-0.9200000166893005,nan,nan,nan,0.7900000214576721,2,0,0,True,0.7269999980926514,id0,
1737285457.2402718,12841,1737285457,239233412,,0.7250000238418579,0.0,-0.9200000166893005,nan,nan,nan,0.7900000214576721,2,0,0,True,0.7250000238418579,id0,
1737285457.3412886,12842,1737285457,340213227,,0.7269999980926514,0.0,-0.9100000262260437,nan,nan,nan,0.7900000214576721,2,0,0,True,0.7269999980926514,id0,
1737285457.4440503,12843,1737285457,443195875,,0.7229999899864197,0.0,-0.9200000166893005,nan,nan,nan,0.7900000214576721,2,0,0,True,0.7229999899864197,id0,
1737285457.5383644,12844,1737285457,537250079,,0.7229999899864197,0.0,-0.9100000262260437,nan,nan,nan,0.7900000214576721,2,0,0,True,0.7229999899864197,id0,
1737285457.6386163,12845,1737285457,638051467,,0.7210000157356262,0.0,-0.9100000262260437,nan,nan,nan,0.7900000214576721,2,0,0,True,0.7210000157356262,id0,
1737285457.7374637,12846,1737285457,737014004,,0.7289999723434448,0.0,-0.9200000166893005,nan,nan,nan,0.7900000214576721,2,0,0,True,0.7289999723434448,id0,
1737285457.841473,12847,1737285457,841022671,,0.7279999852180481,0.0,-0.9100000262260437,nan,nan,nan,0.7900000214576721,2,0,0,True,0.7279999852180481,id0,
1737285457.940498,12848,1737285457,940045949,,0.7279999852180481,0.0,-0.9100000262260437,nan,nan,nan,0.7900000214576721,2,0,0,True,0.7229999899864197,id0,
1737285458.0395157,12849,1737285458,39051838,,0.7229999899864197,0.0,-0.9100000262260437,nan,nan,nan,0.7900000214576721,2,0,0,True,0.7269999980926514,id0,
1737285458.1385975,12850,1737285458,138125004,,0.7269999980926514,0.0,-0.9100000262260437,nan,nan,nan,0.7900000214576721,2,0,0,True,0.7260000109672546,id0,
1737285458.2405384,12851,1737285458,240082097,,0.7260000109672546,0.0,-0.9200000166893005,nan,nan,nan,0.7900000214576721,2,0,0,True,0.7260000109672546,id0,
1737285458.3367324,12852,1737285458,336158060,,0.7260000109672546,0.0,-0.9200000166893005,nan,nan,nan,0.7900000214576721,2,0,0,True,0.7210000157356262,id0,
1737285458.4405959,12853,1737285458,440131226,,0.7210000157356262,0.0,-0.9200000166893005,nan,nan,nan,0.7900000214576721,2,0,0,True,0.7379999756813049,id0,
1737285458.5383577,12854,1737285458,537496485,,0.7379999756813049,0.0,-0.9100000262260437,nan,nan,nan,0.7900000214576721,2,0,0,True,0.718999981880188,id0,
1737285458.6387885,12855,1737285458,638191948,,0.718999981880188,0.0,-0.9300000071525574,nan,nan,nan,0.7900000214576721,2,0,0,True,0.7229999899864197,id0,
1737285458.7434752,12856,1737285458,742406282,,0.7229999899864197,0.0,-0.9200000166893005,nan,nan,nan,0.7900000214576721,2,0,0,True,0.7239999771118164,id0,
1737285458.8428042,12857,1737285458,842326911,,0.7239999771118164,0.0,-0.9200000166893005,nan,nan,nan,0.7900000214576721,2,0,0,True,0.7210000157356262,id0,
1737285458.9416537,12858,1737285458,941182893,,0.7210000157356262,0.0,-0.9200000166893005,nan,nan,nan,0.7900000214576721,2,0,0,True,0.7210000157356262,id0,
1737285459.0380783,12859,1737285459,37598726,,0.718999981880188,0.0,-0.9100000262260437,nan,nan,nan,0.7900000214576721,2,0,0,True,0.718999981880188,id0,
1737285459.1377697,12860,1737285459,137255781,,0.7229999899864197,0.0,-0.9300000071525574,nan,nan,nan,0.7900000214576721,2,0,0,True,0.7229999899864197,id0,
1737285459.2416575,12861,1737285459,241213244,,0.7229999899864197,0.0,-0.9200000166893005,nan,nan,nan,0.7900000214576721,2,0,0,True,0.7229999899864197,id0,
1737285459.3406873,12862,1737285459,340223818,,0.7239999771118164,0.0,-0.9200000166893005,nan,nan,nan,0.7900000214576721,2,0,0,True,0.7239999771118164,id0,
1737285459.4377882,12863,1737285459,437294059,,0.7170000076293945,0.0,-0.9100000262260437,nan,nan,nan,0.7900000214576721,2,0,0,True,0.7170000076293945,id0,
1737285459.536827,12864,1737285459,536307726,,0.718999981880188,0.0,-0.9100000262260437,nan,nan,nan,0.7900000214576721,2,0,0,True,0.718999981880188,id0,
1737285459.639515,12865,1737285459,638576170,,0.7310000061988831,0.0,-0.9300000071525574,nan,nan,nan,0.7900000214576721,2,0,0,True,0.7310000061988831,id0,
1737285459.736474,12866,1737285459,735590744,,0.7179999947547913,0.0,-0.9100000262260437,nan,nan,nan,0.7900000214576721,2,0,0,True,0.7179999947547913,id0,
1737285459.8417552,12867,1737285459,841298522,,0.7269999980926514,0.0,-0.9200000166893005,nan,nan,nan,0.7900000214576721,2,0,0,True,0.7269999980926514,id0,
1737285459.9414654,12868,1737285459,940638151,,0.7210000157356262,0.0,-0.9100000262260437,nan,nan,nan,0.7900000214576721,2,0,0,True,0.7210000157356262,id0,
1737285460.0368369,12869,1737285460,36394614,,0.722000002861023,0.0,-0.9100000262260437,nan,nan,nan,0.7900000214576721,2,0,0,True,0.722000002861023,id0,
1737285460.1394603,12870,1737285460,138559059,,0.7250000238418579,0.0,-0.9100000262260437,nan,nan,nan,0.7900000214576721,2,0,0,True,0.7250000238418579,id0,
1737285460.2388215,12871,1737285460,237590559,,0.7300000190734863,0.0,-0.9200000166893005,nan,nan,nan,0.7900000214576721,2,0,0,True,0.7300000190734863,id0,
1737285460.3356807,12872,1737285460,334614207,,0.7229999899864197,0.0,-0.9100000262260437,nan,nan,nan,0.7900000214576721,2,0,0,True,0.7229999899864197,id0,
1737285460.4418375,12873,1737285460,441383670,,0.722000002861023,0.0,-0.9200000166893005,nan,nan,nan,0.7900000214576721,2,0,0,True,0.722000002861023,id0,
1737285460.5408678,12874,1737285460,540396503,,0.7120000123977661,0.0,-0.9200000166893005,nan,nan,nan,0.7900000214576721,2,0,0,True,0.7120000123977661,id0,
1737285460.6398842,12875,1737285460,639413595,,0.7179999947547913,0.0,-0.9100000262260437,nan,nan,nan,0.7900000214576721,2,0,0,True,0.7179999947547913,id0,
1737285460.7398052,12876,1737285460,739425169,,0.7229999899864197,0.0,-0.9200000166893005,nan,nan,nan,0.7900000214576721,2,0,0,True,0.7229999899864197,id0,
1737285460.8378625,12877,1737285460,837446595,,0.7269999980926514,0.0,-0.9300000071525574,nan,nan,nan,0.7900000214576721,2,0,0,True,0.7269999980926514,id0,
1737285460.9398344,12878,1737285460,939452928,,0.722000002861023,0.0,-0.9200000166893005,nan,nan,nan,0.7900000214576721,2,0,0,True,0.722000002861023,id0,
1737285461.0446322,12879,1737285461,43642965,,0.7239999771118164,0.0,-0.9100000262260437,nan,nan,nan,0.7900000214576721,2,0,0,True,0.7239999771118164,id0,
1737285461.1487937,12880,1737285461,148488873,,0.722000002861023,0.0,-0.9100000262260437,nan,nan,nan,0.7900000214576721,2,0,0,True,0.722000002861023,id0,
1737285461.2455223,12881,1737285461,244749891,,0.7170000076293945,0.0,-0.9300000071525574,nan,nan,nan,0.7900000214576721,2,0,0,True,0.7170000076293945,id0,
1737285461.3455694,12882,1737285461,344900150,,0.7250000238418579,0.0,-0.9200000166893005,nan,nan,nan,0.7900000214576721,2,0,0,True,0.7250000238418579,id0,
1737285461.4459379,12883,1737285461,445521891,,0.7269999980926514,0.0,-0.9200000166893005,nan,nan,nan,0.7900000214576721,2,0,0,True,0.7269999980926514,id0,
1737285461.548509,12884,1737285461,547869687,,0.7289999723434448,0.0,-0.9100000262260437,nan,nan,nan,0.7900000214576721,2,0,0,True,0.7289999723434448,id0,
1737285461.647058,12885,1737285461,646564058,,0.7229999899864197,0.0,-0.9200000166893005,nan,nan,nan,0.7900000214576721,2,0,0,True,0.7229999899864197,id0,
1737285461.7458203,12886,1737285461,744888280,,0.7239999771118164,0.0,-0.8999999761581421,nan,nan,nan,0.7900000214576721,2,0,0,True,0.7239999771118164,id0,
1737285461.8430142,12887,1737285461,842582539,,0.7229999899864197,0.0,-0.9200000166893005,nan,nan,nan,0.7900000214576721,2,0,0,True,0.7229999899864197,id0,
1737285461.9431288,12888,1737285461,942650854,,0.7170000076293945,0.0,-0.9100000262260437,nan,nan,nan,0.7900000214576721,2,0,0,True,0.7170000076293945,id0,
1737285462.0381854,12889,1737285462,37673502,,0.7200000286102295,0.0,-0.9100000262260437,nan,nan,nan,0.7900000214576721,2,0,0,True,0.7200000286102295,id0,
1737285462.1408408,12890,1737285462,139788261,,0.7260000109672546,0.0,-0.9100000262260437,nan,nan,nan,0.7900000214576721,2,0,0,True,0.7260000109672546,id0,
1737285462.2412019,12891,1737285462,240636724,,0.7300000190734863,0.0,-0.9200000166893005,nan,nan,nan,0.7900000214576721,2,0,0,True,0.7300000190734863,id0,
1737285462.3371062,12892,1737285462,336656317,,0.7300000190734863,0.0,-0.8999999761581421,nan,nan,nan,0.7900000214576721,2,0,0,True,0.7300000190734863,id0,
1737285462.4441376,12893,1737285462,443670816,,0.7229999899864197,0.0,-0.9200000166893005,nan,nan,nan,0.7900000214576721,2,0,0,True,0.7229999899864197,id0,
1737285462.5412385,12894,1737285462,540686205,,0.7179999947547913,0.0,-0.9200000166893005,nan,nan,nan,0.7900000214576721,2,0,0,True,0.7179999947547913,id0,
1737285462.6385794,12895,1737285462,636894409,,0.7250000238418579,0.0,-0.9200000166893005,nan,nan,nan,0.7900000214576721,2,0,0,True,0.7250000238418579,id0,
1737285462.7372816,12896,1737285462,736724224,,0.7319999933242798,0.0,-0.9200000166893005,nan,nan,nan,0.7900000214576721,2,0,0,True,0.7319999933242798,id0,
1737285462.8396075,12897,1737285462,837915113,,0.7210000157356262,0.0,-0.9100000262260437,nan,nan,nan,0.7900000214576721,2,0,0,True,0.7210000157356262,id0,
1737285462.9402194,12898,1737285462,939748705,,0.7250000238418579,0.0,-0.9200000166893005,nan,nan,nan,0.7900000214576721,2,0,0,True,0.7250000238418579,id0,
1737285463.0416143,12899,1737285463,39607409,,0.718999981880188,0.0,-0.9200000166893005,nan,nan,nan,0.7900000214576721,2,0,0,True,0.718999981880188,id0,
1737285463.1411328,12900,1737285463,140073001,,0.7160000205039978,0.0,-0.9100000262260437,nan,nan,nan,0.7900000214576721,2,0,0,True,0.7160000205039978,id0,
1737285463.2372751,12901,1737285463,236849909,,0.7160000205039978,0.0,-0.9200000166893005,nan,nan,nan,0.7900000214576721,2,0,0,True,0.7229999899864197,id0,
1737285463.3448725,12902,1737285463,344058686,,0.7229999899864197,0.0,-0.9200000166893005,nan,nan,nan,0.7900000214576721,2,0,0,True,0.7200000286102295,id0,
1737285463.438128,12903,1737285463,437808260,,0.7200000286102295,0.0,-0.9200000166893005,nan,nan,nan,0.7900000214576721,2,0,0,True,0.7269999980926514,id0,
1737285463.5389717,12904,1737285463,538239038,,0.7269999980926514,0.0,-0.9200000166893005,nan,nan,nan,0.7900000214576721,2,0,0,True,0.7229999899864197,id0,
1737285463.639395,12905,1737285463,638903223,,0.7229999899864197,0.0,-0.9300000071525574,nan,nan,nan,0.7900000214576721,2,0,0,True,0.7250000238418579,id0,
1737285463.7400696,12906,1737285463,739076186,,0.7250000238418579,0.0,-0.9300000071525574,nan,nan,nan,0.7900000214576721,2,0,0,True,0.7279999852180481,id0,
1737285463.8411255,12907,1737285463,840220260,,0.7279999852180481,0.0,-0.9200000166893005,nan,nan,nan,0.7900000214576721,2,0,0,True,0.7250000238418579,id0,
1737285463.9415376,12908,1737285463,940927427,,0.7250000238418579,0.0,-0.9200000166893005,nan,nan,nan,0.7900000214576721,2,0,0,True,0.7250000238418579,id0,
1737285464.0395153,12909,1737285464,38183667,,0.7250000238418579,0.0,-0.9200000166893005,nan,nan,nan,0.7900000214576721,2,0,0,True,0.7250000238418579,id0,
1737285464.1385286,12910,1737285464,136471297,,0.7229999899864197,0.0,-0.9200000166893005,nan,nan,nan,0.7900000214576721,2,0,0,True,0.7229999899864197,id0,
1737285464.2363896,12911,1737285464,235969630,,0.718999981880188,0.0,-0.9200000166893005,nan,nan,nan,0.7900000214576721,2,0,0,True,0.718999981880188,id0,
1737285464.3413928,12912,1737285464,340929038,,0.7200000286102295,0.0,-0.9100000262260437,nan,nan,nan,0.7900000214576721,2,0,0,True,0.7200000286102295,id0,
1737285464.4380991,12913,1737285464,437369000,,0.7269999980926514,0.0,-0.9200000166893005,nan,nan,nan,0.7900000214576721,2,0,0,True,0.7269999980926514,id0,
1737285464.5381005,12914,1737285464,537311519,,0.722000002861023,0.0,-0.9200000166893005,nan,nan,nan,0.7900000214576721,2,0,0,True,0.722000002861023,id0,
1737285464.6394203,12915,1737285464,639027537,,0.7179999947547913,0.0,-0.9200000166893005,nan,nan,nan,0.7900000214576721,2,0,0,True,0.7179999947547913,id0,
1737285464.7385151,12916,1737285464,738039019,,0.7229999899864197,0.0,-0.9200000166893005,nan,nan,nan,0.7900000214576721,2,0,0,True,0.7229999899864197,id0,
1737285464.8371863,12917,1737285464,836287148,,0.7289999723434448,0.0,-0.9200000166893005,nan,nan,nan,0.7900000214576721,2,0,0,True,0.7289999723434448,id0,
1737285464.9413512,12918,1737285464,941011074,,0.7260000109672546,0.0,-0.9200000166893005,nan,nan,nan,0.7900000214576721,2,0,0,True,0.7260000109672546,id0,
1737285465.0414598,12919,1737285465,40416370,,0.7160000205039978,0.0,-0.9100000262260437,nan,nan,nan,0.7900000214576721,2,0,0,True,0.7160000205039978,id0,
1737285465.1386178,12920,1737285465,138091722,,0.7239999771118164,0.0,-0.9100000262260437,nan,nan,nan,0.7900000214576721,2,0,0,True,0.7239999771118164,id0,
1737285465.2374866,12921,1737285465,236506241,,0.7239999771118164,0.0,-0.9100000262260437,nan,nan,nan,0.7900000214576721,2,0,0,True,0.7239999771118164,id0,
1737285465.3596473,12922,1737285465,336405093,,0.7369999885559082,0.0,-0.9200000166893005,nan,nan,nan,0.7900000214576721,2,0,0,True,0.7369999885559082,id0,
1737285465.440413,12923,1737285465,440084963,,0.722000002861023,0.0,-0.9100000262260437,nan,nan,nan,0.7900000214576721,2,0,0,True,0.722000002861023,id0,
1737285465.5375412,12924,1737285465,537152018,,0.7329999804496765,0.0,-0.9100000262260437,nan,nan,nan,0.7900000214576721,2,0,0,True,0.7329999804496765,id0,
1737285465.6401503,12925,1737285465,639485852,,0.7149999737739563,0.0,-0.8999999761581421,nan,nan,nan,0.7900000214576721,2,0,0,True,0.7149999737739563,id0,
1737285465.7415373,12926,1737285465,741107166,,0.7289999723434448,0.0,-0.9300000071525574,nan,nan,nan,0.7900000214576721,2,0,0,True,0.7289999723434448,id0,
1737285465.8380923,12927,1737285465,837377055,,0.7239999771118164,0.0,-0.9200000166893005,nan,nan,nan,0.7900000214576721,2,0,0,True,0.7239999771118164,id0,
1737285465.94023,12928,1737285465,939467129,,0.7269999980926514,0.0,-0.9100000262260437,nan,nan,nan,0.7900000214576721,2,0,0,True,0.7269999980926514,id0,
1737285466.0375159,12929,1737285466,37170185,,0.7260000109672546,0.0,-0.9200000166893005,nan,nan,nan,0.7900000214576721,2,0,0,True,0.7260000109672546,id0,
1737285466.1404033,12930,1737285466,139548722,,0.7279999852180481,0.0,-0.9200000166893005,nan,nan,nan,0.7900000214576721,2,0,0,True,0.7279999852180481,id0,
1737285466.239459,12931,1737285466,238510555,,0.7279999852180481,0.0,-0.9200000166893005,nan,nan,nan,0.7900000214576721,2,0,0,True,0.7279999852180481,id0,
1737285466.3377626,12932,1737285466,337255999,,0.7239999771118164,0.0,-0.9100000262260437,nan,nan,nan,0.7900000214576721,2,0,0,True,0.7239999771118164,id0,
1737285466.445291,12933,1737285466,444529407,,0.7289999723434448,0.0,-0.9200000166893005,nan,nan,nan,0.7900000214576721,2,0,0,True,0.7289999723434448,id0,
1737285466.5435662,12934,1737285466,543230740,,0.7269999980926514,0.0,-0.9200000166893005,nan,nan,nan,0.7900000214576721,2,0,0,True,0.7269999980926514,id0,
1737285466.6457245,12935,1737285466,645302110,,0.7229999899864197,0.0,-0.8999999761581421,nan,nan,nan,0.7900000214576721,2,0,0,True,0.7229999899864197,id0,
1737285466.7483912,12936,1737285466,747532351,,0.7239999771118164,0.0,-0.9200000166893005,nan,nan,nan,0.7900000214576721,2,0,0,True,0.7239999771118164,id0,
1737285466.8355994,12937,1737285466,834658536,,0.7229999899864197,0.0,-0.9100000262260437,nan,nan,nan,0.7900000214576721,2,0,0,True,0.7229999899864197,id0,
1737285466.9433892,12938,1737285466,942562314,,0.7250000238418579,0.0,-0.9100000262260437,nan,nan,nan,0.7900000214576721,2,0,0,True,0.7250000238418579,id0,
1737285467.0476022,12939,1737285467,47300943,,0.7179999947547913,0.0,-0.9100000262260437,nan,nan,nan,0.7900000214576721,2,0,0,True,0.7179999947547913,id0,
1737285467.138476,12940,1737285467,137676999,,0.7319999933242798,0.0,-0.9200000166893005,nan,nan,nan,0.7900000214576721,2,0,0,True,0.7319999933242798,id0,
1737285467.239369,12941,1737285467,238633517,,0.7319999933242798,0.0,-0.9200000166893005,nan,nan,nan,0.7900000214576721,2,0,0,True,0.7319999933242798,id0,
1737285467.338634,12942,1737285467,337654369,,0.7239999771118164,0.0,-0.9200000166893005,nan,nan,nan,0.7900000214576721,2,0,0,True,0.7239999771118164,id0,
1737285467.4399817,12943,1737285467,439410925,,0.7210000157356262,0.0,-0.9100000262260437,nan,nan,nan,0.7900000214576721,2,0,0,True,0.7210000157356262,id0,
1737285467.5407386,12944,1737285467,540373054,,0.7250000238418579,0.0,-0.9100000262260437,nan,nan,nan,0.7900000214576721,2,0,0,True,0.7250000238418579,id0,
1737285467.6377122,12945,1737285467,637382110,,0.7200000286102295,0.0,-0.9200000166893005,nan,nan,nan,0.7900000214576721,2,0,0,True,0.7200000286102295,id0,
1737285467.7377484,12946,1737285467,737411239,,0.7250000238418579,0.0,-0.9200000166893005,nan,nan,nan,0.7900000214576721,2,0,0,True,0.7250000238418579,id0,
