Time,header.seq,header.stamp.secs,header.stamp.nsecs,header.frame_id,child_frame_id,pose.pose.position.x,pose.pose.position.y,pose.pose.position.z,pose.pose.orientation.x,pose.pose.orientation.y,pose.pose.orientation.z,pose.pose.orientation.w,pose.covariance,twist.twist.linear.x,twist.twist.linear.y,twist.twist.linear.z,twist.twist.angular.x,twist.twist.angular.y,twist.twist.angular.z,twist.covariance
1737285429.128612,12557,1737285428,924809664,map,base_link,-1.9206212801089932,-7.431995228674077,2.445,0.007242704813298249,-0.001963444234873243,-0.6578314760934233,-0.7531277694883333,"(1.077444, 0.0, 0.0, 0.0, 0.0, 0.0, 0.0, 1.077444, 0.0, 0.0, 0.0, 0.0, 0.0, 0.0, 2.019241, 0.0, 0.0, 0.0, 0.0, 0.0, 0.0, 99999.0, 0.0, 0.0, 0.0, 0.0, 0.0, 0.0, 99999.0, 0.0, 0.0, 0.0, 0.0, 0.0, 0.0, 99999.0)",0.05,-0.05,-0.05,0.0,0.0,0.0,"(-1.0, 0.0, 0.0, 0.0, 0.0, 0.0, 0.0, 0.0, 0.0, 0.0, 0.0, 0.0, 0.0, 0.0, 0.0, 0.0, 0.0, 0.0, 0.0, 0.0, 0.0, 0.0, 0.0, 0.0, 0.0, 0.0, 0.0, 0.0, 0.0, 0.0, 0.0, 0.0, 0.0, 0.0, 0.0, 0.0)"
1737285429.1288102,12558,1737285429,25805056,map,base_link,-1.9206212831689577,-7.431995240094231,2.453,0.005573004189655867,-0.00206472121328493,-0.6594315530033605,-0.7517411159795568,"(1.083681, 0.0, 0.0, 0.0, 0.0, 0.0, 0.0, 1.083681, 0.0, 0.0, 0.0, 0.0, 0.0, 0.0, 2.024929, 0.0, 0.0, 0.0, 0.0, 0.0, 0.0, 99999.0, 0.0, 0.0, 0.0, 0.0, 0.0, 0.0, 99999.0, 0.0, 0.0, 0.0, 0.0, 0.0, 0.0, 99999.0)",0.07,-0.06,-0.13,0.0,0.0,0.0,"(-1.0, 0.0, 0.0, 0.0, 0.0, 0.0, 0.0, 0.0, 0.0, 0.0, 0.0, 0.0, 0.0, 0.0, 0.0, 0.0, 0.0, 0.0, 0.0, 0.0, 0.0, 0.0, 0.0, 0.0, 0.0, 0.0, 0.0, 0.0, 0.0, 0.0, 0.0, 0.0, 0.0, 0.0, 0.0, 0.0)"
1737285429.1303964,12559,1737285429,126797888,map,base_link,-1.9206212859067124,-7.431995252538761,2.466,0.009020750455638667,-0.0018650976457412836,-0.6620455802307097,-0.7494069636512405,"(1.083681, 0.0, 0.0, 0.0, 0.0, 0.0, 0.0, 1.083681, 0.0, 0.0, 0.0, 0.0, 0.0, 0.0, 2.024929, 0.0, 0.0, 0.0, 0.0, 0.0, 0.0, 99999.0, 0.0, 0.0, 0.0, 0.0, 0.0, 0.0, 99999.0, 0.0, 0.0, 0.0, 0.0, 0.0, 0.0, 99999.0)",0.07,-0.07,-0.12,0.0,0.0,0.0,"(-1.0, 0.0, 0.0, 0.0, 0.0, 0.0, 0.0, 0.0, 0.0, 0.0, 0.0, 0.0, 0.0, 0.0, 0.0, 0.0, 0.0, 0.0, 0.0, 0.0, 0.0, 0.0, 0.0, 0.0, 0.0, 0.0, 0.0, 0.0, 0.0, 0.0, 0.0, 0.0, 0.0, 0.0, 0.0, 0.0)"
1737285429.2274084,12560,1737285429,224794816,map,base_link,-1.9206212889666767,-7.431995263958916,2.473,0.010476749191942188,0.0006377357024171393,-0.6610884356751082,-0.7502345708084779,"(1.089936, 0.0, 0.0, 0.0, 0.0, 0.0, 0.0, 1.089936, 0.0, 0.0, 0.0, 0.0, 0.0, 0.0, 2.033476, 0.0, 0.0, 0.0, 0.0, 0.0, 0.0, 99999.0, 0.0, 0.0, 0.0, 0.0, 0.0, 0.0, 99999.0, 0.0, 0.0, 0.0, 0.0, 0.0, 0.0, 99999.0)",0.06,-0.06,-0.04,0.0,0.0,0.0,"(-1.0, 0.0, 0.0, 0.0, 0.0, 0.0, 0.0, 0.0, 0.0, 0.0, 0.0, 0.0, 0.0, 0.0, 0.0, 0.0, 0.0, 0.0, 0.0, 0.0, 0.0, 0.0, 0.0, 0.0, 0.0, 0.0, 0.0, 0.0, 0.0, 0.0, 0.0, 0.0, 0.0, 0.0, 0.0, 0.0)"
1737285429.3278131,12561,1737285429,324791232,map,base_link,-1.920621286844279,-7.420902733272852,2.477,0.012436317359308344,0.0024397091348670285,-0.657227317144061,-0.7535858540534687,"(1.089936, 0.0, 0.0, 0.0, 0.0, 0.0, 0.0, 1.089936, 0.0, 0.0, 0.0, 0.0, 0.0, 0.0, 2.033476, 0.0, 0.0, 0.0, 0.0, 0.0, 0.0, 99999.0, 0.0, 0.0, 0.0, 0.0, 0.0, 0.0, 99999.0, 0.0, 0.0, 0.0, 0.0, 0.0, 0.0, 99999.0)",0.04,-0.07,0.0,0.0,0.0,0.0,"(-1.0, 0.0, 0.0, 0.0, 0.0, 0.0, 0.0, 0.0, 0.0, 0.0, 0.0, 0.0, 0.0, 0.0, 0.0, 0.0, 0.0, 0.0, 0.0, 0.0, 0.0, 0.0, 0.0, 0.0, 0.0, 0.0, 0.0, 0.0, 0.0, 0.0, 0.0, 0.0, 0.0, 0.0, 0.0, 0.0)"
1737285429.4346411,12562,1737285429,432787392,map,base_link,-1.920621286844279,-7.420902733272852,2.473,0.011260437370230294,0.0008867295429211802,-0.576518103267769,-0.8170062991589986,"(1.0962089999999998, 0.0, 0.0, 0.0, 0.0, 0.0, 0.0, 1.0962089999999998, 0.0, 0.0, 0.0, 0.0, 0.0, 0.0, 2.0391839999999997, 0.0, 0.0, 0.0, 0.0, 0.0, 0.0, 99999.0, 0.0, 0.0, 0.0, 0.0, 0.0, 0.0, 99999.0, 0.0, 0.0, 0.0, 0.0, 0.0, 0.0, 99999.0)",0.04,-0.07,-0.03,0.0,0.0,0.0,"(-1.0, 0.0, 0.0, 0.0, 0.0, 0.0, 0.0, 0.0, 0.0, 0.0, 0.0, 0.0, 0.0, 0.0, 0.0, 0.0, 0.0, 0.0, 0.0, 0.0, 0.0, 0.0, 0.0, 0.0, 0.0, 0.0, 0.0, 0.0, 0.0, 0.0, 0.0, 0.0, 0.0, 0.0, 0.0, 0.0)"
1737285429.5329545,12563,1737285429,530784832,map,base_link,-1.9206212838340961,-7.420902721709339,2.469,0.010865350631300393,-0.0011482668639629303,-0.604322165415991,-0.7966651404610319,"(1.0962089999999998, 0.0, 0.0, 0.0, 0.0, 0.0, 0.0, 1.0962089999999998, 0.0, 0.0, 0.0, 0.0, 0.0, 0.0, 2.0391839999999997, 0.0, 0.0, 0.0, 0.0, 0.0, 0.0, 99999.0, 0.0, 0.0, 0.0, 0.0, 0.0, 0.0, 99999.0, 0.0, 0.0, 0.0, 0.0, 0.0, 0.0, 99999.0)",0.04,-0.07,-0.08,0.0,0.0,0.0,"(-1.0, 0.0, 0.0, 0.0, 0.0, 0.0, 0.0, 0.0, 0.0, 0.0, 0.0, 0.0, 0.0, 0.0, 0.0, 0.0, 0.0, 0.0, 0.0, 0.0, 0.0, 0.0, 0.0, 0.0, 0.0, 0.0, 0.0, 0.0, 0.0, 0.0, 0.0, 0.0, 0.0, 0.0, 0.0, 0.0)"
1737285429.6329832,12564,1737285429,629780992,map,base_link,-1.9206212838340961,-7.420902721709339,2.464,0.011433427240618462,-0.0024725171125745443,-0.6444493511005462,-0.7645575173044515,"(1.104601, 0.0, 0.0, 0.0, 0.0, 0.0, 0.0, 1.104601, 0.0, 0.0, 0.0, 0.0, 0.0, 0.0, 2.047761, 0.0, 0.0, 0.0, 0.0, 0.0, 0.0, 99999.0, 0.0, 0.0, 0.0, 0.0, 0.0, 0.0, 99999.0, 0.0, 0.0, 0.0, 0.0, 0.0, 0.0, 99999.0)",0.04,-0.07,0.0,0.0,0.0,0.0,"(-1.0, 0.0, 0.0, 0.0, 0.0, 0.0, 0.0, 0.0, 0.0, 0.0, 0.0, 0.0, 0.0, 0.0, 0.0, 0.0, 0.0, 0.0, 0.0, 0.0, 0.0, 0.0, 0.0, 0.0, 0.0, 0.0, 0.0, 0.0, 0.0, 0.0, 0.0, 0.0, 0.0, 0.0, 0.0, 0.0)"
1737285429.7288084,12565,1737285429,725775872,map,base_link,-1.9206212838340961,-7.420902721709339,2.461,0.010568994583219504,-0.00047809721443593366,-0.6655885265240147,-0.7462439153092938,"(1.104601, 0.0, 0.0, 0.0, 0.0, 0.0, 0.0, 1.104601, 0.0, 0.0, 0.0, 0.0, 0.0, 0.0, 2.047761, 0.0, 0.0, 0.0, 0.0, 0.0, 0.0, 99999.0, 0.0, 0.0, 0.0, 0.0, 0.0, 0.0, 99999.0, 0.0, 0.0, 0.0, 0.0, 0.0, 0.0, 99999.0)",0.08,-0.07,-0.09,0.0,0.0,0.0,"(-1.0, 0.0, 0.0, 0.0, 0.0, 0.0, 0.0, 0.0, 0.0, 0.0, 0.0, 0.0, 0.0, 0.0, 0.0, 0.0, 0.0, 0.0, 0.0, 0.0, 0.0, 0.0, 0.0, 0.0, 0.0, 0.0, 0.0, 0.0, 0.0, 0.0, 0.0, 0.0, 0.0, 0.0, 0.0, 0.0)"
1737285429.8285494,12566,1737285429,825769216,map,base_link,-1.9206212814890515,-7.409810190985549,2.461,0.012403294018119106,0.0014324325724492128,-0.6605023103060723,-0.7507201905602156,"(1.108809, 0.0, 0.0, 0.0, 0.0, 0.0, 0.0, 1.108809, 0.0, 0.0, 0.0, 0.0, 0.0, 0.0, 2.0534890000000003, 0.0, 0.0, 0.0, 0.0, 0.0, 0.0, 99999.0, 0.0, 0.0, 0.0, 0.0, 0.0, 0.0, 99999.0, 0.0, 0.0, 0.0, 0.0, 0.0, 0.0, 99999.0)",0.06,-0.07,-0.05,0.0,0.0,0.0,"(-1.0, 0.0, 0.0, 0.0, 0.0, 0.0, 0.0, 0.0, 0.0, 0.0, 0.0, 0.0, 0.0, 0.0, 0.0, 0.0, 0.0, 0.0, 0.0, 0.0, 0.0, 0.0, 0.0, 0.0, 0.0, 0.0, 0.0, 0.0, 0.0, 0.0, 0.0, 0.0, 0.0, 0.0, 0.0, 0.0)"
1737285429.9286737,12567,1737285429,924764352,map,base_link,-1.9113429139975724,-7.40981018121396,2.458,0.012085964031604427,0.005091103655740344,-0.6330490926889033,-0.7740005532186327,"(1.108809, 0.0, 0.0, 0.0, 0.0, 0.0, 0.0, 1.108809, 0.0, 0.0, 0.0, 0.0, 0.0, 0.0, 2.0534890000000003, 0.0, 0.0, 0.0, 0.0, 0.0, 0.0, 99999.0, 0.0, 0.0, 0.0, 0.0, 0.0, 0.0, 99999.0, 0.0, 0.0, 0.0, 0.0, 0.0, 0.0, 99999.0)",0.1,-0.06,0.0,0.0,0.0,0.0,"(-1.0, 0.0, 0.0, 0.0, 0.0, 0.0, 0.0, 0.0, 0.0, 0.0, 0.0, 0.0, 0.0, 0.0, 0.0, 0.0, 0.0, 0.0, 0.0, 0.0, 0.0, 0.0, 0.0, 0.0, 0.0, 0.0, 0.0, 0.0, 0.0, 0.0, 0.0, 0.0, 0.0, 0.0, 0.0, 0.0)"
1737285430.0285594,12568,1737285430,25755648,map,base_link,-1.9113429139975724,-7.40981018121396,2.452,0.012220190805517882,0.00592450421857808,-0.59964046732356,-0.800154283331923,"(1.1151360000000001, 0.0, 0.0, 0.0, 0.0, 0.0, 0.0, 1.1151360000000001, 0.0, 0.0, 0.0, 0.0, 0.0, 0.0, 2.062096, 0.0, 0.0, 0.0, 0.0, 0.0, 0.0, 99999.0, 0.0, 0.0, 0.0, 0.0, 0.0, 0.0, 99999.0, 0.0, 0.0, 0.0, 0.0, 0.0, 0.0, 99999.0)",0.07,-0.07,0.01,0.0,0.0,0.0,"(-1.0, 0.0, 0.0, 0.0, 0.0, 0.0, 0.0, 0.0, 0.0, 0.0, 0.0, 0.0, 0.0, 0.0, 0.0, 0.0, 0.0, 0.0, 0.0, 0.0, 0.0, 0.0, 0.0, 0.0, 0.0, 0.0, 0.0, 0.0, 0.0, 0.0, 0.0, 0.0, 0.0, 0.0, 0.0, 0.0)"
1737285430.1282272,12569,1737285430,125748736,map,base_link,-1.9206212724087215,-7.409810156050676,2.434,0.010995464700803764,0.004642624894838305,-0.5743179257975306,-0.8185453352733257,"(1.1151360000000001, 0.0, 0.0, 0.0, 0.0, 0.0, 0.0, 1.1151360000000001, 0.0, 0.0, 0.0, 0.0, 0.0, 0.0, 2.062096, 0.0, 0.0, 0.0, 0.0, 0.0, 0.0, 99999.0, 0.0, 0.0, 0.0, 0.0, 0.0, 0.0, 99999.0, 0.0, 0.0, 0.0, 0.0, 0.0, 0.0, 99999.0)",0.03,-0.07,0.05,0.0,0.0,0.0,"(-1.0, 0.0, 0.0, 0.0, 0.0, 0.0, 0.0, 0.0, 0.0, 0.0, 0.0, 0.0, 0.0, 0.0, 0.0, 0.0, 0.0, 0.0, 0.0, 0.0, 0.0, 0.0, 0.0, 0.0, 0.0, 0.0, 0.0, 0.0, 0.0, 0.0, 0.0, 0.0, 0.0, 0.0, 0.0, 0.0)"
1737285430.2268693,12570,1737285430,224745920,map,base_link,-1.9206212663883557,-7.409810132535956,2.419,0.010265937254245395,0.0021966174669277474,-0.5623199215934647,-0.8268531255205578,"(1.121481, 0.0, 0.0, 0.0, 0.0, 0.0, 0.0, 1.121481, 0.0, 0.0, 0.0, 0.0, 0.0, 0.0, 2.0707210000000003, 0.0, 0.0, 0.0, 0.0, 0.0, 0.0, 99999.0, 0.0, 0.0, 0.0, 0.0, 0.0, 0.0, 99999.0, 0.0, 0.0, 0.0, 0.0, 0.0, 0.0, 99999.0)",0.0,-0.08,0.03,0.0,0.0,0.0,"(-1.0, 0.0, 0.0, 0.0, 0.0, 0.0, 0.0, 0.0, 0.0, 0.0, 0.0, 0.0, 0.0, 0.0, 0.0, 0.0, 0.0, 0.0, 0.0, 0.0, 0.0, 0.0, 0.0, 0.0, 0.0, 0.0, 0.0, 0.0, 0.0, 0.0, 0.0, 0.0, 0.0, 0.0, 0.0, 0.0)"
1737285430.327413,12571,1737285430,324740288,map,base_link,-1.9206212663883557,-7.409810132535956,2.411,0.011433121422435098,-0.0002490826720843246,-0.5609243058853826,-0.8277881037798042,"(1.121481, 0.0, 0.0, 0.0, 0.0, 0.0, 0.0, 1.121481, 0.0, 0.0, 0.0, 0.0, 0.0, 0.0, 2.0707210000000003, 0.0, 0.0, 0.0, 0.0, 0.0, 0.0, 99999.0, 0.0, 0.0, 0.0, 0.0, 0.0, 0.0, 99999.0, 0.0, 0.0, 0.0, 0.0, 0.0, 0.0, 99999.0)",-0.02,-0.08,0.03,0.0,0.0,0.0,"(-1.0, 0.0, 0.0, 0.0, 0.0, 0.0, 0.0, 0.0, 0.0, 0.0, 0.0, 0.0, 0.0, 0.0, 0.0, 0.0, 0.0, 0.0, 0.0, 0.0, 0.0, 0.0, 0.0, 0.0, 0.0, 0.0, 0.0, 0.0, 0.0, 0.0, 0.0, 0.0, 0.0, 0.0, 0.0, 0.0)"
1737285430.4261773,12572,1737285430,424734656,map,base_link,-1.9298996266964539,-7.409810118747552,2.409,0.009699807945165293,-0.0014765826250621164,-0.566884117114216,-0.8237391159786053,"(1.1236000000000002, 0.0, 0.0, 0.0, 0.0, 0.0, 0.0, 1.1236000000000002, 0.0, 0.0, 0.0, 0.0, 0.0, 0.0, 2.0764810000000002, 0.0, 0.0, 0.0, 0.0, 0.0, 0.0, 99999.0, 0.0, 0.0, 0.0, 0.0, 0.0, 0.0, 99999.0, 0.0, 0.0, 0.0, 0.0, 0.0, 0.0, 99999.0)",-0.01,-0.09,-0.08,0.0,0.0,0.0,"(-1.0, 0.0, 0.0, 0.0, 0.0, 0.0, 0.0, 0.0, 0.0, 0.0, 0.0, 0.0, 0.0, 0.0, 0.0, 0.0, 0.0, 0.0, 0.0, 0.0, 0.0, 0.0, 0.0, 0.0, 0.0, 0.0, 0.0, 0.0, 0.0, 0.0, 0.0, 0.0, 0.0, 0.0, 0.0, 0.0)"
1737285430.5285072,12573,1737285430,525730304,map,base_link,-1.9391779928520534,-7.409810128680473,2.413,0.006543976925955801,-0.0029026059449466716,-0.5758724315844148,-0.8175082224575937,"(1.1236000000000002, 0.0, 0.0, 0.0, 0.0, 0.0, 0.0, 1.1236000000000002, 0.0, 0.0, 0.0, 0.0, 0.0, 0.0, 2.0764810000000002, 0.0, 0.0, 0.0, 0.0, 0.0, 0.0, 99999.0, 0.0, 0.0, 0.0, 0.0, 0.0, 0.0, 99999.0, 0.0, 0.0, 0.0, 0.0, 0.0, 0.0, 99999.0)",0.01,-0.09,-0.03,0.0,0.0,0.0,"(-1.0, 0.0, 0.0, 0.0, 0.0, 0.0, 0.0, 0.0, 0.0, 0.0, 0.0, 0.0, 0.0, 0.0, 0.0, 0.0, 0.0, 0.0, 0.0, 0.0, 0.0, 0.0, 0.0, 0.0, 0.0, 0.0, 0.0, 0.0, 0.0, 0.0, 0.0, 0.0, 0.0, 0.0, 0.0, 0.0)"
1737285430.6280608,12574,1737285430,624726208,map,base_link,-1.9391779958622364,-7.409810140243987,2.42,0.005354417250195039,-0.003089512202720816,-0.582396277166163,-0.8128815174877911,"(1.125721, 0.0, 0.0, 0.0, 0.0, 0.0, 0.0, 1.125721, 0.0, 0.0, 0.0, 0.0, 0.0, 0.0, 2.082249, 0.0, 0.0, 0.0, 0.0, 0.0, 0.0, 99999.0, 0.0, 0.0, 0.0, 0.0, 0.0, 0.0, 99999.0, 0.0, 0.0, 0.0, 0.0, 0.0, 0.0, 99999.0)",0.0,-0.08,-0.05,0.0,0.0,0.0,"(-1.0, 0.0, 0.0, 0.0, 0.0, 0.0, 0.0, 0.0, 0.0, 0.0, 0.0, 0.0, 0.0, 0.0, 0.0, 0.0, 0.0, 0.0, 0.0, 0.0, 0.0, 0.0, 0.0, 0.0, 0.0, 0.0, 0.0, 0.0, 0.0, 0.0, 0.0, 0.0, 0.0, 0.0, 0.0, 0.0)"
1737285430.7283442,12575,1737285430,725722112,map,base_link,-1.9391780009450357,-7.420902682636923,2.431,0.0058528368372467434,-0.0017133870339485447,-0.5860909306782723,-0.8102223334261436,"(1.125721, 0.0, 0.0, 0.0, 0.0, 0.0, 0.0, 1.125721, 0.0, 0.0, 0.0, 0.0, 0.0, 0.0, 2.082249, 0.0, 0.0, 0.0, 0.0, 0.0, 0.0, 99999.0, 0.0, 0.0, 0.0, 0.0, 0.0, 0.0, 99999.0, 0.0, 0.0, 0.0, 0.0, 0.0, 0.0, 99999.0)",0.0,-0.09,-0.1,0.0,0.0,0.0,"(-1.0, 0.0, 0.0, 0.0, 0.0, 0.0, 0.0, 0.0, 0.0, 0.0, 0.0, 0.0, 0.0, 0.0, 0.0, 0.0, 0.0, 0.0, 0.0, 0.0, 0.0, 0.0, 0.0, 0.0, 0.0, 0.0, 0.0, 0.0, 0.0, 0.0, 0.0, 0.0, 0.0, 0.0, 0.0, 0.0)"
1737285430.8294578,12576,1737285430,826717504,map,base_link,-1.948456368708943,-7.420902692690571,2.441,0.008572839357843991,-0.0031319030298591474,-0.5858393320102624,-0.8103758231083439,"(1.125721, 0.0, 0.0, 0.0, 0.0, 0.0, 0.0, 1.125721, 0.0, 0.0, 0.0, 0.0, 0.0, 0.0, 2.085136, 0.0, 0.0, 0.0, 0.0, 0.0, 0.0, 99999.0, 0.0, 0.0, 0.0, 0.0, 0.0, 0.0, 99999.0, 0.0, 0.0, 0.0, 0.0, 0.0, 0.0, 99999.0)",0.0,-0.09,-0.08,0.0,0.0,0.0,"(-1.0, 0.0, 0.0, 0.0, 0.0, 0.0, 0.0, 0.0, 0.0, 0.0, 0.0, 0.0, 0.0, 0.0, 0.0, 0.0, 0.0, 0.0, 0.0, 0.0, 0.0, 0.0, 0.0, 0.0, 0.0, 0.0, 0.0, 0.0, 0.0, 0.0, 0.0, 0.0, 0.0, 0.0, 0.0, 0.0)"
1737285430.9332035,12577,1737285430,927710592,map,base_link,-1.948456368708943,-7.420902692690571,2.448,0.0056306163439187535,-0.0026987786012639507,-0.5813563160285236,-0.8136251265585352,"(1.125721, 0.0, 0.0, 0.0, 0.0, 0.0, 0.0, 1.125721, 0.0, 0.0, 0.0, 0.0, 0.0, 0.0, 2.085136, 0.0, 0.0, 0.0, 0.0, 0.0, 0.0, 99999.0, 0.0, 0.0, 0.0, 0.0, 0.0, 0.0, 99999.0, 0.0, 0.0, 0.0, 0.0, 0.0, 0.0, 99999.0)",0.0,-0.09,-0.01,0.0,0.0,0.0,"(-1.0, 0.0, 0.0, 0.0, 0.0, 0.0, 0.0, 0.0, 0.0, 0.0, 0.0, 0.0, 0.0, 0.0, 0.0, 0.0, 0.0, 0.0, 0.0, 0.0, 0.0, 0.0, 0.0, 0.0, 0.0, 0.0, 0.0, 0.0, 0.0, 0.0, 0.0, 0.0, 0.0, 0.0, 0.0, 0.0)"
1737285431.0260363,12578,1737285431,24706496,map,base_link,-1.948456371446698,-7.42090270474741,2.453,0.01081528724167154,-0.0046766785876530366,-0.5772196299788925,-0.8165039234481967,"(1.127844, 0.0, 0.0, 0.0, 0.0, 0.0, 0.0, 1.127844, 0.0, 0.0, 0.0, 0.0, 0.0, 0.0, 2.088025, 0.0, 0.0, 0.0, 0.0, 0.0, 0.0, 99999.0, 0.0, 0.0, 0.0, 0.0, 0.0, 0.0, 99999.0, 0.0, 0.0, 0.0, 0.0, 0.0, 0.0, 99999.0)",0.01,-0.09,-0.04,0.0,0.0,0.0,"(-1.0, 0.0, 0.0, 0.0, 0.0, 0.0, 0.0, 0.0, 0.0, 0.0, 0.0, 0.0, 0.0, 0.0, 0.0, 0.0, 0.0, 0.0, 0.0, 0.0, 0.0, 0.0, 0.0, 0.0, 0.0, 0.0, 0.0, 0.0, 0.0, 0.0, 0.0, 0.0, 0.0, 0.0, 0.0, 0.0)"
1737285431.1285632,12579,1737285431,125693952,map,base_link,-1.9577347346418956,-7.420902702198074,2.458,0.012559848253524285,-0.005226703690540575,-0.5761458671523195,-0.8172336700991227,"(1.127844, 0.0, 0.0, 0.0, 0.0, 0.0, 0.0, 1.127844, 0.0, 0.0, 0.0, 0.0, 0.0, 0.0, 2.088025, 0.0, 0.0, 0.0, 0.0, 0.0, 0.0, 99999.0, 0.0, 0.0, 0.0, 0.0, 0.0, 0.0, 99999.0, 0.0, 0.0, 0.0, 0.0, 0.0, 0.0, 99999.0)",0.0,-0.08,-0.04,0.0,0.0,0.0,"(-1.0, 0.0, 0.0, 0.0, 0.0, 0.0, 0.0, 0.0, 0.0, 0.0, 0.0, 0.0, 0.0, 0.0, 0.0, 0.0, 0.0, 0.0, 0.0, 0.0, 0.0, 0.0, 0.0, 0.0, 0.0, 0.0, 0.0, 0.0, 0.0, 0.0, 0.0, 0.0, 0.0, 0.0, 0.0, 0.0)"
1737285431.2266085,12580,1737285431,224688832,map,base_link,-1.9577347353070342,-7.40981018342549,2.462,0.010858150307662308,-0.004785251972866671,-0.5768201911361169,-0.816784958868089,"(1.1299689999999998, 0.0, 0.0, 0.0, 0.0, 0.0, 0.0, 1.1299689999999998, 0.0, 0.0, 0.0, 0.0, 0.0, 0.0, 2.0938090000000003, 0.0, 0.0, 0.0, 0.0, 0.0, 0.0, 99999.0, 0.0, 0.0, 0.0, 0.0, 0.0, 0.0, 99999.0, 0.0, 0.0, 0.0, 0.0, 0.0, 0.0, 99999.0)",0.03,-0.08,-0.02,0.0,0.0,0.0,"(-1.0, 0.0, 0.0, 0.0, 0.0, 0.0, 0.0, 0.0, 0.0, 0.0, 0.0, 0.0, 0.0, 0.0, 0.0, 0.0, 0.0, 0.0, 0.0, 0.0, 0.0, 0.0, 0.0, 0.0, 0.0, 0.0, 0.0, 0.0, 0.0, 0.0, 0.0, 0.0, 0.0, 0.0, 0.0, 0.0)"
1737285431.3281944,12581,1737285431,326681152,map,base_link,-1.9577347353070342,-7.40981018342549,2.465,0.00772680628569767,-0.0026563269727258735,-0.578044296757323,-0.815964479237895,"(1.1299689999999998, 0.0, 0.0, 0.0, 0.0, 0.0, 0.0, 1.1299689999999998, 0.0, 0.0, 0.0, 0.0, 0.0, 0.0, 2.0938090000000003, 0.0, 0.0, 0.0, 0.0, 0.0, 0.0, 99999.0, 0.0, 0.0, 0.0, 0.0, 0.0, 0.0, 99999.0, 0.0, 0.0, 0.0, 0.0, 0.0, 0.0, 99999.0)",0.02,-0.07,0.02,0.0,0.0,0.0,"(-1.0, 0.0, 0.0, 0.0, 0.0, 0.0, 0.0, 0.0, 0.0, 0.0, 0.0, 0.0, 0.0, 0.0, 0.0, 0.0, 0.0, 0.0, 0.0, 0.0, 0.0, 0.0, 0.0, 0.0, 0.0, 0.0, 0.0, 0.0, 0.0, 0.0, 0.0, 0.0, 0.0, 0.0, 0.0, 0.0)"
1737285431.4272501,12582,1737285431,424673984,map,base_link,-1.9577347353070342,-7.40981018342549,2.466,0.005620774166177216,-0.0011475795807019894,-0.5781516694812541,-0.8159091475372228,"(1.1320960000000002, 0.0, 0.0, 0.0, 0.0, 0.0, 0.0, 1.1320960000000002, 0.0, 0.0, 0.0, 0.0, 0.0, 0.0, 2.0938090000000003, 0.0, 0.0, 0.0, 0.0, 0.0, 0.0, 99999.0, 0.0, 0.0, 0.0, 0.0, 0.0, 0.0, 99999.0, 0.0, 0.0, 0.0, 0.0, 0.0, 0.0, 99999.0)",0.05,-0.07,-0.04,0.0,0.0,0.0,"(-1.0, 0.0, 0.0, 0.0, 0.0, 0.0, 0.0, 0.0, 0.0, 0.0, 0.0, 0.0, 0.0, 0.0, 0.0, 0.0, 0.0, 0.0, 0.0, 0.0, 0.0, 0.0, 0.0, 0.0, 0.0, 0.0, 0.0, 0.0, 0.0, 0.0, 0.0, 0.0, 0.0, 0.0, 0.0, 0.0)"
1737285431.5282555,12583,1737285431,526670144,map,base_link,-1.9577347383669985,-7.409810194845644,2.471,0.006123026573478326,-0.0023392760896889095,-0.5788538213796071,-0.8154049851498227,"(1.1320960000000002, 0.0, 0.0, 0.0, 0.0, 0.0, 0.0, 1.1320960000000002, 0.0, 0.0, 0.0, 0.0, 0.0, 0.0, 2.0938090000000003, 0.0, 0.0, 0.0, 0.0, 0.0, 0.0, 99999.0, 0.0, 0.0, 0.0, 0.0, 0.0, 0.0, 99999.0, 0.0, 0.0, 0.0, 0.0, 0.0, 0.0, 99999.0)",0.06,-0.07,-0.07,0.0,0.0,0.0,"(-1.0, 0.0, 0.0, 0.0, 0.0, 0.0, 0.0, 0.0, 0.0, 0.0, 0.0, 0.0, 0.0, 0.0, 0.0, 0.0, 0.0, 0.0, 0.0, 0.0, 0.0, 0.0, 0.0, 0.0, 0.0, 0.0, 0.0, 0.0, 0.0, 0.0, 0.0, 0.0, 0.0, 0.0, 0.0, 0.0)"
1737285431.6261535,12584,1737285431,624666560,map,base_link,-1.9484563752215822,-7.4098101972516215,2.477,0.008583006806624983,-0.002086039246941683,-0.5802893563568291,-0.8143624766241349,"(1.1320960000000002, 0.0, 0.0, 0.0, 0.0, 0.0, 0.0, 1.1320960000000002, 0.0, 0.0, 0.0, 0.0, 0.0, 0.0, 2.096704, 0.0, 0.0, 0.0, 0.0, 0.0, 0.0, 99999.0, 0.0, 0.0, 0.0, 0.0, 0.0, 0.0, 99999.0, 0.0, 0.0, 0.0, 0.0, 0.0, 0.0, 99999.0)",0.02,-0.07,-0.02,0.0,0.0,0.0,"(-1.0, 0.0, 0.0, 0.0, 0.0, 0.0, 0.0, 0.0, 0.0, 0.0, 0.0, 0.0, 0.0, 0.0, 0.0, 0.0, 0.0, 0.0, 0.0, 0.0, 0.0, 0.0, 0.0, 0.0, 0.0, 0.0, 0.0, 0.0, 0.0, 0.0, 0.0, 0.0, 0.0, 0.0, 0.0, 0.0)"
1737285431.7283733,12585,1737285431,726659904,map,base_link,-1.9484563784544118,-7.409810208852861,2.487,0.006983410000392602,-0.0027832531253773355,-0.5814186900017695,-0.8135697833642992,"(1.1320960000000002, 0.0, 0.0, 0.0, 0.0, 0.0, 0.0, 1.1320960000000002, 0.0, 0.0, 0.0, 0.0, 0.0, 0.0, 2.096704, 0.0, 0.0, 0.0, 0.0, 0.0, 0.0, 99999.0, 0.0, 0.0, 0.0, 0.0, 0.0, 0.0, 99999.0, 0.0, 0.0, 0.0, 0.0, 0.0, 0.0, 99999.0)",0.04,-0.07,-0.07,0.0,0.0,0.0,"(-1.0, 0.0, 0.0, 0.0, 0.0, 0.0, 0.0, 0.0, 0.0, 0.0, 0.0, 0.0, 0.0, 0.0, 0.0, 0.0, 0.0, 0.0, 0.0, 0.0, 0.0, 0.0, 0.0, 0.0, 0.0, 0.0, 0.0, 0.0, 0.0, 0.0, 0.0, 0.0, 0.0, 0.0, 0.0, 0.0)"
1737285431.8273523,12586,1737285431,825655040,map,base_link,-1.948456381514376,-7.409810220273015,2.496,0.005364001420181073,-0.0006101023268703045,-0.5825444012681896,-0.8127809519267795,"(1.1342249999999998, 0.0, 0.0, 0.0, 0.0, 0.0, 0.0, 1.1342249999999998, 0.0, 0.0, 0.0, 0.0, 0.0, 0.0, 2.0996010000000003, 0.0, 0.0, 0.0, 0.0, 0.0, 0.0, 99999.0, 0.0, 0.0, 0.0, 0.0, 0.0, 0.0, 99999.0, 0.0, 0.0, 0.0, 0.0, 0.0, 0.0, 99999.0)",0.06,-0.07,0.01,0.0,0.0,0.0,"(-1.0, 0.0, 0.0, 0.0, 0.0, 0.0, 0.0, 0.0, 0.0, 0.0, 0.0, 0.0, 0.0, 0.0, 0.0, 0.0, 0.0, 0.0, 0.0, 0.0, 0.0, 0.0, 0.0, 0.0, 0.0, 0.0, 0.0, 0.0, 0.0, 0.0, 0.0, 0.0, 0.0, 0.0, 0.0, 0.0)"
1737285431.9288254,12587,1737285431,926643776,map,base_link,-1.9391780147875977,-7.398717691442123,2.499,0.004874888073223058,0.0010298824844666265,-0.5822691925102416,-0.8129807883719105,"(1.1342249999999998, 0.0, 0.0, 0.0, 0.0, 0.0, 0.0, 1.1342249999999998, 0.0, 0.0, 0.0, 0.0, 0.0, 0.0, 2.0996010000000003, 0.0, 0.0, 0.0, 0.0, 0.0, 0.0, 99999.0, 0.0, 0.0, 0.0, 0.0, 0.0, 0.0, 99999.0, 0.0, 0.0, 0.0, 0.0, 0.0, 0.0, 99999.0)",0.06,-0.07,0.0,0.0,0.0,0.0,"(-1.0, 0.0, 0.0, 0.0, 0.0, 0.0, 0.0, 0.0, 0.0, 0.0, 0.0, 0.0, 0.0, 0.0, 0.0, 0.0, 0.0, 0.0, 0.0, 0.0, 0.0, 0.0, 0.0, 0.0, 0.0, 0.0, 0.0, 0.0, 0.0, 0.0, 0.0, 0.0, 0.0, 0.0, 0.0, 0.0)"
1737285432.0273917,12588,1737285432,25638912,map,base_link,-1.9391780147875977,-7.398717691442123,2.498,0.008015319533977371,0.000695106744264001,-0.5794030661922045,-0.8150014468493011,"(1.1363560000000001, 0.0, 0.0, 0.0, 0.0, 0.0, 0.0, 1.1363560000000001, 0.0, 0.0, 0.0, 0.0, 0.0, 0.0, 2.0996010000000003, 0.0, 0.0, 0.0, 0.0, 0.0, 0.0, 99999.0, 0.0, 0.0, 0.0, 0.0, 0.0, 0.0, 99999.0, 0.0, 0.0, 0.0, 0.0, 0.0, 0.0, 99999.0)",0.05,-0.09,-0.01,0.0,0.0,0.0,"(-1.0, 0.0, 0.0, 0.0, 0.0, 0.0, 0.0, 0.0, 0.0, 0.0, 0.0, 0.0, 0.0, 0.0, 0.0, 0.0, 0.0, 0.0, 0.0, 0.0, 0.0, 0.0, 0.0, 0.0, 0.0, 0.0, 0.0, 0.0, 0.0, 0.0, 0.0, 0.0, 0.0, 0.0, 0.0, 0.0)"
1737285432.1308677,12589,1737285432,126636352,map,base_link,-1.9391780147875977,-7.398717691442123,2.495,0.010893413231715667,-0.0004817672074430164,-0.5748142433992767,-0.818211272859179,"(1.1363560000000001, 0.0, 0.0, 0.0, 0.0, 0.0, 0.0, 1.1363560000000001, 0.0, 0.0, 0.0, 0.0, 0.0, 0.0, 2.0996010000000003, 0.0, 0.0, 0.0, 0.0, 0.0, 0.0, 99999.0, 0.0, 0.0, 0.0, 0.0, 0.0, 0.0, 99999.0, 0.0, 0.0, 0.0, 0.0, 0.0, 0.0, 99999.0)",0.05,-0.09,0.06,0.0,0.0,0.0,"(-1.0, 0.0, 0.0, 0.0, 0.0, 0.0, 0.0, 0.0, 0.0, 0.0, 0.0, 0.0, 0.0, 0.0, 0.0, 0.0, 0.0, 0.0, 0.0, 0.0, 0.0, 0.0, 0.0, 0.0, 0.0, 0.0, 0.0, 0.0, 0.0, 0.0, 0.0, 0.0, 0.0, 0.0, 0.0, 0.0)"
1737285432.2272482,12590,1737285432,225632512,map,base_link,-1.93917801703308,-7.409810222840323,2.494,0.009433780618333987,-0.0005123493346208685,-0.5718508466684454,-0.8203032064096705,"(1.1363560000000001, 0.0, 0.0, 0.0, 0.0, 0.0, 0.0, 1.1363560000000001, 0.0, 0.0, 0.0, 0.0, 0.0, 0.0, 2.0996010000000003, 0.0, 0.0, 0.0, 0.0, 0.0, 0.0, 99999.0, 0.0, 0.0, 0.0, 0.0, 0.0, 0.0, 99999.0, 0.0, 0.0, 0.0, 0.0, 0.0, 0.0, 99999.0)",0.06,-0.1,-0.02,0.0,0.0,0.0,"(-1.0, 0.0, 0.0, 0.0, 0.0, 0.0, 0.0, 0.0, 0.0, 0.0, 0.0, 0.0, 0.0, 0.0, 0.0, 0.0, 0.0, 0.0, 0.0, 0.0, 0.0, 0.0, 0.0, 0.0, 0.0, 0.0, 0.0, 0.0, 0.0, 0.0, 0.0, 0.0, 0.0, 0.0, 0.0, 0.0)"
1737285432.3283339,12591,1737285432,326625856,map,base_link,-1.93917801703308,-7.409810222840323,2.495,0.008344494587338361,-0.003727508051799006,-0.5736188767100663,-0.8190713396131545,"(1.1363560000000001, 0.0, 0.0, 0.0, 0.0, 0.0, 0.0, 1.1363560000000001, 0.0, 0.0, 0.0, 0.0, 0.0, 0.0, 2.0996010000000003, 0.0, 0.0, 0.0, 0.0, 0.0, 0.0, 99999.0, 0.0, 0.0, 0.0, 0.0, 0.0, 0.0, 99999.0, 0.0, 0.0, 0.0, 0.0, 0.0, 0.0, 99999.0)",0.04,-0.09,0.05,0.0,0.0,0.0,"(-1.0, 0.0, 0.0, 0.0, 0.0, 0.0, 0.0, 0.0, 0.0, 0.0, 0.0, 0.0, 0.0, 0.0, 0.0, 0.0, 0.0, 0.0, 0.0, 0.0, 0.0, 0.0, 0.0, 0.0, 0.0, 0.0, 0.0, 0.0, 0.0, 0.0, 0.0, 0.0, 0.0, 0.0, 0.0, 0.0)"
1737285432.4273,12592,1737285432,425620736,map,base_link,-1.93917801703308,-7.409810222840323,2.495,0.00860084758690907,-0.0026298237772209767,-0.5736523691521993,-0.8190494910649515,"(1.1363560000000001, 0.0, 0.0, 0.0, 0.0, 0.0, 0.0, 1.1363560000000001, 0.0, 0.0, 0.0, 0.0, 0.0, 0.0, 2.0996010000000003, 0.0, 0.0, 0.0, 0.0, 0.0, 0.0, 99999.0, 0.0, 0.0, 0.0, 0.0, 0.0, 0.0, 99999.0, 0.0, 0.0, 0.0, 0.0, 0.0, 0.0, 99999.0)",0.06,-0.1,-0.03,0.0,0.0,0.0,"(-1.0, 0.0, 0.0, 0.0, 0.0, 0.0, 0.0, 0.0, 0.0, 0.0, 0.0, 0.0, 0.0, 0.0, 0.0, 0.0, 0.0, 0.0, 0.0, 0.0, 0.0, 0.0, 0.0, 0.0, 0.0, 0.0, 0.0, 0.0, 0.0, 0.0, 0.0, 0.0, 0.0, 0.0, 0.0, 0.0)"
1737285432.526527,12593,1737285432,524620736,map,base_link,-1.93917801703308,-7.409810222840323,2.49,0.010974517018660068,-0.0033741830713767827,-0.5728607507418748,-0.8195722879186822,"(1.1363560000000001, 0.0, 0.0, 0.0, 0.0, 0.0, 0.0, 1.1363560000000001, 0.0, 0.0, 0.0, 0.0, 0.0, 0.0, 2.0996010000000003, 0.0, 0.0, 0.0, 0.0, 0.0, 0.0, 99999.0, 0.0, 0.0, 0.0, 0.0, 0.0, 0.0, 99999.0, 0.0, 0.0, 0.0, 0.0, 0.0, 0.0, 99999.0)",0.02,-0.08,0.06,0.0,0.0,0.0,"(-1.0, 0.0, 0.0, 0.0, 0.0, 0.0, 0.0, 0.0, 0.0, 0.0, 0.0, 0.0, 0.0, 0.0, 0.0, 0.0, 0.0, 0.0, 0.0, 0.0, 0.0, 0.0, 0.0, 0.0, 0.0, 0.0, 0.0, 0.0, 0.0, 0.0, 0.0, 0.0, 0.0, 0.0, 0.0, 0.0)"
1737285432.6272962,12594,1737285432,625617408,map,base_link,-1.93917801380025,-7.4098102104637,2.486,0.008716321313841207,-0.0024884518385527733,-0.5727202839298385,-0.8197007440069373,"(1.1384889999999999, 0.0, 0.0, 0.0, 0.0, 0.0, 0.0, 1.1384889999999999, 0.0, 0.0, 0.0, 0.0, 0.0, 0.0, 2.0996010000000003, 0.0, 0.0, 0.0, 0.0, 0.0, 0.0, 99999.0, 0.0, 0.0, 0.0, 0.0, 0.0, 0.0, 99999.0, 0.0, 0.0, 0.0, 0.0, 0.0, 0.0, 99999.0)",0.03,-0.09,-0.01,0.0,0.0,0.0,"(-1.0, 0.0, 0.0, 0.0, 0.0, 0.0, 0.0, 0.0, 0.0, 0.0, 0.0, 0.0, 0.0, 0.0, 0.0, 0.0, 0.0, 0.0, 0.0, 0.0, 0.0, 0.0, 0.0, 0.0, 0.0, 0.0, 0.0, 0.0, 0.0, 0.0, 0.0, 0.0, 0.0, 0.0, 0.0, 0.0)"
1737285432.7265818,12595,1737285432,724612800,map,base_link,-1.9298996506548338,-7.409810212481983,2.482,0.0077735618930331015,-0.002788829974852787,-0.5752620273488596,-0.8179274992646636,"(1.1384889999999999, 0.0, 0.0, 0.0, 0.0, 0.0, 0.0, 1.1384889999999999, 0.0, 0.0, 0.0, 0.0, 0.0, 0.0, 2.0996010000000003, 0.0, 0.0, 0.0, 0.0, 0.0, 0.0, 99999.0, 0.0, 0.0, 0.0, 0.0, 0.0, 0.0, 99999.0, 0.0, 0.0, 0.0, 0.0, 0.0, 0.0, 99999.0)",0.02,-0.08,0.03,0.0,0.0,0.0,"(-1.0, 0.0, 0.0, 0.0, 0.0, 0.0, 0.0, 0.0, 0.0, 0.0, 0.0, 0.0, 0.0, 0.0, 0.0, 0.0, 0.0, 0.0, 0.0, 0.0, 0.0, 0.0, 0.0, 0.0, 0.0, 0.0, 0.0, 0.0, 0.0, 0.0, 0.0, 0.0, 0.0, 0.0, 0.0, 0.0)"
1737285432.8272989,12596,1737285432,825609728,map,base_link,-1.9298996456218156,-7.398717669945688,2.476,0.008519061262638418,-4.244654131207395e-06,-0.5765294321325887,-0.8170319696695233,"(1.1384889999999999, 0.0, 0.0, 0.0, 0.0, 0.0, 0.0, 1.1384889999999999, 0.0, 0.0, 0.0, 0.0, 0.0, 0.0, 2.0996010000000003, 0.0, 0.0, 0.0, 0.0, 0.0, 0.0, 99999.0, 0.0, 0.0, 0.0, 0.0, 0.0, 0.0, 99999.0, 0.0, 0.0, 0.0, 0.0, 0.0, 0.0, 99999.0)",0.03,-0.08,0.02,0.0,0.0,0.0,"(-1.0, 0.0, 0.0, 0.0, 0.0, 0.0, 0.0, 0.0, 0.0, 0.0, 0.0, 0.0, 0.0, 0.0, 0.0, 0.0, 0.0, 0.0, 0.0, 0.0, 0.0, 0.0, 0.0, 0.0, 0.0, 0.0, 0.0, 0.0, 0.0, 0.0, 0.0, 0.0, 0.0, 0.0, 0.0, 0.0)"
1737285432.9269493,12597,1737285432,924605632,map,base_link,-1.9206212824763993,-7.398717671963973,2.47,0.008213975110663489,-0.00015181396176043078,-0.5781936470191398,-0.8158582071120621,"(1.1384889999999999, 0.0, 0.0, 0.0, 0.0, 0.0, 0.0, 1.1384889999999999, 0.0, 0.0, 0.0, 0.0, 0.0, 0.0, 2.0996010000000003, 0.0, 0.0, 0.0, 0.0, 0.0, 0.0, 99999.0, 0.0, 0.0, 0.0, 0.0, 0.0, 0.0, 99999.0, 0.0, 0.0, 0.0, 0.0, 0.0, 0.0, 99999.0)",0.06,-0.08,0.0,0.0,0.0,0.0,"(-1.0, 0.0, 0.0, 0.0, 0.0, 0.0, 0.0, 0.0, 0.0, 0.0, 0.0, 0.0, 0.0, 0.0, 0.0, 0.0, 0.0, 0.0, 0.0, 0.0, 0.0, 0.0, 0.0, 0.0, 0.0, 0.0, 0.0, 0.0, 0.0, 0.0, 0.0, 0.0, 0.0, 0.0, 0.0, 0.0)"
1737285433.0284421,12598,1737285433,26601536,map,base_link,-1.92062127924357,-7.398717659975041,2.465,0.007149221752050652,8.665170322320796e-05,-0.5792101256494372,-0.8151469263053044,"(1.1384889999999999, 0.0, 0.0, 0.0, 0.0, 0.0, 0.0, 1.1384889999999999, 0.0, 0.0, 0.0, 0.0, 0.0, 0.0, 2.1025, 0.0, 0.0, 0.0, 0.0, 0.0, 0.0, 99999.0, 0.0, 0.0, 0.0, 0.0, 0.0, 0.0, 99999.0, 0.0, 0.0, 0.0, 0.0, 0.0, 0.0, 99999.0)",0.05,-0.07,0.0,0.0,0.0,0.0,"(-1.0, 0.0, 0.0, 0.0, 0.0, 0.0, 0.0, 0.0, 0.0, 0.0, 0.0, 0.0, 0.0, 0.0, 0.0, 0.0, 0.0, 0.0, 0.0, 0.0, 0.0, 0.0, 0.0, 0.0, 0.0, 0.0, 0.0, 0.0, 0.0, 0.0, 0.0, 0.0, 0.0, 0.0, 0.0, 0.0)"
1737285433.127345,12599,1737285433,125594880,map,base_link,-1.9113429147622734,-7.398717662154658,2.465,0.00855068758981417,-0.001447493828227264,-0.5814947418643674,-0.8135039371063001,"(1.1384889999999999, 0.0, 0.0, 0.0, 0.0, 0.0, 0.0, 1.1384889999999999, 0.0, 0.0, 0.0, 0.0, 0.0, 0.0, 2.1025, 0.0, 0.0, 0.0, 0.0, 0.0, 0.0, 99999.0, 0.0, 0.0, 0.0, 0.0, 0.0, 0.0, 99999.0, 0.0, 0.0, 0.0, 0.0, 0.0, 0.0, 99999.0)",0.07,-0.08,-0.07,0.0,0.0,0.0,"(-1.0, 0.0, 0.0, 0.0, 0.0, 0.0, 0.0, 0.0, 0.0, 0.0, 0.0, 0.0, 0.0, 0.0, 0.0, 0.0, 0.0, 0.0, 0.0, 0.0, 0.0, 0.0, 0.0, 0.0, 0.0, 0.0, 0.0, 0.0, 0.0, 0.0, 0.0, 0.0, 0.0, 0.0, 0.0, 0.0)"
1737285433.2264187,12600,1737285433,224589504,map,base_link,-1.9113429147622734,-7.398717662154658,2.468,0.013442394646716975,-0.0014650520488074029,-0.5828330143593455,-0.8124794354452642,"(1.140624, 0.0, 0.0, 0.0, 0.0, 0.0, 0.0, 1.140624, 0.0, 0.0, 0.0, 0.0, 0.0, 0.0, 2.1025, 0.0, 0.0, 0.0, 0.0, 0.0, 0.0, 99999.0, 0.0, 0.0, 0.0, 0.0, 0.0, 0.0, 99999.0, 0.0, 0.0, 0.0, 0.0, 0.0, 0.0, 99999.0)",0.03,-0.07,-0.06,0.0,0.0,0.0,"(-1.0, 0.0, 0.0, 0.0, 0.0, 0.0, 0.0, 0.0, 0.0, 0.0, 0.0, 0.0, 0.0, 0.0, 0.0, 0.0, 0.0, 0.0, 0.0, 0.0, 0.0, 0.0, 0.0, 0.0, 0.0, 0.0, 0.0, 0.0, 0.0, 0.0, 0.0, 0.0, 0.0, 0.0, 0.0, 0.0)"
1737285433.3274872,12601,1737285433,325588736,map,base_link,-1.9020645546768213,-7.398717675593096,2.473,0.013719643937826218,-0.00012433707097600507,-0.5796575710505643,-0.8147446570762352,"(1.140624, 0.0, 0.0, 0.0, 0.0, 0.0, 0.0, 1.140624, 0.0, 0.0, 0.0, 0.0, 0.0, 0.0, 2.1025, 0.0, 0.0, 0.0, 0.0, 0.0, 0.0, 99999.0, 0.0, 0.0, 0.0, 0.0, 0.0, 0.0, 99999.0, 0.0, 0.0, 0.0, 0.0, 0.0, 0.0, 99999.0)",0.04,-0.07,0.0,0.0,0.0,0.0,"(-1.0, 0.0, 0.0, 0.0, 0.0, 0.0, 0.0, 0.0, 0.0, 0.0, 0.0, 0.0, 0.0, 0.0, 0.0, 0.0, 0.0, 0.0, 0.0, 0.0, 0.0, 0.0, 0.0, 0.0, 0.0, 0.0, 0.0, 0.0, 0.0, 0.0, 0.0, 0.0, 0.0, 0.0, 0.0, 0.0)"
1737285433.4266267,12602,1737285433,424582080,map,base_link,-1.8927861906905996,-7.398717677317115,2.476,0.010110754699566052,0.0018614162673966717,-0.5768229229792264,-0.8168045196340346,"(1.140624, 0.0, 0.0, 0.0, 0.0, 0.0, 0.0, 1.140624, 0.0, 0.0, 0.0, 0.0, 0.0, 0.0, 2.1025, 0.0, 0.0, 0.0, 0.0, 0.0, 0.0, 99999.0, 0.0, 0.0, 0.0, 0.0, 0.0, 0.0, 99999.0, 0.0, 0.0, 0.0, 0.0, 0.0, 0.0, 99999.0)",0.06,-0.07,-0.04,0.0,0.0,0.0,"(-1.0, 0.0, 0.0, 0.0, 0.0, 0.0, 0.0, 0.0, 0.0, 0.0, 0.0, 0.0, 0.0, 0.0, 0.0, 0.0, 0.0, 0.0, 0.0, 0.0, 0.0, 0.0, 0.0, 0.0, 0.0, 0.0, 0.0, 0.0, 0.0, 0.0, 0.0, 0.0, 0.0, 0.0, 0.0, 0.0)"
1737285433.5274167,12603,1737285433,525578240,map,base_link,-1.8835078303825012,-7.3987176907178265,2.48,0.007042288688999819,0.0038915447929727055,-0.5732710085751656,-0.8193263164187744,"(1.140624, 0.0, 0.0, 0.0, 0.0, 0.0, 0.0, 1.140624, 0.0, 0.0, 0.0, 0.0, 0.0, 0.0, 2.1025, 0.0, 0.0, 0.0, 0.0, 0.0, 0.0, 99999.0, 0.0, 0.0, 0.0, 0.0, 0.0, 0.0, 99999.0, 0.0, 0.0, 0.0, 0.0, 0.0, 0.0, 99999.0)",0.05,-0.07,-0.07,0.0,0.0,0.0,"(-1.0, 0.0, 0.0, 0.0, 0.0, 0.0, 0.0, 0.0, 0.0, 0.0, 0.0, 0.0, 0.0, 0.0, 0.0, 0.0, 0.0, 0.0, 0.0, 0.0, 0.0, 0.0, 0.0, 0.0, 0.0, 0.0, 0.0, 0.0, 0.0, 0.0, 0.0, 0.0, 0.0, 0.0, 0.0, 0.0)"
1737285433.6264298,12604,1737285433,624570048,map,base_link,-1.8835078303825012,-7.3987176907178265,2.482,0.00958848034260846,0.003702390155562953,-0.5737361116187071,-0.8189757185512292,"(1.140624, 0.0, 0.0, 0.0, 0.0, 0.0, 0.0, 1.140624, 0.0, 0.0, 0.0, 0.0, 0.0, 0.0, 2.1025, 0.0, 0.0, 0.0, 0.0, 0.0, 0.0, 99999.0, 0.0, 0.0, 0.0, 0.0, 0.0, 0.0, 99999.0, 0.0, 0.0, 0.0, 0.0, 0.0, 0.0, 99999.0)",0.02,-0.07,-0.03,0.0,0.0,0.0,"(-1.0, 0.0, 0.0, 0.0, 0.0, 0.0, 0.0, 0.0, 0.0, 0.0, 0.0, 0.0, 0.0, 0.0, 0.0, 0.0, 0.0, 0.0, 0.0, 0.0, 0.0, 0.0, 0.0, 0.0, 0.0, 0.0, 0.0, 0.0, 0.0, 0.0, 0.0, 0.0, 0.0, 0.0, 0.0, 0.0)"
1737285433.727497,12605,1737285433,725567232,map,base_link,-1.8742294672868662,-7.398717692592752,2.484,0.009979530727423457,0.004142941679343521,-0.5728612466484105,-0.8195811351471742,"(1.140624, 0.0, 0.0, 0.0, 0.0, 0.0, 0.0, 1.140624, 0.0, 0.0, 0.0, 0.0, 0.0, 0.0, 2.1025, 0.0, 0.0, 0.0, 0.0, 0.0, 0.0, 99999.0, 0.0, 0.0, 0.0, 0.0, 0.0, 0.0, 99999.0, 0.0, 0.0, 0.0, 0.0, 0.0, 0.0, 99999.0)",0.05,-0.08,-0.05,0.0,0.0,0.0,"(-1.0, 0.0, 0.0, 0.0, 0.0, 0.0, 0.0, 0.0, 0.0, 0.0, 0.0, 0.0, 0.0, 0.0, 0.0, 0.0, 0.0, 0.0, 0.0, 0.0, 0.0, 0.0, 0.0, 0.0, 0.0, 0.0, 0.0, 0.0, 0.0, 0.0, 0.0, 0.0, 0.0, 0.0, 0.0, 0.0)"
1737285433.8264837,12606,1737285433,824563904,map,base_link,-1.8649511025829233,-7.39871769434695,2.485,0.01238427680357186,0.004431263002859318,-0.5705660870797002,-0.8211463535027186,"(1.140624, 0.0, 0.0, 0.0, 0.0, 0.0, 0.0, 1.140624, 0.0, 0.0, 0.0, 0.0, 0.0, 0.0, 2.105401, 0.0, 0.0, 0.0, 0.0, 0.0, 0.0, 99999.0, 0.0, 0.0, 0.0, 0.0, 0.0, 0.0, 99999.0, 0.0, 0.0, 0.0, 0.0, 0.0, 0.0, 99999.0)",0.0,-0.08,0.0,0.0,0.0,0.0,"(-1.0, 0.0, 0.0, 0.0, 0.0, 0.0, 0.0, 0.0, 0.0, 0.0, 0.0, 0.0, 0.0, 0.0, 0.0, 0.0, 0.0, 0.0, 0.0, 0.0, 0.0, 0.0, 0.0, 0.0, 0.0, 0.0, 0.0, 0.0, 0.0, 0.0, 0.0, 0.0, 0.0, 0.0, 0.0, 0.0)"
1737285433.9278798,12607,1737285433,926560576,map,base_link,-1.8556727394872883,-7.398717696221875,2.484,0.012097922034311532,0.0031572433699406472,-0.568198639002767,-0.8227964382106658,"(1.140624, 0.0, 0.0, 0.0, 0.0, 0.0, 0.0, 1.140624, 0.0, 0.0, 0.0, 0.0, 0.0, 0.0, 2.105401, 0.0, 0.0, 0.0, 0.0, 0.0, 0.0, 99999.0, 0.0, 0.0, 0.0, 0.0, 0.0, 0.0, 99999.0, 0.0, 0.0, 0.0, 0.0, 0.0, 0.0, 99999.0)",0.01,-0.09,-0.01,0.0,0.0,0.0,"(-1.0, 0.0, 0.0, 0.0, 0.0, 0.0, 0.0, 0.0, 0.0, 0.0, 0.0, 0.0, 0.0, 0.0, 0.0, 0.0, 0.0, 0.0, 0.0, 0.0, 0.0, 0.0, 0.0, 0.0, 0.0, 0.0, 0.0, 0.0, 0.0, 0.0, 0.0, 0.0, 0.0, 0.0, 0.0, 0.0)"
1737285434.0265713,12608,1737285434,24557248,map,base_link,-1.8556727394872883,-7.398717696221875,2.484,0.010936181258221008,0.0028414979401780944,-0.5666094697798949,-0.823908996543119,"(1.1384889999999999, 0.0, 0.0, 0.0, 0.0, 0.0, 0.0, 1.1384889999999999, 0.0, 0.0, 0.0, 0.0, 0.0, 0.0, 2.105401, 0.0, 0.0, 0.0, 0.0, 0.0, 0.0, 99999.0, 0.0, 0.0, 0.0, 0.0, 0.0, 0.0, 99999.0, 0.0, 0.0, 0.0, 0.0, 0.0, 0.0, 99999.0)",0.0,-0.08,0.0,0.0,0.0,0.0,"(-1.0, 0.0, 0.0, 0.0, 0.0, 0.0, 0.0, 0.0, 0.0, 0.0, 0.0, 0.0, 0.0, 0.0, 0.0, 0.0, 0.0, 0.0, 0.0, 0.0, 0.0, 0.0, 0.0, 0.0, 0.0, 0.0, 0.0, 0.0, 0.0, 0.0, 0.0, 0.0, 0.0, 0.0, 0.0, 0.0)"
1737285434.134119,12609,1737285434,126556224,map,base_link,-1.8556727394872883,-7.398717696221875,2.487,0.010234300435363735,0.0021154040816293174,-0.5658129140357009,-0.8244674223221914,"(1.1384889999999999, 0.0, 0.0, 0.0, 0.0, 0.0, 0.0, 1.1384889999999999, 0.0, 0.0, 0.0, 0.0, 0.0, 0.0, 2.105401, 0.0, 0.0, 0.0, 0.0, 0.0, 0.0, 99999.0, 0.0, 0.0, 0.0, 0.0, 0.0, 0.0, 99999.0, 0.0, 0.0, 0.0, 0.0, 0.0, 0.0, 99999.0)",-0.01,-0.09,0.02,0.0,0.0,0.0,"(-1.0, 0.0, 0.0, 0.0, 0.0, 0.0, 0.0, 0.0, 0.0, 0.0, 0.0, 0.0, 0.0, 0.0, 0.0, 0.0, 0.0, 0.0, 0.0, 0.0, 0.0, 0.0, 0.0, 0.0, 0.0, 0.0, 0.0, 0.0, 0.0, 0.0, 0.0, 0.0, 0.0, 0.0, 0.0, 0.0)"
1737285434.2277083,12610,1737285434,225552128,map,base_link,-1.8556727424974715,-7.39871770778539,2.491,0.010192762752283037,0.0023651313736980937,-0.5640949420969147,-0.8256436338044031,"(1.1384889999999999, 0.0, 0.0, 0.0, 0.0, 0.0, 0.0, 1.1384889999999999, 0.0, 0.0, 0.0, 0.0, 0.0, 0.0, 2.105401, 0.0, 0.0, 0.0, 0.0, 0.0, 0.0, 99999.0, 0.0, 0.0, 0.0, 0.0, 0.0, 0.0, 99999.0, 0.0, 0.0, 0.0, 0.0, 0.0, 0.0, 99999.0)",0.0,-0.1,0.01,0.0,0.0,0.0,"(-1.0, 0.0, 0.0, 0.0, 0.0, 0.0, 0.0, 0.0, 0.0, 0.0, 0.0, 0.0, 0.0, 0.0, 0.0, 0.0, 0.0, 0.0, 0.0, 0.0, 0.0, 0.0, 0.0, 0.0, 0.0, 0.0, 0.0, 0.0, 0.0, 0.0, 0.0, 0.0, 0.0, 0.0, 0.0, 0.0)"
1737285434.326585,12611,1737285434,325547520,map,base_link,-1.846394378016175,-7.398717709965005,2.493,0.009747251793262275,0.0033262623392570217,-0.5652881752134741,-0.8248291980920353,"(1.1384889999999999, 0.0, 0.0, 0.0, 0.0, 0.0, 0.0, 1.1384889999999999, 0.0, 0.0, 0.0, 0.0, 0.0, 0.0, 2.105401, 0.0, 0.0, 0.0, 0.0, 0.0, 0.0, 99999.0, 0.0, 0.0, 0.0, 0.0, 0.0, 0.0, 99999.0, 0.0, 0.0, 0.0, 0.0, 0.0, 0.0, 99999.0)",-0.04,-0.08,0.04,0.0,0.0,0.0,"(-1.0, 0.0, 0.0, 0.0, 0.0, 0.0, 0.0, 0.0, 0.0, 0.0, 0.0, 0.0, 0.0, 0.0, 0.0, 0.0, 0.0, 0.0, 0.0, 0.0, 0.0, 0.0, 0.0, 0.0, 0.0, 0.0, 0.0, 0.0, 0.0, 0.0, 0.0, 0.0, 0.0, 0.0, 0.0, 0.0)"
1737285434.428506,12612,1737285434,426544192,map,base_link,-1.846394378016175,-7.398717709965005,2.494,0.009669960844040417,0.0024040821175773906,-0.5690599084357334,-0.8222356917925429,"(1.1384889999999999, 0.0, 0.0, 0.0, 0.0, 0.0, 0.0, 1.1384889999999999, 0.0, 0.0, 0.0, 0.0, 0.0, 0.0, 2.105401, 0.0, 0.0, 0.0, 0.0, 0.0, 0.0, 99999.0, 0.0, 0.0, 0.0, 0.0, 0.0, 0.0, 99999.0, 0.0, 0.0, 0.0, 0.0, 0.0, 0.0, 99999.0)",-0.01,-0.09,-0.04,0.0,0.0,0.0,"(-1.0, 0.0, 0.0, 0.0, 0.0, 0.0, 0.0, 0.0, 0.0, 0.0, 0.0, 0.0, 0.0, 0.0, 0.0, 0.0, 0.0, 0.0, 0.0, 0.0, 0.0, 0.0, 0.0, 0.0, 0.0, 0.0, 0.0, 0.0, 0.0, 0.0, 0.0, 0.0, 0.0, 0.0, 0.0, 0.0)"
1737285434.5267775,12613,1737285434,524536768,map,base_link,-1.846394378016175,-7.398717709965005,2.493,0.009682816427658414,0.002699191200996812,-0.5720286612470499,-0.8201720357003136,"(1.1384889999999999, 0.0, 0.0, 0.0, 0.0, 0.0, 0.0, 1.1384889999999999, 0.0, 0.0, 0.0, 0.0, 0.0, 0.0, 2.105401, 0.0, 0.0, 0.0, 0.0, 0.0, 0.0, 99999.0, 0.0, 0.0, 0.0, 0.0, 0.0, 0.0, 99999.0, 0.0, 0.0, 0.0, 0.0, 0.0, 0.0, 99999.0)",-0.02,-0.09,0.0,0.0,0.0,0.0,"(-1.0, 0.0, 0.0, 0.0, 0.0, 0.0, 0.0, 0.0, 0.0, 0.0, 0.0, 0.0, 0.0, 0.0, 0.0, 0.0, 0.0, 0.0, 0.0, 0.0, 0.0, 0.0, 0.0, 0.0, 0.0, 0.0, 0.0, 0.0, 0.0, 0.0, 0.0, 0.0, 0.0, 0.0, 0.0, 0.0)"
1737285434.6257997,12614,1737285434,624532416,map,base_link,-1.8556727394872883,-7.398717696221875,2.489,0.008246586795749994,0.0024423352981141062,-0.5739122379590722,-0.8188716455741528,"(1.1384889999999999, 0.0, 0.0, 0.0, 0.0, 0.0, 0.0, 1.1384889999999999, 0.0, 0.0, 0.0, 0.0, 0.0, 0.0, 2.105401, 0.0, 0.0, 0.0, 0.0, 0.0, 0.0, 99999.0, 0.0, 0.0, 0.0, 0.0, 0.0, 0.0, 99999.0, 0.0, 0.0, 0.0, 0.0, 0.0, 0.0, 99999.0)",-0.01,-0.08,0.0,0.0,0.0,0.0,"(-1.0, 0.0, 0.0, 0.0, 0.0, 0.0, 0.0, 0.0, 0.0, 0.0, 0.0, 0.0, 0.0, 0.0, 0.0, 0.0, 0.0, 0.0, 0.0, 0.0, 0.0, 0.0, 0.0, 0.0, 0.0, 0.0, 0.0, 0.0, 0.0, 0.0, 0.0, 0.0, 0.0, 0.0, 0.0, 0.0)"
1737285434.7277308,12615,1737285434,725529088,map,base_link,-1.8556727394872883,-7.398717696221875,2.485,0.0065268119727578166,0.002737891627831618,-0.5733908234383545,-0.819251407244194,"(1.1384889999999999, 0.0, 0.0, 0.0, 0.0, 0.0, 0.0, 1.1384889999999999, 0.0, 0.0, 0.0, 0.0, 0.0, 0.0, 2.105401, 0.0, 0.0, 0.0, 0.0, 0.0, 0.0, 99999.0, 0.0, 0.0, 0.0, 0.0, 0.0, 0.0, 99999.0, 0.0, 0.0, 0.0, 0.0, 0.0, 0.0, 99999.0)",-0.01,-0.09,-0.03,0.0,0.0,0.0,"(-1.0, 0.0, 0.0, 0.0, 0.0, 0.0, 0.0, 0.0, 0.0, 0.0, 0.0, 0.0, 0.0, 0.0, 0.0, 0.0, 0.0, 0.0, 0.0, 0.0, 0.0, 0.0, 0.0, 0.0, 0.0, 0.0, 0.0, 0.0, 0.0, 0.0, 0.0, 0.0, 0.0, 0.0, 0.0, 0.0)"
1737285434.8261943,12616,1737285434,824521920,map,base_link,-1.8556727366499708,-7.398717684839447,2.478,0.007235043393392098,-0.0010073321429535553,-0.5753084033492262,-0.8179039555258388,"(1.1363560000000001, 0.0, 0.0, 0.0, 0.0, 0.0, 0.0, 1.1363560000000001, 0.0, 0.0, 0.0, 0.0, 0.0, 0.0, 2.105401, 0.0, 0.0, 0.0, 0.0, 0.0, 0.0, 99999.0, 0.0, 0.0, 0.0, 0.0, 0.0, 0.0, 99999.0, 0.0, 0.0, 0.0, 0.0, 0.0, 0.0, 99999.0)",-0.03,-0.09,-0.04,0.0,0.0,0.0,"(-1.0, 0.0, 0.0, 0.0, 0.0, 0.0, 0.0, 0.0, 0.0, 0.0, 0.0, 0.0, 0.0, 0.0, 0.0, 0.0, 0.0, 0.0, 0.0, 0.0, 0.0, 0.0, 0.0, 0.0, 0.0, 0.0, 0.0, 0.0, 0.0, 0.0, 0.0, 0.0, 0.0, 0.0, 0.0, 0.0)"
1737285434.9270034,12617,1737285434,925518080,map,base_link,-1.846394372218456,-7.398717686100321,2.473,0.011696663255412687,-0.0019152374216863286,-0.5766480070129776,-0.8169067241382392,"(1.1363560000000001, 0.0, 0.0, 0.0, 0.0, 0.0, 0.0, 1.1363560000000001, 0.0, 0.0, 0.0, 0.0, 0.0, 0.0, 2.105401, 0.0, 0.0, 0.0, 0.0, 0.0, 0.0, 99999.0, 0.0, 0.0, 0.0, 0.0, 0.0, 0.0, 99999.0, 0.0, 0.0, 0.0, 0.0, 0.0, 0.0, 99999.0)",-0.01,-0.09,-0.08,0.0,0.0,0.0,"(-1.0, 0.0, 0.0, 0.0, 0.0, 0.0, 0.0, 0.0, 0.0, 0.0, 0.0, 0.0, 0.0, 0.0, 0.0, 0.0, 0.0, 0.0, 0.0, 0.0, 0.0, 0.0, 0.0, 0.0, 0.0, 0.0, 0.0, 0.0, 0.0, 0.0, 0.0, 0.0, 0.0, 0.0, 0.0, 0.0)"
1737285435.0262024,12618,1737285435,24512704,map,base_link,-1.846394372218456,-7.398717686100321,2.469,0.014618700429572617,-0.0006898350957325295,-0.5771123172180358,-0.8165336435447841,"(1.1363560000000001, 0.0, 0.0, 0.0, 0.0, 0.0, 0.0, 1.1363560000000001, 0.0, 0.0, 0.0, 0.0, 0.0, 0.0, 2.105401, 0.0, 0.0, 0.0, 0.0, 0.0, 0.0, 99999.0, 0.0, 0.0, 0.0, 0.0, 0.0, 0.0, 99999.0, 0.0, 0.0, 0.0, 0.0, 0.0, 0.0, 99999.0)",-0.05,-0.08,0.01,0.0,0.0,0.0,"(-1.0, 0.0, 0.0, 0.0, 0.0, 0.0, 0.0, 0.0, 0.0, 0.0, 0.0, 0.0, 0.0, 0.0, 0.0, 0.0, 0.0, 0.0, 0.0, 0.0, 0.0, 0.0, 0.0, 0.0, 0.0, 0.0, 0.0, 0.0, 0.0, 0.0, 0.0, 0.0, 0.0, 0.0, 0.0, 0.0)"
1737285435.1276622,12619,1737285435,126508864,map,base_link,-1.8463943694309195,-7.3987176745745336,2.468,0.013151227304596681,-0.0005896612336880632,-0.5761909285081803,-0.8172090989611492,"(1.1363560000000001, 0.0, 0.0, 0.0, 0.0, 0.0, 0.0, 1.1363560000000001, 0.0, 0.0, 0.0, 0.0, 0.0, 0.0, 2.105401, 0.0, 0.0, 0.0, 0.0, 0.0, 0.0, 99999.0, 0.0, 0.0, 0.0, 0.0, 0.0, 0.0, 99999.0, 0.0, 0.0, 0.0, 0.0, 0.0, 0.0, 99999.0)",-0.03,-0.09,-0.03,0.0,0.0,0.0,"(-1.0, 0.0, 0.0, 0.0, 0.0, 0.0, 0.0, 0.0, 0.0, 0.0, 0.0, 0.0, 0.0, 0.0, 0.0, 0.0, 0.0, 0.0, 0.0, 0.0, 0.0, 0.0, 0.0, 0.0, 0.0, 0.0, 0.0, 0.0, 0.0, 0.0, 0.0, 0.0, 0.0, 0.0, 0.0, 0.0)"
1737285435.2270944,12620,1737285435,224504768,map,base_link,-1.846394374291072,-7.409810217317435,2.471,0.011637602756388572,0.0017485270377573876,-0.5744121370415706,-0.8184816465105487,"(1.1363560000000001, 0.0, 0.0, 0.0, 0.0, 0.0, 0.0, 1.1363560000000001, 0.0, 0.0, 0.0, 0.0, 0.0, 0.0, 2.105401, 0.0, 0.0, 0.0, 0.0, 0.0, 0.0, 99999.0, 0.0, 0.0, 0.0, 0.0, 0.0, 0.0, 99999.0, 0.0, 0.0, 0.0, 0.0, 0.0, 0.0, 99999.0)",-0.03,-0.07,-0.03,0.0,0.0,0.0,"(-1.0, 0.0, 0.0, 0.0, 0.0, 0.0, 0.0, 0.0, 0.0, 0.0, 0.0, 0.0, 0.0, 0.0, 0.0, 0.0, 0.0, 0.0, 0.0, 0.0, 0.0, 0.0, 0.0, 0.0, 0.0, 0.0, 0.0, 0.0, 0.0, 0.0, 0.0, 0.0, 0.0, 0.0, 0.0, 0.0)"
1737285435.3276627,12621,1737285435,325500160,map,base_link,-1.846394374291072,-7.409810217317435,2.471,0.012326168542091228,0.0022737321439558647,-0.5710607215995627,-0.8208121270774428,"(1.1363560000000001, 0.0, 0.0, 0.0, 0.0, 0.0, 0.0, 1.1363560000000001, 0.0, 0.0, 0.0, 0.0, 0.0, 0.0, 2.105401, 0.0, 0.0, 0.0, 0.0, 0.0, 0.0, 99999.0, 0.0, 0.0, 0.0, 0.0, 0.0, 0.0, 99999.0, 0.0, 0.0, 0.0, 0.0, 0.0, 0.0, 99999.0)",-0.03,-0.08,-0.06,0.0,0.0,0.0,"(-1.0, 0.0, 0.0, 0.0, 0.0, 0.0, 0.0, 0.0, 0.0, 0.0, 0.0, 0.0, 0.0, 0.0, 0.0, 0.0, 0.0, 0.0, 0.0, 0.0, 0.0, 0.0, 0.0, 0.0, 0.0, 0.0, 0.0, 0.0, 0.0, 0.0, 0.0, 0.0, 0.0, 0.0, 0.0, 0.0)"
1737285435.426737,12622,1737285435,425494016,map,base_link,-1.846394373526371,-7.420902736376737,2.469,0.01452491996827717,0.00016149563880100376,-0.5687289041070033,-0.8223967620633734,"(1.1363560000000001, 0.0, 0.0, 0.0, 0.0, 0.0, 0.0, 1.1363560000000001, 0.0, 0.0, 0.0, 0.0, 0.0, 0.0, 2.108304, 0.0, 0.0, 0.0, 0.0, 0.0, 0.0, 99999.0, 0.0, 0.0, 0.0, 0.0, 0.0, 0.0, 99999.0, 0.0, 0.0, 0.0, 0.0, 0.0, 0.0, 99999.0)",-0.05,-0.07,0.0,0.0,0.0,0.0,"(-1.0, 0.0, 0.0, 0.0, 0.0, 0.0, 0.0, 0.0, 0.0, 0.0, 0.0, 0.0, 0.0, 0.0, 0.0, 0.0, 0.0, 0.0, 0.0, 0.0, 0.0, 0.0, 0.0, 0.0, 0.0, 0.0, 0.0, 0.0, 0.0, 0.0, 0.0, 0.0, 0.0, 0.0, 0.0, 0.0)"
1737285435.5278234,12623,1737285435,525487104,map,base_link,-1.8556727407952036,-7.420902746110601,2.471,0.013159031373426977,-0.002553973495738467,-0.5691449167534978,-0.8221279589250998,"(1.1363560000000001, 0.0, 0.0, 0.0, 0.0, 0.0, 0.0, 1.1363560000000001, 0.0, 0.0, 0.0, 0.0, 0.0, 0.0, 2.108304, 0.0, 0.0, 0.0, 0.0, 0.0, 0.0, 99999.0, 0.0, 0.0, 0.0, 0.0, 0.0, 0.0, 99999.0, 0.0, 0.0, 0.0, 0.0, 0.0, 0.0, 99999.0)",-0.05,-0.08,0.0,0.0,0.0,0.0,"(-1.0, 0.0, 0.0, 0.0, 0.0, 0.0, 0.0, 0.0, 0.0, 0.0, 0.0, 0.0, 0.0, 0.0, 0.0, 0.0, 0.0, 0.0, 0.0, 0.0, 0.0, 0.0, 0.0, 0.0, 0.0, 0.0, 0.0, 0.0, 0.0, 0.0, 0.0, 0.0, 0.0, 0.0, 0.0, 0.0)"
1737285435.6266446,12624,1737285435,624479936,map,base_link,-1.8556727407952036,-7.420902746110601,2.474,0.010766475005597657,-0.0022456757990084375,-0.5695003978252589,-0.8219174756829494,"(1.1363560000000001, 0.0, 0.0, 0.0, 0.0, 0.0, 0.0, 1.1363560000000001, 0.0, 0.0, 0.0, 0.0, 0.0, 0.0, 2.108304, 0.0, 0.0, 0.0, 0.0, 0.0, 0.0, 99999.0, 0.0, 0.0, 0.0, 0.0, 0.0, 0.0, 99999.0, 0.0, 0.0, 0.0, 0.0, 0.0, 0.0, 99999.0)",-0.02,-0.07,-0.02,0.0,0.0,0.0,"(-1.0, 0.0, 0.0, 0.0, 0.0, 0.0, 0.0, 0.0, 0.0, 0.0, 0.0, 0.0, 0.0, 0.0, 0.0, 0.0, 0.0, 0.0, 0.0, 0.0, 0.0, 0.0, 0.0, 0.0, 0.0, 0.0, 0.0, 0.0, 0.0, 0.0, 0.0, 0.0, 0.0, 0.0, 0.0, 0.0)"
1737285435.7278085,12625,1737285435,726475840,map,base_link,-1.8556727407952036,-7.420902746110601,2.474,0.0097393076699636,-0.0014664674713066532,-0.5695596228018148,-0.8218910094611813,"(1.1363560000000001, 0.0, 0.0, 0.0, 0.0, 0.0, 0.0, 1.1363560000000001, 0.0, 0.0, 0.0, 0.0, 0.0, 0.0, 2.108304, 0.0, 0.0, 0.0, 0.0, 0.0, 0.0, 99999.0, 0.0, 0.0, 0.0, 0.0, 0.0, 0.0, 99999.0, 0.0, 0.0, 0.0, 0.0, 0.0, 0.0, 99999.0)",-0.05,-0.05,-0.01,0.0,0.0,0.0,"(-1.0, 0.0, 0.0, 0.0, 0.0, 0.0, 0.0, 0.0, 0.0, 0.0, 0.0, 0.0, 0.0, 0.0, 0.0, 0.0, 0.0, 0.0, 0.0, 0.0, 0.0, 0.0, 0.0, 0.0, 0.0, 0.0, 0.0, 0.0, 0.0, 0.0, 0.0, 0.0, 0.0, 0.0, 0.0, 0.0)"
1737285435.82682,12626,1737285435,825470464,map,base_link,-1.8649511038908386,-7.420902744623367,2.473,0.013728421419467752,-0.002768103531762482,-0.5686522972509107,-0.8224587727536433,"(1.1363560000000001, 0.0, 0.0, 0.0, 0.0, 0.0, 0.0, 1.1363560000000001, 0.0, 0.0, 0.0, 0.0, 0.0, 0.0, 2.108304, 0.0, 0.0, 0.0, 0.0, 0.0, 0.0, 99999.0, 0.0, 0.0, 0.0, 0.0, 0.0, 0.0, 99999.0, 0.0, 0.0, 0.0, 0.0, 0.0, 0.0, 99999.0)",-0.04,-0.03,-0.05,0.0,0.0,0.0,"(-1.0, 0.0, 0.0, 0.0, 0.0, 0.0, 0.0, 0.0, 0.0, 0.0, 0.0, 0.0, 0.0, 0.0, 0.0, 0.0, 0.0, 0.0, 0.0, 0.0, 0.0, 0.0, 0.0, 0.0, 0.0, 0.0, 0.0, 0.0, 0.0, 0.0, 0.0, 0.0, 0.0, 0.0, 0.0, 0.0)"
1737285435.9291883,12627,1737285435,927464576,map,base_link,-1.8649511038908386,-7.420902744623367,2.477,0.011802549651946442,-0.0019612442996161973,-0.5679446383580589,-0.8229797938606053,"(1.1363560000000001, 0.0, 0.0, 0.0, 0.0, 0.0, 0.0, 1.1363560000000001, 0.0, 0.0, 0.0, 0.0, 0.0, 0.0, 2.108304, 0.0, 0.0, 0.0, 0.0, 0.0, 0.0, 99999.0, 0.0, 0.0, 0.0, 0.0, 0.0, 0.0, 99999.0, 0.0, 0.0, 0.0, 0.0, 0.0, 0.0, 99999.0)",-0.07,-0.04,0.0,0.0,0.0,0.0,"(-1.0, 0.0, 0.0, 0.0, 0.0, 0.0, 0.0, 0.0, 0.0, 0.0, 0.0, 0.0, 0.0, 0.0, 0.0, 0.0, 0.0, 0.0, 0.0, 0.0, 0.0, 0.0, 0.0, 0.0, 0.0, 0.0, 0.0, 0.0, 0.0, 0.0, 0.0, 0.0, 0.0, 0.0, 0.0, 0.0)"
1737285436.0280297,12628,1737285436,26459968,map,base_link,-1.8649511069010216,-7.420902756186882,2.48,0.006447915944892114,-0.0017547997684079005,-0.5693159963405194,-0.8220916258961298,"(1.1363560000000001, 0.0, 0.0, 0.0, 0.0, 0.0, 0.0, 1.1363560000000001, 0.0, 0.0, 0.0, 0.0, 0.0, 0.0, 2.108304, 0.0, 0.0, 0.0, 0.0, 0.0, 0.0, 99999.0, 0.0, 0.0, 0.0, 0.0, 0.0, 0.0, 99999.0, 0.0, 0.0, 0.0, 0.0, 0.0, 0.0, 99999.0)",-0.07,-0.03,0.02,0.0,0.0,0.0,"(-1.0, 0.0, 0.0, 0.0, 0.0, 0.0, 0.0, 0.0, 0.0, 0.0, 0.0, 0.0, 0.0, 0.0, 0.0, 0.0, 0.0, 0.0, 0.0, 0.0, 0.0, 0.0, 0.0, 0.0, 0.0, 0.0, 0.0, 0.0, 0.0, 0.0, 0.0, 0.0, 0.0, 0.0, 0.0, 0.0)"
1737285436.131934,12629,1737285436,130455616,map,base_link,-1.8649511038908386,-7.420902744623367,2.479,0.005266079786542744,0.0005840502025067979,-0.5689912749764563,-0.8223264900814696,"(1.1363560000000001, 0.0, 0.0, 0.0, 0.0, 0.0, 0.0, 1.1363560000000001, 0.0, 0.0, 0.0, 0.0, 0.0, 0.0, 2.108304, 0.0, 0.0, 0.0, 0.0, 0.0, 0.0, 99999.0, 0.0, 0.0, 0.0, 0.0, 0.0, 0.0, 99999.0, 0.0, 0.0, 0.0, 0.0, 0.0, 0.0, 99999.0)",-0.05,-0.05,0.0,0.0,0.0,0.0,"(-1.0, 0.0, 0.0, 0.0, 0.0, 0.0, 0.0, 0.0, 0.0, 0.0, 0.0, 0.0, 0.0, 0.0, 0.0, 0.0, 0.0, 0.0, 0.0, 0.0, 0.0, 0.0, 0.0, 0.0, 0.0, 0.0, 0.0, 0.0, 0.0, 0.0, 0.0, 0.0, 0.0, 0.0, 0.0, 0.0)"
1737285436.2299268,12630,1737285436,228450496,map,base_link,-1.8649511038908386,-7.420902744623367,2.476,0.00503775840546701,0.00047231087510998945,-0.5687430318613172,-0.8224997031135526,"(1.1363560000000001, 0.0, 0.0, 0.0, 0.0, 0.0, 0.0, 1.1363560000000001, 0.0, 0.0, 0.0, 0.0, 0.0, 0.0, 2.108304, 0.0, 0.0, 0.0, 0.0, 0.0, 0.0, 99999.0, 0.0, 0.0, 0.0, 0.0, 0.0, 0.0, 99999.0, 0.0, 0.0, 0.0, 0.0, 0.0, 0.0, 99999.0)",-0.04,-0.04,0.02,0.0,0.0,0.0,"(-1.0, 0.0, 0.0, 0.0, 0.0, 0.0, 0.0, 0.0, 0.0, 0.0, 0.0, 0.0, 0.0, 0.0, 0.0, 0.0, 0.0, 0.0, 0.0, 0.0, 0.0, 0.0, 0.0, 0.0, 0.0, 0.0, 0.0, 0.0, 0.0, 0.0, 0.0, 0.0, 0.0, 0.0, 0.0, 0.0)"
1737285436.334064,12631,1737285436,332443840,map,base_link,-1.8649511038908386,-7.420902744623367,2.477,0.009310743521263062,0.0011087835801373805,-0.5687159956035668,-0.8224805146620177,"(1.1363560000000001, 0.0, 0.0, 0.0, 0.0, 0.0, 0.0, 1.1363560000000001, 0.0, 0.0, 0.0, 0.0, 0.0, 0.0, 2.108304, 0.0, 0.0, 0.0, 0.0, 0.0, 0.0, 99999.0, 0.0, 0.0, 0.0, 0.0, 0.0, 0.0, 99999.0, 0.0, 0.0, 0.0, 0.0, 0.0, 0.0, 99999.0)",-0.06,-0.05,0.02,0.0,0.0,0.0,"(-1.0, 0.0, 0.0, 0.0, 0.0, 0.0, 0.0, 0.0, 0.0, 0.0, 0.0, 0.0, 0.0, 0.0, 0.0, 0.0, 0.0, 0.0, 0.0, 0.0, 0.0, 0.0, 0.0, 0.0, 0.0, 0.0, 0.0, 0.0, 0.0, 0.0, 0.0, 0.0, 0.0, 0.0, 0.0, 0.0)"
1737285436.433102,12632,1737285436,431440768,map,base_link,-1.8556727407952036,-7.420902746110601,2.479,0.005675182499417756,0.0019675953106333393,-0.5695377774708488,-0.8219432102681169,"(1.1342249999999998, 0.0, 0.0, 0.0, 0.0, 0.0, 0.0, 1.1342249999999998, 0.0, 0.0, 0.0, 0.0, 0.0, 0.0, 2.108304, 0.0, 0.0, 0.0, 0.0, 0.0, 0.0, 99999.0, 0.0, 0.0, 0.0, 0.0, 0.0, 0.0, 99999.0, 0.0, 0.0, 0.0, 0.0, 0.0, 0.0, 99999.0)",-0.02,-0.06,0.0,0.0,0.0,0.0,"(-1.0, 0.0, 0.0, 0.0, 0.0, 0.0, 0.0, 0.0, 0.0, 0.0, 0.0, 0.0, 0.0, 0.0, 0.0, 0.0, 0.0, 0.0, 0.0, 0.0, 0.0, 0.0, 0.0, 0.0, 0.0, 0.0, 0.0, 0.0, 0.0, 0.0, 0.0, 0.0, 0.0, 0.0, 0.0, 0.0)"
1737285436.531849,12633,1737285436,529436928,map,base_link,-1.855672743855168,-7.4209027575307545,2.481,0.007496293390071774,0.002508537815130831,-0.5703308290073728,-0.821377050024654,"(1.1342249999999998, 0.0, 0.0, 0.0, 0.0, 0.0, 0.0, 1.1342249999999998, 0.0, 0.0, 0.0, 0.0, 0.0, 0.0, 2.108304, 0.0, 0.0, 0.0, 0.0, 0.0, 0.0, 99999.0, 0.0, 0.0, 0.0, 0.0, 0.0, 0.0, 99999.0, 0.0, 0.0, 0.0, 0.0, 0.0, 0.0, 99999.0)",-0.03,-0.06,-0.06,0.0,0.0,0.0,"(-1.0, 0.0, 0.0, 0.0, 0.0, 0.0, 0.0, 0.0, 0.0, 0.0, 0.0, 0.0, 0.0, 0.0, 0.0, 0.0, 0.0, 0.0, 0.0, 0.0, 0.0, 0.0, 0.0, 0.0, 0.0, 0.0, 0.0, 0.0, 0.0, 0.0, 0.0, 0.0, 0.0, 0.0, 0.0, 0.0)"
1737285436.628804,12634,1737285436,627433088,map,base_link,-1.855672743855168,-7.4209027575307545,2.484,0.009748493786745466,0.001779913232413155,-0.5702061016075305,-0.8214419032818556,"(1.1342249999999998, 0.0, 0.0, 0.0, 0.0, 0.0, 0.0, 1.1342249999999998, 0.0, 0.0, 0.0, 0.0, 0.0, 0.0, 2.108304, 0.0, 0.0, 0.0, 0.0, 0.0, 0.0, 99999.0, 0.0, 0.0, 0.0, 0.0, 0.0, 0.0, 99999.0, 0.0, 0.0, 0.0, 0.0, 0.0, 0.0, 99999.0)",-0.04,-0.06,0.0,0.0,0.0,0.0,"(-1.0, 0.0, 0.0, 0.0, 0.0, 0.0, 0.0, 0.0, 0.0, 0.0, 0.0, 0.0, 0.0, 0.0, 0.0, 0.0, 0.0, 0.0, 0.0, 0.0, 0.0, 0.0, 0.0, 0.0, 0.0, 0.0, 0.0, 0.0, 0.0, 0.0, 0.0, 0.0, 0.0, 0.0, 0.0, 0.0)"
1737285436.731098,12635,1737285436,728430272,map,base_link,-1.855672743855168,-7.4209027575307545,2.486,0.009817298132960532,0.0010139360398455672,-0.5714631023503306,-0.8205684098496671,"(1.1342249999999998, 0.0, 0.0, 0.0, 0.0, 0.0, 0.0, 1.1342249999999998, 0.0, 0.0, 0.0, 0.0, 0.0, 0.0, 2.108304, 0.0, 0.0, 0.0, 0.0, 0.0, 0.0, 99999.0, 0.0, 0.0, 0.0, 0.0, 0.0, 0.0, 99999.0, 0.0, 0.0, 0.0, 0.0, 0.0, 0.0, 99999.0)",-0.03,-0.06,0.02,0.0,0.0,0.0,"(-1.0, 0.0, 0.0, 0.0, 0.0, 0.0, 0.0, 0.0, 0.0, 0.0, 0.0, 0.0, 0.0, 0.0, 0.0, 0.0, 0.0, 0.0, 0.0, 0.0, 0.0, 0.0, 0.0, 0.0, 0.0, 0.0, 0.0, 0.0, 0.0, 0.0, 0.0, 0.0, 0.0, 0.0, 0.0, 0.0)"
1737285436.827058,12636,1737285436,825426432,map,base_link,-1.855672748765102,-7.4319952997426055,2.491,0.01148455014591929,0.00043740276283489625,-0.5724244315981327,-0.8198769321650192,"(1.1342249999999998, 0.0, 0.0, 0.0, 0.0, 0.0, 0.0, 1.1342249999999998, 0.0, 0.0, 0.0, 0.0, 0.0, 0.0, 2.108304, 0.0, 0.0, 0.0, 0.0, 0.0, 0.0, 99999.0, 0.0, 0.0, 0.0, 0.0, 0.0, 0.0, 99999.0, 0.0, 0.0, 0.0, 0.0, 0.0, 0.0, 99999.0)",-0.06,-0.05,0.03,0.0,0.0,0.0,"(-1.0, 0.0, 0.0, 0.0, 0.0, 0.0, 0.0, 0.0, 0.0, 0.0, 0.0, 0.0, 0.0, 0.0, 0.0, 0.0, 0.0, 0.0, 0.0, 0.0, 0.0, 0.0, 0.0, 0.0, 0.0, 0.0, 0.0, 0.0, 0.0, 0.0, 0.0, 0.0, 0.0, 0.0, 0.0, 0.0)"
1737285436.9282758,12637,1737285436,925420288,map,base_link,-1.846394384506452,-7.431995301572256,2.497,0.010470083944081486,0.0021545373256194804,-0.5731427916615601,-0.8193857917229891,"(1.1342249999999998, 0.0, 0.0, 0.0, 0.0, 0.0, 0.0, 1.1342249999999998, 0.0, 0.0, 0.0, 0.0, 0.0, 0.0, 2.108304, 0.0, 0.0, 0.0, 0.0, 0.0, 0.0, 99999.0, 0.0, 0.0, 0.0, 0.0, 0.0, 0.0, 99999.0, 0.0, 0.0, 0.0, 0.0, 0.0, 0.0, 99999.0)",-0.05,-0.06,0.0,0.0,0.0,0.0,"(-1.0, 0.0, 0.0, 0.0, 0.0, 0.0, 0.0, 0.0, 0.0, 0.0, 0.0, 0.0, 0.0, 0.0, 0.0, 0.0, 0.0, 0.0, 0.0, 0.0, 0.0, 0.0, 0.0, 0.0, 0.0, 0.0, 0.0, 0.0, 0.0, 0.0, 0.0, 0.0, 0.0, 0.0, 0.0, 0.0)"
1737285437.0260823,12638,1737285437,24416960,map,base_link,-1.8463943873437698,-7.431995312954684,2.5,0.007182955177354302,0.00237970549435313,-0.5747705984404903,-0.8182795985022727,"(1.1320960000000002, 0.0, 0.0, 0.0, 0.0, 0.0, 0.0, 1.1320960000000002, 0.0, 0.0, 0.0, 0.0, 0.0, 0.0, 2.108304, 0.0, 0.0, 0.0, 0.0, 0.0, 0.0, 99999.0, 0.0, 0.0, 0.0, 0.0, 0.0, 0.0, 99999.0, 0.0, 0.0, 0.0, 0.0, 0.0, 0.0, 99999.0)",-0.03,-0.06,-0.02,0.0,0.0,0.0,"(-1.0, 0.0, 0.0, 0.0, 0.0, 0.0, 0.0, 0.0, 0.0, 0.0, 0.0, 0.0, 0.0, 0.0, 0.0, 0.0, 0.0, 0.0, 0.0, 0.0, 0.0, 0.0, 0.0, 0.0, 0.0, 0.0, 0.0, 0.0, 0.0, 0.0, 0.0, 0.0, 0.0, 0.0, 0.0, 0.0)"
1737285437.1269357,12639,1737285437,125407744,map,base_link,-1.8463943894163863,-7.443087843784107,2.503,0.008355661421979318,0.0007412508118502219,-0.5756915210569765,-0.8176239392609168,"(1.1320960000000002, 0.0, 0.0, 0.0, 0.0, 0.0, 0.0, 1.1320960000000002, 0.0, 0.0, 0.0, 0.0, 0.0, 0.0, 2.108304, 0.0, 0.0, 0.0, 0.0, 0.0, 0.0, 99999.0, 0.0, 0.0, 0.0, 0.0, 0.0, 0.0, 99999.0, 0.0, 0.0, 0.0, 0.0, 0.0, 0.0, 99999.0)",-0.01,-0.06,-0.07,0.0,0.0,0.0,"(-1.0, 0.0, 0.0, 0.0, 0.0, 0.0, 0.0, 0.0, 0.0, 0.0, 0.0, 0.0, 0.0, 0.0, 0.0, 0.0, 0.0, 0.0, 0.0, 0.0, 0.0, 0.0, 0.0, 0.0, 0.0, 0.0, 0.0, 0.0, 0.0, 0.0, 0.0, 0.0, 0.0, 0.0, 0.0, 0.0)"
1737285437.2258945,12640,1737285437,224401600,map,base_link,-1.8371160263207513,-7.443087845659031,2.503,0.011645455378373252,0.0004252299916214193,-0.5765554644204286,-0.8169749072005998,"(1.1299689999999998, 0.0, 0.0, 0.0, 0.0, 0.0, 0.0, 1.1299689999999998, 0.0, 0.0, 0.0, 0.0, 0.0, 0.0, 2.108304, 0.0, 0.0, 0.0, 0.0, 0.0, 0.0, 99999.0, 0.0, 0.0, 0.0, 0.0, 0.0, 0.0, 99999.0, 0.0, 0.0, 0.0, 0.0, 0.0, 0.0, 99999.0)",-0.06,-0.06,0.01,0.0,0.0,0.0,"(-1.0, 0.0, 0.0, 0.0, 0.0, 0.0, 0.0, 0.0, 0.0, 0.0, 0.0, 0.0, 0.0, 0.0, 0.0, 0.0, 0.0, 0.0, 0.0, 0.0, 0.0, 0.0, 0.0, 0.0, 0.0, 0.0, 0.0, 0.0, 0.0, 0.0, 0.0, 0.0, 0.0, 0.0, 0.0, 0.0)"
1737285437.3280056,12641,1737285437,326398784,map,base_link,-1.8371160263207513,-7.443087845659031,2.505,0.012475690469041097,-0.00021793470537191512,-0.5767810427584399,-0.8168034882187216,"(1.1299689999999998, 0.0, 0.0, 0.0, 0.0, 0.0, 0.0, 1.1299689999999998, 0.0, 0.0, 0.0, 0.0, 0.0, 0.0, 2.108304, 0.0, 0.0, 0.0, 0.0, 0.0, 0.0, 99999.0, 0.0, 0.0, 0.0, 0.0, 0.0, 0.0, 99999.0, 0.0, 0.0, 0.0, 0.0, 0.0, 0.0, 99999.0)",-0.03,-0.07,-0.01,0.0,0.0,0.0,"(-1.0, 0.0, 0.0, 0.0, 0.0, 0.0, 0.0, 0.0, 0.0, 0.0, 0.0, 0.0, 0.0, 0.0, 0.0, 0.0, 0.0, 0.0, 0.0, 0.0, 0.0, 0.0, 0.0, 0.0, 0.0, 0.0, 0.0, 0.0, 0.0, 0.0, 0.0, 0.0, 0.0, 0.0, 0.0, 0.0)"
1737285437.427164,12642,1737285437,425395200,map,base_link,-1.837116028170721,-7.4541803764507275,2.506,0.013025748778892392,-0.0008154323800765821,-0.5759816579534238,-0.8173584248296507,"(1.1299689999999998, 0.0, 0.0, 0.0, 0.0, 0.0, 0.0, 1.1299689999999998, 0.0, 0.0, 0.0, 0.0, 0.0, 0.0, 2.108304, 0.0, 0.0, 0.0, 0.0, 0.0, 0.0, 99999.0, 0.0, 0.0, 0.0, 0.0, 0.0, 0.0, 99999.0, 0.0, 0.0, 0.0, 0.0, 0.0, 0.0, 99999.0)",-0.02,-0.05,0.02,0.0,0.0,0.0,"(-1.0, 0.0, 0.0, 0.0, 0.0, 0.0, 0.0, 0.0, 0.0, 0.0, 0.0, 0.0, 0.0, 0.0, 0.0, 0.0, 0.0, 0.0, 0.0, 0.0, 0.0, 0.0, 0.0, 0.0, 0.0, 0.0, 0.0, 0.0, 0.0, 0.0, 0.0, 0.0, 0.0, 0.0, 0.0, 0.0)"
1737285437.5284493,12643,1737285437,524390336,map,base_link,-1.837116028170721,-7.4541803764507275,2.509,0.012148363597110119,-0.0017529675142145637,-0.5762819173614504,-0.8171587949040365,"(1.1299689999999998, 0.0, 0.0, 0.0, 0.0, 0.0, 0.0, 1.1299689999999998, 0.0, 0.0, 0.0, 0.0, 0.0, 0.0, 2.108304, 0.0, 0.0, 0.0, 0.0, 0.0, 0.0, 99999.0, 0.0, 0.0, 0.0, 0.0, 0.0, 0.0, 99999.0, 0.0, 0.0, 0.0, 0.0, 0.0, 0.0, 99999.0)",-0.03,-0.07,-0.01,0.0,0.0,0.0,"(-1.0, 0.0, 0.0, 0.0, 0.0, 0.0, 0.0, 0.0, 0.0, 0.0, 0.0, 0.0, 0.0, 0.0, 0.0, 0.0, 0.0, 0.0, 0.0, 0.0, 0.0, 0.0, 0.0, 0.0, 0.0, 0.0, 0.0, 0.0, 0.0, 0.0, 0.0, 0.0, 0.0, 0.0, 0.0, 0.0)"
1737285437.6291234,12644,1737285437,625387008,map,base_link,-1.846394391761431,-7.454180374120204,2.509,0.007981738916041516,-0.0002883905499421191,-0.5737433600913903,-0.8189961937798051,"(1.127844, 0.0, 0.0, 0.0, 0.0, 0.0, 0.0, 1.127844, 0.0, 0.0, 0.0, 0.0, 0.0, 0.0, 2.105401, 0.0, 0.0, 0.0, 0.0, 0.0, 0.0, 99999.0, 0.0, 0.0, 0.0, 0.0, 0.0, 0.0, 99999.0, 0.0, 0.0, 0.0, 0.0, 0.0, 0.0, 99999.0)",-0.05,-0.05,0.01,0.0,0.0,0.0,"(-1.0, 0.0, 0.0, 0.0, 0.0, 0.0, 0.0, 0.0, 0.0, 0.0, 0.0, 0.0, 0.0, 0.0, 0.0, 0.0, 0.0, 0.0, 0.0, 0.0, 0.0, 0.0, 0.0, 0.0, 0.0, 0.0, 0.0, 0.0, 0.0, 0.0, 0.0, 0.0, 0.0, 0.0, 0.0, 0.0)"
1737285437.7263322,12645,1737285437,724384192,map,base_link,-1.8463943936114007,-7.465272904524209,2.507,0.011103075845915808,-0.0016495418368219872,-0.5722014500512331,-0.8200362804643185,"(1.127844, 0.0, 0.0, 0.0, 0.0, 0.0, 0.0, 1.127844, 0.0, 0.0, 0.0, 0.0, 0.0, 0.0, 2.105401, 0.0, 0.0, 0.0, 0.0, 0.0, 0.0, 99999.0, 0.0, 0.0, 0.0, 0.0, 0.0, 0.0, 99999.0, 0.0, 0.0, 0.0, 0.0, 0.0, 0.0, 99999.0)",-0.03,-0.05,0.06,0.0,0.0,0.0,"(-1.0, 0.0, 0.0, 0.0, 0.0, 0.0, 0.0, 0.0, 0.0, 0.0, 0.0, 0.0, 0.0, 0.0, 0.0, 0.0, 0.0, 0.0, 0.0, 0.0, 0.0, 0.0, 0.0, 0.0, 0.0, 0.0, 0.0, 0.0, 0.0, 0.0, 0.0, 0.0, 0.0, 0.0, 0.0, 0.0)"
1737285437.8275158,12646,1737285437,825378304,map,base_link,-1.8463943936114007,-7.465272904524209,2.508,0.012530087911788152,-8.838845870382028e-05,-0.5716575765174541,-0.8203966140194597,"(1.125721, 0.0, 0.0, 0.0, 0.0, 0.0, 0.0, 1.125721, 0.0, 0.0, 0.0, 0.0, 0.0, 0.0, 2.105401, 0.0, 0.0, 0.0, 0.0, 0.0, 0.0, 99999.0, 0.0, 0.0, 0.0, 0.0, 0.0, 0.0, 99999.0, 0.0, 0.0, 0.0, 0.0, 0.0, 0.0, 99999.0)",-0.04,-0.06,0.02,0.0,0.0,0.0,"(-1.0, 0.0, 0.0, 0.0, 0.0, 0.0, 0.0, 0.0, 0.0, 0.0, 0.0, 0.0, 0.0, 0.0, 0.0, 0.0, 0.0, 0.0, 0.0, 0.0, 0.0, 0.0, 0.0, 0.0, 0.0, 0.0, 0.0, 0.0, 0.0, 0.0, 0.0, 0.0, 0.0, 0.0, 0.0, 0.0)"
1737285437.9263594,12647,1737285437,924373696,map,base_link,-1.8463943966215834,-7.465272916087724,2.51,0.012918987296298942,-0.0014494769680794494,-0.5730950077175601,-0.8193858132241285,"(1.125721, 0.0, 0.0, 0.0, 0.0, 0.0, 0.0, 1.125721, 0.0, 0.0, 0.0, 0.0, 0.0, 0.0, 2.105401, 0.0, 0.0, 0.0, 0.0, 0.0, 0.0, 99999.0, 0.0, 0.0, 0.0, 0.0, 0.0, 0.0, 99999.0, 0.0, 0.0, 0.0, 0.0, 0.0, 0.0, 99999.0)",-0.05,-0.04,0.05,0.0,0.0,0.0,"(-1.0, 0.0, 0.0, 0.0, 0.0, 0.0, 0.0, 0.0, 0.0, 0.0, 0.0, 0.0, 0.0, 0.0, 0.0, 0.0, 0.0, 0.0, 0.0, 0.0, 0.0, 0.0, 0.0, 0.0, 0.0, 0.0, 0.0, 0.0, 0.0, 0.0, 0.0, 0.0, 0.0, 0.0, 0.0, 0.0)"
1737285438.0270522,12648,1737285438,25367296,map,base_link,-1.8463943959564448,-7.47636543563569,2.509,0.01158358993796148,-0.0008788319381214447,-0.5739758259884084,-0.8187898382854406,"(1.125721, 0.0, 0.0, 0.0, 0.0, 0.0, 0.0, 1.125721, 0.0, 0.0, 0.0, 0.0, 0.0, 0.0, 2.105401, 0.0, 0.0, 0.0, 0.0, 0.0, 0.0, 99999.0, 0.0, 0.0, 0.0, 0.0, 0.0, 0.0, 99999.0, 0.0, 0.0, 0.0, 0.0, 0.0, 0.0, 99999.0)",0.0,-0.05,0.0,0.0,0.0,0.0,"(-1.0, 0.0, 0.0, 0.0, 0.0, 0.0, 0.0, 0.0, 0.0, 0.0, 0.0, 0.0, 0.0, 0.0, 0.0, 0.0, 0.0, 0.0, 0.0, 0.0, 0.0, 0.0, 0.0, 0.0, 0.0, 0.0, 0.0, 0.0, 0.0, 0.0, 0.0, 0.0, 0.0, 0.0, 0.0, 0.0)"
1737285438.1260674,12649,1737285438,124361152,map,base_link,-1.8463943986942,-7.476365447692529,2.511,0.012182629224090595,-0.00021818803370477917,-0.5743841208979182,-0.8184952153797207,"(1.125721, 0.0, 0.0, 0.0, 0.0, 0.0, 0.0, 1.125721, 0.0, 0.0, 0.0, 0.0, 0.0, 0.0, 2.105401, 0.0, 0.0, 0.0, 0.0, 0.0, 0.0, 99999.0, 0.0, 0.0, 0.0, 0.0, 0.0, 0.0, 99999.0, 0.0, 0.0, 0.0, 0.0, 0.0, 0.0, 99999.0)",-0.04,-0.03,0.0,0.0,0.0,0.0,"(-1.0, 0.0, 0.0, 0.0, 0.0, 0.0, 0.0, 0.0, 0.0, 0.0, 0.0, 0.0, 0.0, 0.0, 0.0, 0.0, 0.0, 0.0, 0.0, 0.0, 0.0, 0.0, 0.0, 0.0, 0.0, 0.0, 0.0, 0.0, 0.0, 0.0, 0.0, 0.0, 0.0, 0.0, 0.0, 0.0)"
1737285438.2269778,12650,1737285438,225354752,map,base_link,-1.846394400866379,-7.487457977072157,2.513,0.010903876558926504,-0.001956508571168855,-0.5743152999038913,-0.8185592305059555,"(1.1236000000000002, 0.0, 0.0, 0.0, 0.0, 0.0, 0.0, 1.1236000000000002, 0.0, 0.0, 0.0, 0.0, 0.0, 0.0, 2.1025, 0.0, 0.0, 0.0, 0.0, 0.0, 0.0, 99999.0, 0.0, 0.0, 0.0, 0.0, 0.0, 0.0, 99999.0, 0.0, 0.0, 0.0, 0.0, 0.0, 0.0, 99999.0)",-0.02,-0.05,-0.05,0.0,0.0,0.0,"(-1.0, 0.0, 0.0, 0.0, 0.0, 0.0, 0.0, 0.0, 0.0, 0.0, 0.0, 0.0, 0.0, 0.0, 0.0, 0.0, 0.0, 0.0, 0.0, 0.0, 0.0, 0.0, 0.0, 0.0, 0.0, 0.0, 0.0, 0.0, 0.0, 0.0, 0.0, 0.0, 0.0, 0.0, 0.0, 0.0)"
1737285438.3262854,12651,1737285438,324349888,map,base_link,-1.8556727652978944,-7.487457975423591,2.512,0.011167037731809538,-0.0027670390996906023,-0.5745535733546043,-0.8183861143179133,"(1.1236000000000002, 0.0, 0.0, 0.0, 0.0, 0.0, 0.0, 1.1236000000000002, 0.0, 0.0, 0.0, 0.0, 0.0, 0.0, 2.1025, 0.0, 0.0, 0.0, 0.0, 0.0, 0.0, 99999.0, 0.0, 0.0, 0.0, 0.0, 0.0, 0.0, 99999.0, 0.0, 0.0, 0.0, 0.0, 0.0, 0.0, 99999.0)",-0.05,-0.03,0.02,0.0,0.0,0.0,"(-1.0, 0.0, 0.0, 0.0, 0.0, 0.0, 0.0, 0.0, 0.0, 0.0, 0.0, 0.0, 0.0, 0.0, 0.0, 0.0, 0.0, 0.0, 0.0, 0.0, 0.0, 0.0, 0.0, 0.0, 0.0, 0.0, 0.0, 0.0, 0.0, 0.0, 0.0, 0.0, 0.0, 0.0, 0.0, 0.0)"
