Time,header.seq,header.stamp.secs,header.stamp.nsecs,header.frame_id,orientation.x,orientation.y,orientation.z,orientation.w,orientation_covariance_0,orientation_covariance_1,orientation_covariance_2,orientation_covariance_3,orientation_covariance_4,orientation_covariance_5,orientation_covariance_6,orientation_covariance_7,orientation_covariance_8,angular_velocity.x,angular_velocity.y,angular_velocity.z,angular_velocity_covariance_0,angular_velocity_covariance_1,angular_velocity_covariance_2,angular_velocity_covariance_3,angular_velocity_covariance_4,angular_velocity_covariance_5,angular_velocity_covariance_6,angular_velocity_covariance_7,angular_velocity_covariance_8,linear_acceleration.x,linear_acceleration.y,linear_acceleration.z,linear_acceleration_covariance_0,linear_acceleration_covariance_1,linear_acceleration_covariance_2,linear_acceleration_covariance_3,linear_acceleration_covariance_4,linear_acceleration_covariance_5,linear_acceleration_covariance_6,linear_acceleration_covariance_7,linear_acceleration_covariance_8
1737285429.1288173,12558,1737285429,25805056,base_link,0.005573004189655867,-0.00206472121328493,-0.6594315530033605,-0.7517411159795568,1.0,0.0,0.0,0.0,1.0,0.0,0.0,0.0,1.0,0.267281174659729,-0.4151011109352112,0.016205899417400412,1.2184696791468346e-07,0.0,0.0,0.0,1.2184696791468346e-07,0.0,0.0,0.0,1.2184696791468346e-07,-0.04903325,-0.1667130499999989,9.012311350000001,8.999999999999999e-08,0.0,0.0,0.0,8.999999999999999e-08,0.0,0.0,0.0,8.999999999999999e-08
1737285429.129021,12559,1737285429,126797888,base_link,0.009020750455638667,-0.0018650976457412836,-0.6620455802307097,-0.7494069636512405,1.0,0.0,0.0,0.0,1.0,0.0,0.0,0.0,1.0,-0.05721405893564224,0.1821805387735367,0.24137163162231443,1.2184696791468346e-07,0.0,0.0,0.0,1.2184696791468346e-07,0.0,0.0,0.0,1.2184696791468346e-07,-0.14709975,0.08825985000000108,8.83579165,8.999999999999999e-08,0.0,0.0,0.0,8.999999999999999e-08,0.0,0.0,0.0,8.999999999999999e-08
1737285429.2273068,12560,1737285429,224794816,base_link,0.010476749191942188,0.0006377357024171393,-0.6610884356751082,-0.7502345708084779,1.0,0.0,0.0,0.0,1.0,0.0,0.0,0.0,1.0,0.030427470803260803,-0.3131485879421234,-0.04682630673050876,1.2184696791468346e-07,0.0,0.0,0.0,1.2184696791468346e-07,0.0,0.0,0.0,1.2184696791468346e-07,-0.1765197,-0.4216859499999987,10.83634825,8.999999999999999e-08,0.0,0.0,0.0,8.999999999999999e-08,0.0,0.0,0.0,8.999999999999999e-08
1737285429.326585,12561,1737285429,324791232,base_link,0.012436317359308344,0.0024397091348670285,-0.657227317144061,-0.7535858540534687,1.0,0.0,0.0,0.0,1.0,0.0,0.0,0.0,1.0,0.0636293813586235,-0.05477158725261691,-0.2473262995481491,1.2184696791468346e-07,0.0,0.0,0.0,1.2184696791468346e-07,0.0,0.0,0.0,1.2184696791468346e-07,-0.10787315,-0.156906399999999,8.22777935,8.999999999999999e-08,0.0,0.0,0.0,8.999999999999999e-08,0.0,0.0,0.0,8.999999999999999e-08
1737285429.434626,12562,1737285429,431787392,base_link,0.011260437370230294,0.0008867295429211802,-0.576518103267769,-0.8170062991589986,1.0,0.0,0.0,0.0,1.0,0.0,0.0,0.0,1.0,-0.344389945268631,0.2770053446292877,0.12888137996196744,1.2184696791468346e-07,0.0,0.0,0.0,1.2184696791468346e-07,0.0,0.0,0.0,1.2184696791468346e-07,0.06864655,-0.6962721499999988,10.2185293,8.999999999999999e-08,0.0,0.0,0.0,8.999999999999999e-08,0.0,0.0,0.0,8.999999999999999e-08
1737285429.5327654,12563,1737285429,530784832,base_link,0.010865350631300393,-0.0011482668639629303,-0.604322165415991,-0.7966651404610319,1.0,0.0,0.0,0.0,1.0,0.0,0.0,0.0,1.0,-0.22164225578308105,0.29271888732910156,-0.05729143321514133,1.2184696791468346e-07,0.0,0.0,0.0,1.2184696791468346e-07,0.0,0.0,0.0,1.2184696791468346e-07,0.0392266,-0.8335652499999987,10.718668450000001,8.999999999999999e-08,0.0,0.0,0.0,8.999999999999999e-08,0.0,0.0,0.0,8.999999999999999e-08
1737285429.631216,12564,1737285429,628780992,base_link,0.011433427240618462,-0.0024725171125745443,-0.6444493511005462,-0.7645575173044515,1.0,0.0,0.0,0.0,1.0,0.0,0.0,0.0,1.0,0.029095754027366638,-0.14816090464591983,-0.18000769615173337,1.2184696791468346e-07,0.0,0.0,0.0,1.2184696791468346e-07,0.0,0.0,0.0,1.2184696791468346e-07,0.00980665,0.1372931000000013,10.6107953,8.999999999999999e-08,0.0,0.0,0.0,8.999999999999999e-08,0.0,0.0,0.0,8.999999999999999e-08
1737285429.7295554,12565,1737285429,725775872,base_link,0.010568994583219504,-0.00047809721443593366,-0.6655885265240147,-0.7462439153092938,1.0,0.0,0.0,0.0,1.0,0.0,0.0,0.0,1.0,0.029302947223186493,-0.2846961915493012,-0.36254078149795527,1.2184696791468346e-07,0.0,0.0,0.0,1.2184696791468346e-07,0.0,0.0,0.0,1.2184696791468346e-07,-0.0980665,-0.33342609999999867,11.0815145,8.999999999999999e-08,0.0,0.0,0.0,8.999999999999999e-08,0.0,0.0,0.0,8.999999999999999e-08
1737285429.8277261,12566,1737285429,825769216,base_link,0.012403294018119106,0.0014324325724492128,-0.6605023103060723,-0.7507201905602156,1.0,0.0,0.0,0.0,1.0,0.0,0.0,0.0,1.0,-0.15588508546352386,0.057432260364294004,-0.42435434460639954,1.2184696791468346e-07,0.0,0.0,0.0,1.2184696791468346e-07,0.0,0.0,0.0,1.2184696791468346e-07,-0.22555295,-0.7256920999999987,10.40485565,8.999999999999999e-08,0.0,0.0,0.0,8.999999999999999e-08,0.0,0.0,0.0,8.999999999999999e-08
1737285429.9270878,12567,1737285429,924764352,base_link,0.012085964031604427,0.005091103655740344,-0.6330490926889033,-0.7740005532186327,1.0,0.0,0.0,0.0,1.0,0.0,0.0,0.0,1.0,-0.033678002655506134,-0.0638051927089692,-0.6718077063560486,1.2184696791468346e-07,0.0,0.0,0.0,1.2184696791468346e-07,0.0,0.0,0.0,1.2184696791468346e-07,0.0784532,-1.6867437999999986,10.2577559,8.999999999999999e-08,0.0,0.0,0.0,8.999999999999999e-08,0.0,0.0,0.0,8.999999999999999e-08
1737285430.0284941,12568,1737285430,25755648,base_link,0.012220190805517882,0.00592450421857808,-0.59964046732356,-0.800154283331923,1.0,0.0,0.0,0.0,1.0,0.0,0.0,0.0,1.0,0.27869197726249695,0.0007506320253013556,-0.8235774040222168,1.2184696791468346e-07,0.0,0.0,0.0,1.2184696791468346e-07,0.0,0.0,0.0,1.2184696791468346e-07,-0.0196133,-0.5687856999999988,9.65955025,8.999999999999999e-08,0.0,0.0,0.0,8.999999999999999e-08,0.0,0.0,0.0,8.999999999999999e-08
1737285430.1276615,12569,1737285430,125748736,base_link,0.010995464700803764,0.004642624894838305,-0.5743179257975306,-0.8185453352733257,1.0,0.0,0.0,0.0,1.0,0.0,0.0,0.0,1.0,0.16262798011302948,-0.17790463566780096,-0.46414685249328613,1.2184696791468346e-07,0.0,0.0,0.0,1.2184696791468346e-07,0.0,0.0,0.0,1.2184696791468346e-07,-0.392266,0.3824593500000012,9.9439431,8.999999999999999e-08,0.0,0.0,0.0,8.999999999999999e-08,0.0,0.0,0.0,8.999999999999999e-08
1737285430.2266622,12570,1737285430,224745920,base_link,0.010265937254245395,0.0021966174669277474,-0.5623199215934647,-0.8268531255205578,1.0,0.0,0.0,0.0,1.0,0.0,0.0,0.0,1.0,-0.010022284463047981,0.01471467595547436,-0.1390482783317566,1.2184696791468346e-07,0.0,0.0,0.0,1.2184696791468346e-07,0.0,0.0,0.0,1.2184696791468346e-07,-0.1569064,-0.4805258499999988,9.7281968,8.999999999999999e-08,0.0,0.0,0.0,8.999999999999999e-08,0.0,0.0,0.0,8.999999999999999e-08
1737285430.3267772,12571,1737285430,324740288,base_link,0.011433121422435098,-0.0002490826720843246,-0.5609243058853826,-0.8277881037798042,1.0,0.0,0.0,0.0,1.0,0.0,0.0,0.0,1.0,-0.27852773666381836,0.2005244642496109,0.07437153905630109,1.2184696791468346e-07,0.0,0.0,0.0,1.2184696791468346e-07,0.0,0.0,0.0,1.2184696791468346e-07,0.10787315,-0.24516624999999875,10.3754357,8.999999999999999e-08,0.0,0.0,0.0,8.999999999999999e-08,0.0,0.0,0.0,8.999999999999999e-08
1737285430.4261198,12572,1737285430,424734656,base_link,0.009699807945165293,-0.0014765826250621164,-0.566884117114216,-0.8237391159786053,1.0,0.0,0.0,0.0,1.0,0.0,0.0,0.0,1.0,-0.15746022760868073,0.09925947338342667,0.0031763608567416547,1.2184696791468346e-07,0.0,0.0,0.0,1.2184696791468346e-07,0.0,0.0,0.0,1.2184696791468346e-07,-0.392266,0.7845320000000012,10.179302700000001,8.999999999999999e-08,0.0,0.0,0.0,8.999999999999999e-08,0.0,0.0,0.0,8.999999999999999e-08
1737285430.5277576,12573,1737285430,525730304,base_link,0.006543976925955801,-0.0029026059449466716,-0.5758724315844148,-0.8175082224575937,1.0,0.0,0.0,0.0,1.0,0.0,0.0,0.0,1.0,0.1580066829919815,-0.12289245426654813,0.18210969865322116,1.2184696791468346e-07,0.0,0.0,0.0,1.2184696791468346e-07,0.0,0.0,0.0,1.2184696791468346e-07,-0.3138128,0.06864655000000122,10.05181625,8.999999999999999e-08,0.0,0.0,0.0,8.999999999999999e-08,0.0,0.0,0.0,8.999999999999999e-08
1737285430.627953,12574,1737285430,624726208,base_link,0.005354417250195039,-0.003089512202720816,-0.582396277166163,-0.8128815174877911,1.0,0.0,0.0,0.0,1.0,0.0,0.0,0.0,1.0,0.15618692338466644,-0.3223138451576233,0.07150612026453022,1.2184696791468346e-07,0.0,0.0,0.0,1.2184696791468346e-07,0.0,0.0,0.0,1.2184696791468346e-07,-0.2353596,-0.34323274999999875,10.16949605,8.999999999999999e-08,0.0,0.0,0.0,8.999999999999999e-08,0.0,0.0,0.0,8.999999999999999e-08
1737285430.7278185,12575,1737285430,725722112,base_link,0.0058528368372467434,-0.0017133870339485447,-0.5860909306782723,-0.8102223334261436,1.0,0.0,0.0,0.0,1.0,0.0,0.0,0.0,1.0,-0.18018455803394318,-0.1154050827026367,0.09356363862752916,1.2184696791468346e-07,0.0,0.0,0.0,1.2184696791468346e-07,0.0,0.0,0.0,1.2184696791468346e-07,-0.20593965,-0.00980664999999888,9.14960445,8.999999999999999e-08,0.0,0.0,0.0,8.999999999999999e-08,0.0,0.0,0.0,8.999999999999999e-08
1737285430.828773,12576,1737285430,826717504,base_link,0.008572839357843991,-0.0031319030298591474,-0.5858393320102624,-0.8103758231083439,1.0,0.0,0.0,0.0,1.0,0.0,0.0,0.0,1.0,-0.288028359413147,0.28791624307632446,0.04355176910758015,1.2184696791468346e-07,0.0,0.0,0.0,1.2184696791468346e-07,0.0,0.0,0.0,1.2184696791468346e-07,0.1569064,-0.7060787999999989,9.2378643,8.999999999999999e-08,0.0,0.0,0.0,8.999999999999999e-08,0.0,0.0,0.0,8.999999999999999e-08
1737285430.9270883,12577,1737285430,925710592,base_link,0.0056306163439187535,-0.0026987786012639507,-0.5813563160285236,-0.8136251265585352,1.0,0.0,0.0,0.0,1.0,0.0,0.0,0.0,1.0,0.13527660071849823,-0.28961339592933655,-0.13919918239116666,1.2184696791468346e-07,0.0,0.0,0.0,1.2184696791468346e-07,0.0,0.0,0.0,1.2184696791468346e-07,-0.0784532,-0.7060787999999988,10.6696352,8.999999999999999e-08,0.0,0.0,0.0,8.999999999999999e-08,0.0,0.0,0.0,8.999999999999999e-08
1737285431.0259855,12578,1737285431,24706496,base_link,0.01081528724167154,-0.0046766785876530366,-0.5772196299788925,-0.8165039234481967,1.0,0.0,0.0,0.0,1.0,0.0,0.0,0.0,1.0,-0.2624996304512024,0.4432123303413391,-0.042896959930658396,1.2184696791468346e-07,0.0,0.0,0.0,1.2184696791468346e-07,0.0,0.0,0.0,1.2184696791468346e-07,0.00980665,0.24516625000000106,8.46313895,8.999999999999999e-08,0.0,0.0,0.0,8.999999999999999e-08,0.0,0.0,0.0,8.999999999999999e-08
1737285431.1277587,12579,1737285431,125693952,base_link,0.012559848253524285,-0.005226703690540575,-0.5761458671523195,-0.8172336700991227,1.0,0.0,0.0,0.0,1.0,0.0,0.0,0.0,1.0,-0.38099801540374756,0.18503925204277039,-0.030220581218600297,1.2184696791468346e-07,0.0,0.0,0.0,1.2184696791468346e-07,0.0,0.0,0.0,1.2184696791468346e-07,-0.2353596,-0.5197524499999986,11.4933938,8.999999999999999e-08,0.0,0.0,0.0,8.999999999999999e-08,0.0,0.0,0.0,8.999999999999999e-08
1737285431.2258637,12580,1737285431,224688832,base_link,0.010858150307662308,-0.004785251972866671,-0.5768201911361169,-0.816784958868089,1.0,0.0,0.0,0.0,1.0,0.0,0.0,0.0,1.0,0.10040797293186188,0.04184629395604134,0.045389879494905465,1.2184696791468346e-07,0.0,0.0,0.0,1.2184696791468346e-07,0.0,0.0,0.0,1.2184696791468346e-07,-0.26477955,-0.36284604999999875,10.4931155,8.999999999999999e-08,0.0,0.0,0.0,8.999999999999999e-08,0.0,0.0,0.0,8.999999999999999e-08
1737285431.3281083,12581,1737285431,326681152,base_link,0.00772680628569767,-0.0026563269727258735,-0.578044296757323,-0.815964479237895,1.0,0.0,0.0,0.0,1.0,0.0,0.0,0.0,1.0,0.22088803350925446,-0.2551948130130768,-0.03428515419363972,1.2184696791468346e-07,0.0,0.0,0.0,1.2184696791468346e-07,0.0,0.0,0.0,1.2184696791468346e-07,-0.18632635,-0.34323274999999887,9.3163175,8.999999999999999e-08,0.0,0.0,0.0,8.999999999999999e-08,0.0,0.0,0.0,8.999999999999999e-08
1737285431.4268003,12582,1737285431,424673984,base_link,0.005620774166177216,-0.0011475795807019894,-0.5781516694812541,-0.8159091475372228,1.0,0.0,0.0,0.0,1.0,0.0,0.0,0.0,1.0,0.2069820612668991,-0.24322690069675446,-0.06022319570183751,1.2184696791468346e-07,0.0,0.0,0.0,1.2184696791468346e-07,0.0,0.0,0.0,1.2184696791468346e-07,0.00980665,0.12748645000000103,8.42391235,8.999999999999999e-08,0.0,0.0,0.0,8.999999999999999e-08,0.0,0.0,0.0,8.999999999999999e-08
1737285431.5279498,12583,1737285431,526670144,base_link,0.006123026573478326,-0.0023392760896889095,-0.5788538213796071,-0.8154049851498227,1.0,0.0,0.0,0.0,1.0,0.0,0.0,0.0,1.0,0.27366626262664795,-0.07882478088140486,0.1261233389377594,1.2184696791468346e-07,0.0,0.0,0.0,1.2184696791468346e-07,0.0,0.0,0.0,1.2184696791468346e-07,-0.2941995,0.07845320000000108,8.8652116,8.999999999999999e-08,0.0,0.0,0.0,8.999999999999999e-08,0.0,0.0,0.0,8.999999999999999e-08
1737285431.6258914,12584,1737285431,624666560,base_link,0.008583006806624983,-0.002086039246941683,-0.5802893563568291,-0.8143624766241349,1.0,0.0,0.0,0.0,1.0,0.0,0.0,0.0,1.0,-0.3894359767436981,0.17745733261108398,-0.010266241617500805,1.2184696791468346e-07,0.0,0.0,0.0,1.2184696791468346e-07,0.0,0.0,0.0,1.2184696791468346e-07,-0.2157463,-0.13729309999999886,9.3751574,8.999999999999999e-08,0.0,0.0,0.0,8.999999999999999e-08,0.0,0.0,0.0,8.999999999999999e-08
1737285431.7278922,12585,1737285431,726659904,base_link,0.006983410000392602,-0.0027832531253773355,-0.5814186900017695,-0.8135697833642992,1.0,0.0,0.0,0.0,1.0,0.0,0.0,0.0,1.0,-0.23647300899028778,0.3133385479450226,-0.015456790104508438,1.2184696791468346e-07,0.0,0.0,0.0,1.2184696791468346e-07,0.0,0.0,0.0,1.2184696791468346e-07,-0.20593965,-0.11767979999999871,10.4931155,8.999999999999999e-08,0.0,0.0,0.0,8.999999999999999e-08,0.0,0.0,0.0,8.999999999999999e-08
1737285431.8272104,12586,1737285431,825655040,base_link,0.005364001420181073,-0.0006101023268703045,-0.5825444012681896,-0.8127809519267795,1.0,0.0,0.0,0.0,1.0,0.0,0.0,0.0,1.0,0.13867852091789246,-0.45663660764694214,-0.11459760367870325,1.2184696791468346e-07,0.0,0.0,0.0,1.2184696791468346e-07,0.0,0.0,0.0,1.2184696791468346e-07,-0.02941995,1.2898399040289912e-15,10.5323421,8.999999999999999e-08,0.0,0.0,0.0,8.999999999999999e-08,0.0,0.0,0.0,8.999999999999999e-08
1737285431.9281855,12587,1737285431,926643776,base_link,0.004874888073223058,0.0010298824844666265,-0.5822691925102416,-0.8129807883719105,1.0,0.0,0.0,0.0,1.0,0.0,0.0,0.0,1.0,0.11616192758083344,-0.43190640211105347,-0.16829906404018397,1.2184696791468346e-07,0.0,0.0,0.0,1.2184696791468346e-07,0.0,0.0,0.0,1.2184696791468346e-07,-0.1176798,-0.09806649999999892,8.7867584,8.999999999999999e-08,0.0,0.0,0.0,8.999999999999999e-08,0.0,0.0,0.0,8.999999999999999e-08
1737285432.0269387,12588,1737285432,25638912,base_link,0.008015319533977371,0.000695106744264001,-0.5794030661922045,-0.8150014468493011,1.0,0.0,0.0,0.0,1.0,0.0,0.0,0.0,1.0,-0.02602975070476532,0.27276214957237244,-0.17216368019580844,1.2184696791468346e-07,0.0,0.0,0.0,1.2184696791468346e-07,0.0,0.0,0.0,1.2184696791468346e-07,-0.44129925000000003,0.28439285000000103,8.50236555,8.999999999999999e-08,0.0,0.0,0.0,8.999999999999999e-08,0.0,0.0,0.0,8.999999999999999e-08
1737285432.1279895,12589,1737285432,126636352,base_link,0.010893413231715667,-0.0004817672074430164,-0.5748142433992767,-0.818211272859179,1.0,0.0,0.0,0.0,1.0,0.0,0.0,0.0,1.0,-0.03256518021225929,0.11649283766746521,-0.04285170137882234,1.2184696791468346e-07,0.0,0.0,0.0,1.2184696791468346e-07,0.0,0.0,0.0,1.2184696791468346e-07,-0.28439285000000003,-0.05883989999999872,10.48330885,8.999999999999999e-08,0.0,0.0,0.0,8.999999999999999e-08,0.0,0.0,0.0,8.999999999999999e-08
1737285432.226953,12590,1737285432,224632512,base_link,0.009433780618333987,-0.0005123493346208685,-0.5718508466684454,-0.8203032064096705,1.0,0.0,0.0,0.0,1.0,0.0,0.0,0.0,1.0,0.41311728954315186,-0.41342073678970337,-0.14403696358203882,1.2184696791468346e-07,0.0,0.0,0.0,1.2184696791468346e-07,0.0,0.0,0.0,1.2184696791468346e-07,-0.1372931,-0.4609125499999987,10.93441475,8.999999999999999e-08,0.0,0.0,0.0,8.999999999999999e-08,0.0,0.0,0.0,8.999999999999999e-08
1737285432.328012,12591,1737285432,326625856,base_link,0.008344494587338361,-0.003727508051799006,-0.5736188767100663,-0.8190713396131545,1.0,0.0,0.0,0.0,1.0,0.0,0.0,0.0,1.0,0.09418153017759323,-0.026455992832779864,0.16856417059898376,1.2184696791468346e-07,0.0,0.0,0.0,1.2184696791468346e-07,0.0,0.0,0.0,1.2184696791468346e-07,-0.2157463,-0.4805258499999987,10.8461549,8.999999999999999e-08,0.0,0.0,0.0,8.999999999999999e-08,0.0,0.0,0.0,8.999999999999999e-08
1737285432.4269447,12592,1737285432,425620736,base_link,0.00860084758690907,-0.0026298237772209767,-0.5736523691521993,-0.8190494910649515,1.0,0.0,0.0,0.0,1.0,0.0,0.0,0.0,1.0,-0.08677057921886444,-0.0038229553028941102,0.04179031029343605,1.2184696791468346e-07,0.0,0.0,0.0,1.2184696791468346e-07,0.0,0.0,0.0,1.2184696791468346e-07,-0.20593965,-0.30400614999999875,10.1596894,8.999999999999999e-08,0.0,0.0,0.0,8.999999999999999e-08,0.0,0.0,0.0,8.999999999999999e-08
1737285432.5259857,12593,1737285432,524620736,base_link,0.010974517018660068,-0.0033741830713767827,-0.5728607507418748,-0.8195722879186822,1.0,0.0,0.0,0.0,1.0,0.0,0.0,0.0,1.0,-0.2034214735031128,0.09869980812072753,-0.05923690646886827,1.2184696791468346e-07,0.0,0.0,0.0,1.2184696791468346e-07,0.0,0.0,0.0,1.2184696791468346e-07,-0.0980665,-0.3530393999999989,9.38496405,8.999999999999999e-08,0.0,0.0,0.0,8.999999999999999e-08,0.0,0.0,0.0,8.999999999999999e-08
1737285432.6269388,12594,1737285432,625617408,base_link,0.008716321313841207,-0.0024884518385527733,-0.5727202839298385,-0.8197007440069373,1.0,0.0,0.0,0.0,1.0,0.0,0.0,0.0,1.0,-0.20999151468276978,0.12108108401298522,-0.07516493648290636,1.2184696791468346e-07,0.0,0.0,0.0,1.2184696791468346e-07,0.0,0.0,0.0,1.2184696791468346e-07,-0.1176798,-0.4216859499999987,10.67944185,8.999999999999999e-08,0.0,0.0,0.0,8.999999999999999e-08,0.0,0.0,0.0,8.999999999999999e-08
1737285432.7260594,12595,1737285432,724612800,base_link,0.0077735618930331015,-0.002788829974852787,-0.5752620273488596,-0.8179274992646636,1.0,0.0,0.0,0.0,1.0,0.0,0.0,0.0,1.0,-0.12767481803894043,0.14183270931243896,0.06698139011859892,1.2184696791468346e-07,0.0,0.0,0.0,1.2184696791468346e-07,0.0,0.0,0.0,1.2184696791468346e-07,-0.1372931,-0.44129924999999887,9.3359308,8.999999999999999e-08,0.0,0.0,0.0,8.999999999999999e-08,0.0,0.0,0.0,8.999999999999999e-08
1737285432.8269846,12596,1737285432,825609728,base_link,0.008519061262638418,-4.244654131207395e-06,-0.5765294321325887,-0.8170319696695233,1.0,0.0,0.0,0.0,1.0,0.0,0.0,0.0,1.0,-0.032748736441135406,-0.07086391001939775,-0.12301082164049147,1.2184696791468346e-07,0.0,0.0,0.0,1.2184696791468346e-07,0.0,0.0,0.0,1.2184696791468346e-07,-0.1765197,-0.12748644999999872,10.5323421,8.999999999999999e-08,0.0,0.0,0.0,8.999999999999999e-08,0.0,0.0,0.0,8.999999999999999e-08
1737285432.9271688,12597,1737285432,924605632,base_link,0.008213975110663489,-0.00015181396176043078,-0.5781936470191398,-0.8158582071120621,1.0,0.0,0.0,0.0,1.0,0.0,0.0,0.0,1.0,0.28185614943504333,-0.13496100902557373,0.08088961243629457,1.2184696791468346e-07,0.0,0.0,0.0,1.2184696791468346e-07,0.0,0.0,0.0,1.2184696791468346e-07,-0.12748645,0.5295591000000013,10.0223963,8.999999999999999e-08,0.0,0.0,0.0,8.999999999999999e-08,0.0,0.0,0.0,8.999999999999999e-08
1737285433.02805,12598,1737285433,26601536,base_link,0.007149221752050652,8.665170322320796e-05,-0.5792101256494372,-0.8151469263053044,1.0,0.0,0.0,0.0,1.0,0.0,0.0,0.0,1.0,0.37567058205604553,-0.5061706900596619,-0.0790428146719932,1.2184696791468346e-07,0.0,0.0,0.0,1.2184696791468346e-07,0.0,0.0,0.0,1.2184696791468346e-07,-0.22555295,-0.11767979999999868,10.77750835,8.999999999999999e-08,0.0,0.0,0.0,8.999999999999999e-08,0.0,0.0,0.0,8.999999999999999e-08
1737285433.1270664,12599,1737285433,125594880,base_link,0.00855068758981417,-0.001447493828227264,-0.5814947418643674,-0.8135039371063001,1.0,0.0,0.0,0.0,1.0,0.0,0.0,0.0,1.0,0.14324864745140076,0.07191342115402224,0.17352983355522156,1.2184696791468346e-07,0.0,0.0,0.0,1.2184696791468346e-07,0.0,0.0,0.0,1.2184696791468346e-07,-0.20593965,0.39226600000000106,8.52197885,8.999999999999999e-08,0.0,0.0,0.0,8.999999999999999e-08,0.0,0.0,0.0,8.999999999999999e-08
1737285433.2262676,12600,1737285433,224589504,base_link,0.013442394646716975,-0.0014650520488074029,-0.5828330143593455,-0.8124794354452642,1.0,0.0,0.0,0.0,1.0,0.0,0.0,0.0,1.0,-0.14162518084049225,0.06303440034389496,-0.040925387293100364,1.2184696791468346e-07,0.0,0.0,0.0,1.2184696791468346e-07,0.0,0.0,0.0,1.2184696791468346e-07,-0.196133,-0.3824593499999988,9.6889702,8.999999999999999e-08,0.0,0.0,0.0,8.999999999999999e-08,0.0,0.0,0.0,8.999999999999999e-08
1737285433.32708,12601,1737285433,325588736,base_link,0.013719643937826218,-0.00012433707097600507,-0.5796575710505643,-0.8147446570762352,1.0,0.0,0.0,0.0,1.0,0.0,0.0,0.0,1.0,0.06280870735645294,0.012259511277079551,-0.25691255927085876,1.2184696791468346e-07,0.0,0.0,0.0,1.2184696791468346e-07,0.0,0.0,0.0,1.2184696791468346e-07,-0.0980665,-0.2451662499999988,9.67916355,8.999999999999999e-08,0.0,0.0,0.0,8.999999999999999e-08,0.0,0.0,0.0,8.999999999999999e-08
1737285433.4261084,12602,1737285433,424582080,base_link,0.010110754699566052,0.0018614162673966717,-0.5768229229792264,-0.8168045196340346,1.0,0.0,0.0,0.0,1.0,0.0,0.0,0.0,1.0,0.12979595363140106,-0.13811083137989041,0.1202540546655655,1.2184696791468346e-07,0.0,0.0,0.0,1.2184696791468346e-07,0.0,0.0,0.0,1.2184696791468346e-07,-0.26477955,0.2353596000000012,9.5909037,8.999999999999999e-08,0.0,0.0,0.0,8.999999999999999e-08,0.0,0.0,0.0,8.999999999999999e-08
1737285433.5271,12603,1737285433,525578240,base_link,0.007042288688999819,0.0038915447929727055,-0.5732710085751656,-0.8193263164187744,1.0,0.0,0.0,0.0,1.0,0.0,0.0,0.0,1.0,0.2763698399066925,-0.44585976004600525,-0.1682161390781402,1.2184696791468346e-07,0.0,0.0,0.0,1.2184696791468346e-07,0.0,0.0,0.0,1.2184696791468346e-07,-0.02941995,-0.6864654999999987,9.7870367,8.999999999999999e-08,0.0,0.0,0.0,8.999999999999999e-08,0.0,0.0,0.0,8.999999999999999e-08
1737285433.6262612,12604,1737285433,624570048,base_link,0.00958848034260846,0.003702390155562953,-0.5737361116187071,-0.8189757185512292,1.0,0.0,0.0,0.0,1.0,0.0,0.0,0.0,1.0,-0.07839352637529373,-0.1559818983078003,-0.02197771705687044,1.2184696791468346e-07,0.0,0.0,0.0,1.2184696791468346e-07,0.0,0.0,0.0,1.2184696791468346e-07,0.1176798,0.37265270000000106,8.6102387,8.999999999999999e-08,0.0,0.0,0.0,8.999999999999999e-08,0.0,0.0,0.0,8.999999999999999e-08
1737285433.7272434,12605,1737285433,725567232,base_link,0.009979530727423457,0.004142941679343521,-0.5728612466484105,-0.8195811351471742,1.0,0.0,0.0,0.0,1.0,0.0,0.0,0.0,1.0,-0.004773733206093311,0.07907359302043916,0.08124396950006484,1.2184696791468346e-07,0.0,0.0,0.0,1.2184696791468346e-07,0.0,0.0,0.0,1.2184696791468346e-07,-0.16671305,-0.17651969999999892,8.85540495,8.999999999999999e-08,0.0,0.0,0.0,8.999999999999999e-08,0.0,0.0,0.0,8.999999999999999e-08
1737285433.82627,12606,1737285433,824563904,base_link,0.01238427680357186,0.004431263002859318,-0.5705660870797002,-0.8211463535027186,1.0,0.0,0.0,0.0,1.0,0.0,0.0,0.0,1.0,-0.1372448056936264,0.06227146089076993,-0.2318025380373001,1.2184696791468346e-07,0.0,0.0,0.0,1.2184696791468346e-07,0.0,0.0,0.0,1.2184696791468346e-07,0.02941995,-0.41187929999999884,9.52225715,8.999999999999999e-08,0.0,0.0,0.0,8.999999999999999e-08,0.0,0.0,0.0,8.999999999999999e-08
1737285433.9274652,12607,1737285433,926560576,base_link,0.012097922034311532,0.0031572433699406472,-0.568198639002767,-0.8227964382106658,1.0,0.0,0.0,0.0,1.0,0.0,0.0,0.0,1.0,-0.09518938511610031,0.35642126202583313,0.005108299665152983,1.2184696791468346e-07,0.0,0.0,0.0,1.2184696791468346e-07,0.0,0.0,0.0,1.2184696791468346e-07,-0.06864655,0.11767980000000122,9.9831697,8.999999999999999e-08,0.0,0.0,0.0,8.999999999999999e-08,0.0,0.0,0.0,8.999999999999999e-08
1737285434.026427,12608,1737285434,24557248,base_link,0.010936181258221008,0.0028414979401780944,-0.5666094697798949,-0.823908996543119,1.0,0.0,0.0,0.0,1.0,0.0,0.0,0.0,1.0,0.06142634153366089,0.07200713455677031,-0.12793928384780884,1.2184696791468346e-07,0.0,0.0,0.0,1.2184696791468346e-07,0.0,0.0,0.0,1.2184696791468346e-07,-0.1765197,-0.3236194499999986,11.24822755,8.999999999999999e-08,0.0,0.0,0.0,8.999999999999999e-08,0.0,0.0,0.0,8.999999999999999e-08
1737285434.1309905,12609,1737285434,126556224,base_link,0.010234300435363735,0.0021154040816293174,-0.5658129140357009,-0.8244674223221914,1.0,0.0,0.0,0.0,1.0,0.0,0.0,0.0,1.0,-0.1432606279850006,0.40649399161338806,0.18483985960483545,1.2184696791468346e-07,0.0,0.0,0.0,1.2184696791468346e-07,0.0,0.0,0.0,1.2184696791468346e-07,0.0,0.11767980000000125,10.20872265,8.999999999999999e-08,0.0,0.0,0.0,8.999999999999999e-08,0.0,0.0,0.0,8.999999999999999e-08
1737285434.2272537,12610,1737285434,225552128,base_link,0.010192762752283037,0.0023651313736980937,-0.5640949420969147,-0.8256436338044031,1.0,0.0,0.0,0.0,1.0,0.0,0.0,0.0,1.0,0.06823243200778961,-0.024239193648099913,-0.1178678497672081,1.2184696791468346e-07,0.0,0.0,0.0,1.2184696791468346e-07,0.0,0.0,0.0,1.2184696791468346e-07,-0.00980665,-0.47071919999999867,11.0619012,8.999999999999999e-08,0.0,0.0,0.0,8.999999999999999e-08,0.0,0.0,0.0,8.999999999999999e-08
1737285434.3262286,12611,1737285434,325547520,base_link,0.009747251793262275,0.0033262623392570217,-0.5652881752134741,-0.8248291980920353,1.0,0.0,0.0,0.0,1.0,0.0,0.0,0.0,1.0,0.06732936203479767,-0.2728535830974579,-0.13894489407539365,1.2184696791468346e-07,0.0,0.0,0.0,1.2184696791468346e-07,0.0,0.0,0.0,1.2184696791468346e-07,-0.5295591,-0.009806649999998713,10.5127288,8.999999999999999e-08,0.0,0.0,0.0,8.999999999999999e-08,0.0,0.0,0.0,8.999999999999999e-08
1737285434.4283695,12612,1737285434,426544192,base_link,0.009669960844040417,0.0024040821175773906,-0.5690599084357334,-0.8222356917925429,1.0,0.0,0.0,0.0,1.0,0.0,0.0,0.0,1.0,-0.19643692672252655,0.35658302903175354,0.19586978852748865,1.2184696791468346e-07,0.0,0.0,0.0,1.2184696791468346e-07,0.0,0.0,0.0,1.2184696791468346e-07,-0.4511059,0.6962721500000011,8.69849855,8.999999999999999e-08,0.0,0.0,0.0,8.999999999999999e-08,0.0,0.0,0.0,8.999999999999999e-08
1737285434.5262303,12613,1737285434,524536768,base_link,0.009682816427658414,0.002699191200996812,-0.5720286612470499,-0.8201720357003136,1.0,0.0,0.0,0.0,1.0,0.0,0.0,0.0,1.0,0.03682008385658264,0.11123335361480712,-0.06509703397750856,1.2184696791468346e-07,0.0,0.0,0.0,1.2184696791468346e-07,0.0,0.0,0.0,1.2184696791468346e-07,0.1176798,-0.5883989999999987,10.9246081,8.999999999999999e-08,0.0,0.0,0.0,8.999999999999999e-08,0.0,0.0,0.0,8.999999999999999e-08
1737285434.6253853,12614,1737285434,624532416,base_link,0.008246586795749994,0.0024423352981141062,-0.5739122379590722,-0.8188716455741528,1.0,0.0,0.0,0.0,1.0,0.0,0.0,0.0,1.0,0.1638185679912567,-0.16620962321758267,0.1569100469350815,1.2184696791468346e-07,0.0,0.0,0.0,1.2184696791468346e-07,0.0,0.0,0.0,1.2184696791468346e-07,-0.20593965,-0.4020726499999988,9.58109705,8.999999999999999e-08,0.0,0.0,0.0,8.999999999999999e-08,0.0,0.0,0.0,8.999999999999999e-08
1737285434.7273142,12615,1737285434,725529088,base_link,0.0065268119727578166,0.002737891627831618,-0.5733908234383545,-0.819251407244194,1.0,0.0,0.0,0.0,1.0,0.0,0.0,0.0,1.0,0.309020459651947,-0.37405142188072205,-0.06643827259540554,1.2184696791468346e-07,0.0,0.0,0.0,1.2184696791468346e-07,0.0,0.0,0.0,1.2184696791468346e-07,0.00980665,-0.46091254999999887,9.3163175,8.999999999999999e-08,0.0,0.0,0.0,8.999999999999999e-08,0.0,0.0,0.0,8.999999999999999e-08
1737285434.8254242,12616,1737285434,824521920,base_link,0.007235043393392098,-0.0010073321429535553,-0.5753084033492262,-0.8179039555258388,1.0,0.0,0.0,0.0,1.0,0.0,0.0,0.0,1.0,-0.008208801038563251,0.09358885139226916,0.1940413862466812,1.2184696791468346e-07,0.0,0.0,0.0,1.2184696791468346e-07,0.0,0.0,0.0,1.2184696791468346e-07,0.00980665,-0.07845319999999895,8.58081875,8.999999999999999e-08,0.0,0.0,0.0,8.999999999999999e-08,0.0,0.0,0.0,8.999999999999999e-08
1737285434.9264643,12617,1737285434,925518080,base_link,0.011696663255412687,-0.0019152374216863286,-0.5766480070129776,-0.8169067241382392,1.0,0.0,0.0,0.0,1.0,0.0,0.0,0.0,1.0,-0.08759909868240356,0.18288081884384158,0.17235271632671353,1.2184696791468346e-07,0.0,0.0,0.0,1.2184696791468346e-07,0.0,0.0,0.0,1.2184696791468346e-07,0.0784532,-0.5295590999999988,9.9243298,8.999999999999999e-08,0.0,0.0,0.0,8.999999999999999e-08,0.0,0.0,0.0,8.999999999999999e-08
1737285435.025447,12618,1737285435,24512704,base_link,0.014618700429572617,-0.0006898350957325295,-0.5771123172180358,-0.8165336435447841,1.0,0.0,0.0,0.0,1.0,0.0,0.0,0.0,1.0,-0.1960088312625885,-0.034378010779619245,-0.2019592672586441,1.2184696791468346e-07,0.0,0.0,0.0,1.2184696791468346e-07,0.0,0.0,0.0,1.2184696791468346e-07,-0.36284605000000003,-0.19613299999999878,9.8458766,8.999999999999999e-08,0.0,0.0,0.0,8.999999999999999e-08,0.0,0.0,0.0,8.999999999999999e-08
1737285435.127462,12619,1737285435,126508864,base_link,0.013151227304596681,-0.0005896612336880632,-0.5761909285081803,-0.8172090989611492,1.0,0.0,0.0,0.0,1.0,0.0,0.0,0.0,1.0,-0.12271683663129807,0.2149566113948822,-0.06930293142795566,1.2184696791468346e-07,0.0,0.0,0.0,1.2184696791468346e-07,0.0,0.0,0.0,1.2184696791468346e-07,-0.20593965,0.2451662500000011,8.97308475,8.999999999999999e-08,0.0,0.0,0.0,8.999999999999999e-08,0.0,0.0,0.0,8.999999999999999e-08
1737285435.226483,12620,1737285435,224504768,base_link,0.011637602756388572,0.0017485270377573876,-0.5744121370415706,-0.8184816465105487,1.0,0.0,0.0,0.0,1.0,0.0,0.0,0.0,1.0,-0.07518262416124344,-0.2894519567489624,-0.13533273339271543,1.2184696791468346e-07,0.0,0.0,0.0,1.2184696791468346e-07,0.0,0.0,0.0,1.2184696791468346e-07,-0.0980665,-0.09806649999999868,10.83634825,8.999999999999999e-08,0.0,0.0,0.0,8.999999999999999e-08,0.0,0.0,0.0,8.999999999999999e-08
1737285435.3274753,12621,1737285435,325500160,base_link,0.012326168542091228,0.0022737321439558647,-0.5710607215995627,-0.8208121270774428,1.0,0.0,0.0,0.0,1.0,0.0,0.0,0.0,1.0,-0.22840966284275055,0.33482277393341064,-0.0679101794958115,1.2184696791468346e-07,0.0,0.0,0.0,1.2184696791468346e-07,0.0,0.0,0.0,1.2184696791468346e-07,-0.0588399,1.0400385073455368e-15,8.4925589,8.999999999999999e-08,0.0,0.0,0.0,8.999999999999999e-08,0.0,0.0,0.0,8.999999999999999e-08
1737285435.4264903,12622,1737285435,425494016,base_link,0.01452491996827717,0.00016149563880100376,-0.5687289041070033,-0.8223967620633734,1.0,0.0,0.0,0.0,1.0,0.0,0.0,0.0,1.0,0.027498383074998856,-0.12377350032329561,-0.16399163007736203,1.2184696791468346e-07,0.0,0.0,0.0,1.2184696791468346e-07,0.0,0.0,0.0,1.2184696791468346e-07,0.32361945000000003,-0.5099457999999988,10.4538889,8.999999999999999e-08,0.0,0.0,0.0,8.999999999999999e-08,0.0,0.0,0.0,8.999999999999999e-08
1737285435.5277429,12623,1737285435,525487104,base_link,0.013159031373426977,-0.002553973495738467,-0.5691449167534978,-0.8221279589250998,1.0,0.0,0.0,0.0,1.0,0.0,0.0,0.0,1.0,-0.0023653660900890827,0.24642795324325564,0.13464576005935666,1.2184696791468346e-07,0.0,0.0,0.0,1.2184696791468346e-07,0.0,0.0,0.0,1.2184696791468346e-07,-0.32361945000000003,0.36284605000000114,9.32612415,8.999999999999999e-08,0.0,0.0,0.0,8.999999999999999e-08,0.0,0.0,0.0,8.999999999999999e-08
1737285435.6263645,12624,1737285435,624479936,base_link,0.010766475005597657,-0.0022456757990084375,-0.5695003978252589,-0.8219174756829494,1.0,0.0,0.0,0.0,1.0,0.0,0.0,0.0,1.0,0.23316144943237305,-0.07848957180976866,0.07023826241493226,1.2184696791468346e-07,0.0,0.0,0.0,1.2184696791468346e-07,0.0,0.0,0.0,1.2184696791468346e-07,-0.2745862,0.019613300000001093,8.93385815,8.999999999999999e-08,0.0,0.0,0.0,8.999999999999999e-08,0.0,0.0,0.0,8.999999999999999e-08
1737285435.7275193,12625,1737285435,726475840,base_link,0.0097393076699636,-0.0014664674713066532,-0.5695596228018148,-0.8218910094611813,1.0,0.0,0.0,0.0,1.0,0.0,0.0,0.0,1.0,-0.010442040860652924,-0.3096391558647156,-0.01708456501364704,1.2184696791468346e-07,0.0,0.0,0.0,1.2184696791468346e-07,0.0,0.0,0.0,1.2184696791468346e-07,-0.16671305,-0.1470997499999988,9.80665,8.999999999999999e-08,0.0,0.0,0.0,8.999999999999999e-08,0.0,0.0,0.0,8.999999999999999e-08
1737285435.826532,12626,1737285435,825470464,base_link,0.013728421419467752,-0.002768103531762482,-0.5686522972509107,-0.8224587727536433,1.0,0.0,0.0,0.0,1.0,0.0,0.0,0.0,1.0,-0.16307948529720306,0.38397249579429626,0.08184085041284557,1.2184696791468346e-07,0.0,0.0,0.0,1.2184696791468346e-07,0.0,0.0,0.0,1.2184696791468346e-07,-0.2353596,-0.09806649999999893,8.7083052,8.999999999999999e-08,0.0,0.0,0.0,8.999999999999999e-08,0.0,0.0,0.0,8.999999999999999e-08
1737285435.928638,12627,1737285435,927464576,base_link,0.011802549651946442,-0.0019612442996161973,-0.5679446383580589,-0.8229797938606053,1.0,0.0,0.0,0.0,1.0,0.0,0.0,0.0,1.0,-0.205868199467659,-0.05677293986082079,-0.16303148865699768,1.2184696791468346e-07,0.0,0.0,0.0,1.2184696791468346e-07,0.0,0.0,0.0,1.2184696791468346e-07,-0.1176798,-0.5687856999999987,10.42446895,8.999999999999999e-08,0.0,0.0,0.0,8.999999999999999e-08,0.0,0.0,0.0,8.999999999999999e-08
1737285436.027442,12628,1737285436,26459968,base_link,0.006447915944892114,-0.0017547997684079005,-0.5693159963405194,-0.8220916258961298,1.0,0.0,0.0,0.0,1.0,0.0,0.0,0.0,1.0,0.009302294813096523,-0.05974576622247696,-0.007242088671773665,1.2184696791468346e-07,0.0,0.0,0.0,1.2184696791468346e-07,0.0,0.0,0.0,1.2184696791468346e-07,-0.06864655,0.34323275000000125,10.05181625,8.999999999999999e-08,0.0,0.0,0.0,8.999999999999999e-08,0.0,0.0,0.0,8.999999999999999e-08
1737285436.1316497,12629,1737285436,129455616,base_link,0.005266079786542744,0.0005840502025067979,-0.5689912749764563,-0.8223264900814696,1.0,0.0,0.0,0.0,1.0,0.0,0.0,0.0,1.0,0.07216416299343109,0.05709744244813917,-0.15344808995723724,1.2184696791468346e-07,0.0,0.0,0.0,1.2184696791468346e-07,0.0,0.0,0.0,1.2184696791468346e-07,-0.04903325,0.18632635000000122,10.091042850000001,8.999999999999999e-08,0.0,0.0,0.0,8.999999999999999e-08,0.0,0.0,0.0,8.999999999999999e-08
1737285436.229575,12630,1737285436,228450496,base_link,0.00503775840546701,0.00047231087510998945,-0.5687430318613172,-0.8224997031135526,1.0,0.0,0.0,0.0,1.0,0.0,0.0,0.0,1.0,0.16287362575531006,-0.23097939789295197,0.04523346200585368,1.2184696791468346e-07,0.0,0.0,0.0,1.2184696791468346e-07,0.0,0.0,0.0,1.2184696791468346e-07,-0.06864655,0.2549729000000013,10.1008495,8.999999999999999e-08,0.0,0.0,0.0,8.999999999999999e-08,0.0,0.0,0.0,8.999999999999999e-08
1737285436.3335714,12631,1737285436,331443840,base_link,0.009310743521263062,0.0011087835801373805,-0.5687159956035668,-0.8224805146620177,1.0,0.0,0.0,0.0,1.0,0.0,0.0,0.0,1.0,-0.15613636374473572,-0.03826861828565598,-0.051400221884250634,1.2184696791468346e-07,0.0,0.0,0.0,1.2184696791468346e-07,0.0,0.0,0.0,1.2184696791468346e-07,-0.2941995,-0.2059396499999988,9.6301303,8.999999999999999e-08,0.0,0.0,0.0,8.999999999999999e-08,0.0,0.0,0.0,8.999999999999999e-08
1737285436.4325287,12632,1737285436,431440768,base_link,0.005675182499417756,0.0019675953106333393,-0.5695377774708488,-0.8219432102681169,1.0,0.0,0.0,0.0,1.0,0.0,0.0,0.0,1.0,0.165647953748703,-0.171952411532402,0.17157503962516787,1.2184696791468346e-07,0.0,0.0,0.0,1.2184696791468346e-07,0.0,0.0,0.0,1.2184696791468346e-07,-0.04903325,-0.029419949999998765,10.091042850000001,8.999999999999999e-08,0.0,0.0,0.0,8.999999999999999e-08,0.0,0.0,0.0,8.999999999999999e-08
1737285436.5315592,12633,1737285436,529436928,base_link,0.007496293390071774,0.002508537815130831,-0.5703308290073728,-0.821377050024654,1.0,0.0,0.0,0.0,1.0,0.0,0.0,0.0,1.0,-0.1580343395471573,0.2649182379245758,0.10862102359533307,1.2184696791468346e-07,0.0,0.0,0.0,1.2184696791468346e-07,0.0,0.0,0.0,1.2184696791468346e-07,0.0392266,-0.09806649999999886,9.26728425,8.999999999999999e-08,0.0,0.0,0.0,8.999999999999999e-08,0.0,0.0,0.0,8.999999999999999e-08
1737285436.6286573,12634,1737285436,627433088,base_link,0.009748493786745466,0.001779913232413155,-0.5702061016075305,-0.8214419032818556,1.0,0.0,0.0,0.0,1.0,0.0,0.0,0.0,1.0,0.18437854945659637,-0.14380770921707156,-0.1318460255861282,1.2184696791468346e-07,0.0,0.0,0.0,1.2184696791468346e-07,0.0,0.0,0.0,1.2184696791468346e-07,-0.0588399,-0.40207264999999875,10.395049,8.999999999999999e-08,0.0,0.0,0.0,8.999999999999999e-08,0.0,0.0,0.0,8.999999999999999e-08
1737285436.7305558,12635,1737285436,728430272,base_link,0.009817298132960532,0.0010139360398455672,-0.5714631023503306,-0.8205684098496671,1.0,0.0,0.0,0.0,1.0,0.0,0.0,0.0,1.0,0.14127841591835022,0.0035090232267975872,0.05386257544159889,1.2184696791468346e-07,0.0,0.0,0.0,1.2184696791468346e-07,0.0,0.0,0.0,1.2184696791468346e-07,-0.28439285000000003,0.27458620000000117,9.7870367,8.999999999999999e-08,0.0,0.0,0.0,8.999999999999999e-08,0.0,0.0,0.0,8.999999999999999e-08
1737285436.8265648,12636,1737285436,824426432,base_link,0.01148455014591929,0.00043740276283489625,-0.5724244315981327,-0.8198769321650192,1.0,0.0,0.0,0.0,1.0,0.0,0.0,0.0,1.0,-0.12133646011352539,0.06220745295286177,-0.08761259168386461,1.2184696791468346e-07,0.0,0.0,0.0,1.2184696791468346e-07,0.0,0.0,0.0,1.2184696791468346e-07,0.2157463,-0.11767979999999865,11.0030613,8.999999999999999e-08,0.0,0.0,0.0,8.999999999999999e-08,0.0,0.0,0.0,8.999999999999999e-08
1737285436.928341,12637,1737285436,925420288,base_link,0.010470083944081486,0.0021545373256194804,-0.5731427916615601,-0.8193857917229891,1.0,0.0,0.0,0.0,1.0,0.0,0.0,0.0,1.0,-0.0319436714053154,-0.08898437023162843,-0.16975314915180206,1.2184696791468346e-07,0.0,0.0,0.0,1.2184696791468346e-07,0.0,0.0,0.0,1.2184696791468346e-07,-0.2745862,0.5785923500000011,8.97308475,8.999999999999999e-08,0.0,0.0,0.0,8.999999999999999e-08,0.0,0.0,0.0,8.999999999999999e-08
1737285437.0256457,12638,1737285437,24416960,base_link,0.007182955177354302,0.00237970549435313,-0.5747705984404903,-0.8182795985022727,1.0,0.0,0.0,0.0,1.0,0.0,0.0,0.0,1.0,0.18589717149734497,-0.2604565918445587,0.05238747596740726,1.2184696791468346e-07,0.0,0.0,0.0,1.2184696791468346e-07,0.0,0.0,0.0,1.2184696791468346e-07,-0.3138128,0.07845320000000122,9.9831697,8.999999999999999e-08,0.0,0.0,0.0,8.999999999999999e-08,0.0,0.0,0.0,8.999999999999999e-08
1737285437.1265721,12639,1737285437,125407744,base_link,0.008355661421979318,0.0007412508118502219,-0.5756915210569765,-0.8176239392609168,1.0,0.0,0.0,0.0,1.0,0.0,0.0,0.0,1.0,0.10652007907629013,0.06258093565702441,0.18718737363815308,1.2184696791468346e-07,0.0,0.0,0.0,1.2184696791468346e-07,0.0,0.0,0.0,1.2184696791468346e-07,0.0,-0.07845319999999892,8.81617835,8.999999999999999e-08,0.0,0.0,0.0,8.999999999999999e-08,0.0,0.0,0.0,8.999999999999999e-08
1737285437.225738,12640,1737285437,224401600,base_link,0.011645455378373252,0.0004252299916214193,-0.5765554644204286,-0.8169749072005998,1.0,0.0,0.0,0.0,1.0,0.0,0.0,0.0,1.0,-0.34145936369895935,0.0785725489258766,-0.08957124501466752,1.2184696791468346e-07,0.0,0.0,0.0,1.2184696791468346e-07,0.0,0.0,0.0,1.2184696791468346e-07,-0.2549729,-0.5589790499999987,10.85596155,8.999999999999999e-08,0.0,0.0,0.0,8.999999999999999e-08,0.0,0.0,0.0,8.999999999999999e-08
1737285437.3277016,12641,1737285437,326398784,base_link,0.012475690469041097,-0.00021793470537191512,-0.5767810427584399,-0.8168034882187216,1.0,0.0,0.0,0.0,1.0,0.0,0.0,0.0,1.0,-0.318203330039978,0.3725520670413971,-0.03549709916114812,1.2184696791468346e-07,0.0,0.0,0.0,1.2184696791468346e-07,0.0,0.0,0.0,1.2184696791468346e-07,0.0980665,-0.11767979999999877,10.1596894,8.999999999999999e-08,0.0,0.0,0.0,8.999999999999999e-08,0.0,0.0,0.0,8.999999999999999e-08
1737285437.4267807,12642,1737285437,425395200,base_link,0.013025748778892392,-0.0008154323800765821,-0.5759816579534238,-0.8173584248296507,1.0,0.0,0.0,0.0,1.0,0.0,0.0,0.0,1.0,0.26038262248039246,-0.43434444069862366,-0.10322321951389307,1.2184696791468346e-07,0.0,0.0,0.0,1.2184696791468346e-07,0.0,0.0,0.0,1.2184696791468346e-07,-0.0980665,-0.07845319999999865,10.95402805,8.999999999999999e-08,0.0,0.0,0.0,8.999999999999999e-08,0.0,0.0,0.0,8.999999999999999e-08
1737285437.5279462,12643,1737285437,524390336,base_link,0.012148363597110119,-0.0017529675142145637,-0.5762819173614504,-0.8171587949040365,1.0,0.0,0.0,0.0,1.0,0.0,0.0,0.0,1.0,-0.1548958122730255,0.3097378611564636,0.16304938495159146,1.2184696791468346e-07,0.0,0.0,0.0,1.2184696791468346e-07,0.0,0.0,0.0,1.2184696791468346e-07,-0.2549729,0.43149260000000106,8.42391235,8.999999999999999e-08,0.0,0.0,0.0,8.999999999999999e-08,0.0,0.0,0.0,8.999999999999999e-08
1737285437.6288273,12644,1737285437,625387008,base_link,0.007981738916041516,-0.0002883905499421191,-0.5737433600913903,-0.8189961937798051,1.0,0.0,0.0,0.0,1.0,0.0,0.0,0.0,1.0,-0.1893070638179779,0.13256846368312836,-0.08854819834232332,1.2184696791468346e-07,0.0,0.0,0.0,1.2184696791468346e-07,0.0,0.0,0.0,1.2184696791468346e-07,-0.16671305,-0.7256920999999987,9.91452315,8.999999999999999e-08,0.0,0.0,0.0,8.999999999999999e-08,0.0,0.0,0.0,8.999999999999999e-08
1737285437.725879,12645,1737285437,724384192,base_link,0.011103075845915808,-0.0016495418368219872,-0.5722014500512331,-0.8200362804643185,1.0,0.0,0.0,0.0,1.0,0.0,0.0,0.0,1.0,-0.13458026945590973,0.19004754722118378,-0.06843509525060656,1.2184696791468346e-07,0.0,0.0,0.0,1.2184696791468346e-07,0.0,0.0,0.0,1.2184696791468346e-07,0.08825985,0.04903325000000121,9.89490985,8.999999999999999e-08,0.0,0.0,0.0,8.999999999999999e-08,0.0,0.0,0.0,8.999999999999999e-08
1737285437.8272626,12646,1737285437,825378304,base_link,0.012530087911788152,-8.838845870382028e-05,-0.5716575765174541,-0.8203966140194597,1.0,0.0,0.0,0.0,1.0,0.0,0.0,0.0,1.0,-0.19195188581943512,-0.008509710431098957,-0.15427160263061523,1.2184696791468346e-07,0.0,0.0,0.0,1.2184696791468346e-07,0.0,0.0,0.0,1.2184696791468346e-07,-0.04903325,-0.2647795499999987,10.8657682,8.999999999999999e-08,0.0,0.0,0.0,8.999999999999999e-08,0.0,0.0,0.0,8.999999999999999e-08
1737285437.9259896,12647,1737285437,924373696,base_link,0.012918987296298942,-0.0014494769680794494,-0.5730950077175601,-0.8193858132241285,1.0,0.0,0.0,0.0,1.0,0.0,0.0,0.0,1.0,0.08652262389659882,-0.1138935312628746,-0.05201724544167517,1.2184696791468346e-07,0.0,0.0,0.0,1.2184696791468346e-07,0.0,0.0,0.0,1.2184696791468346e-07,-0.0980665,-0.06864654999999872,10.395049,8.999999999999999e-08,0.0,0.0,0.0,8.999999999999999e-08,0.0,0.0,0.0,8.999999999999999e-08
1737285438.0267246,12648,1737285438,25367296,base_link,0.01158358993796148,-0.0008788319381214447,-0.5739758259884084,-0.8187898382854406,1.0,0.0,0.0,0.0,1.0,0.0,0.0,0.0,1.0,0.2618550658226013,-0.10375413298606871,0.0884939953684807,1.2184696791468346e-07,0.0,0.0,0.0,1.2184696791468346e-07,0.0,0.0,0.0,1.2184696791468346e-07,-0.06864655,-0.4609125499999987,10.85596155,8.999999999999999e-08,0.0,0.0,0.0,8.999999999999999e-08,0.0,0.0,0.0,8.999999999999999e-08
1737285438.125881,12649,1737285438,124361152,base_link,0.012182629224090595,-0.00021818803370477917,-0.5743841208979182,-0.8184952153797207,1.0,0.0,0.0,0.0,1.0,0.0,0.0,0.0,1.0,-0.22041019797325134,0.09605722129344939,-0.08356155455112459,1.2184696791468346e-07,0.0,0.0,0.0,1.2184696791468346e-07,0.0,0.0,0.0,1.2184696791468346e-07,-0.2353596,-0.11767979999999884,9.52225715,8.999999999999999e-08,0.0,0.0,0.0,8.999999999999999e-08,0.0,0.0,0.0,8.999999999999999e-08
1737285438.226718,12650,1737285438,225354752,base_link,0.010903876558926504,-0.001956508571168855,-0.5743152999038913,-0.8185592305059555,1.0,0.0,0.0,0.0,1.0,0.0,0.0,0.0,1.0,-0.23545220494270325,0.343502402305603,0.0862970724701881,1.2184696791468346e-07,0.0,0.0,0.0,1.2184696791468346e-07,0.0,0.0,0.0,1.2184696791468346e-07,0.20593965,-0.09806649999999882,9.6497436,8.999999999999999e-08,0.0,0.0,0.0,8.999999999999999e-08,0.0,0.0,0.0,8.999999999999999e-08
1737285438.3258502,12651,1737285438,324349888,base_link,0.011167037731809538,-0.0027670390996906023,-0.5745535733546043,-0.8183861143179133,1.0,0.0,0.0,0.0,1.0,0.0,0.0,0.0,1.0,-0.08600679785013199,0.013964202255010588,-0.14863097667694092,1.2184696791468346e-07,0.0,0.0,0.0,1.2184696791468346e-07,0.0,0.0,0.0,1.2184696791468346e-07,-0.0980665,-0.5883989999999987,10.73828175,8.999999999999999e-08,0.0,0.0,0.0,8.999999999999999e-08,0.0,0.0,0.0,8.999999999999999e-08
1737285438.4269073,12652,1737285438,425341952,base_link,0.011192936957486724,-0.0038711054859355623,-0.5740655428508402,-0.8187236928390145,1.0,0.0,0.0,0.0,1.0,0.0,0.0,0.0,1.0,0.1582672894001007,0.085973359644413,0.01138528250157832,1.2184696791468346e-07,0.0,0.0,0.0,1.2184696791468346e-07,0.0,0.0,0.0,1.2184696791468346e-07,0.0,0.04903325000000121,9.85568325,8.999999999999999e-08,0.0,0.0,0.0,8.999999999999999e-08,0.0,0.0,0.0,8.999999999999999e-08
1737285438.5259492,12653,1737285438,524332736,base_link,0.007453292997907099,-0.0014784746206326204,-0.5722398197601739,-0.8200511271970347,1.0,0.0,0.0,0.0,1.0,0.0,0.0,0.0,1.0,0.20383264124393463,-0.34696805477142334,-0.15669900178909296,1.2184696791468346e-07,0.0,0.0,0.0,1.2184696791468346e-07,0.0,0.0,0.0,1.2184696791468346e-07,-0.24516625,-0.1078731499999987,10.60098865,8.999999999999999e-08,0.0,0.0,0.0,8.999999999999999e-08,0.0,0.0,0.0,8.999999999999999e-08
1737285438.6268368,12654,1737285438,625326080,base_link,0.008931682329526241,-0.0028861886967497404,-0.5713936230471033,-0.8206224603961775,1.0,0.0,0.0,0.0,1.0,0.0,0.0,0.0,1.0,0.22767679393291473,-0.04239993914961814,0.04880569130182267,1.2184696791468346e-07,0.0,0.0,0.0,1.2184696791468346e-07,0.0,0.0,0.0,1.2184696791468346e-07,-0.14709975,0.21574630000000106,8.65927195,8.999999999999999e-08,0.0,0.0,0.0,8.999999999999999e-08,0.0,0.0,0.0,8.999999999999999e-08
1737285438.726967,12655,1737285438,725321984,base_link,0.010197605975173999,-0.003679597073005843,-0.5700788554448273,-0.8215184526061912,1.0,0.0,0.0,0.0,1.0,0.0,0.0,0.0,1.0,-0.07751688361167908,0.1240003854036331,-0.08745248615741731,1.2184696791468346e-07,0.0,0.0,0.0,1.2184696791468346e-07,0.0,0.0,0.0,1.2184696791468346e-07,0.10787315,-0.7845319999999988,9.99297635,8.999999999999999e-08,0.0,0.0,0.0,8.999999999999999e-08,0.0,0.0,0.0,8.999999999999999e-08
1737285438.8268487,12656,1737285438,825317120,base_link,0.010332701223050722,-0.004151931000906082,-0.5691884044876627,-0.8221317150865716,1.0,0.0,0.0,0.0,1.0,0.0,0.0,0.0,1.0,-0.168421670794487,0.1759215146303177,0.11327231675386426,1.2184696791468346e-07,0.0,0.0,0.0,1.2184696791468346e-07,0.0,0.0,0.0,1.2184696791468346e-07,-0.0392266,-0.3628460499999987,10.983448,8.999999999999999e-08,0.0,0.0,0.0,8.999999999999999e-08,0.0,0.0,0.0,8.999999999999999e-08
1737285438.9272437,12657,1737285438,925310720,base_link,0.009091279206265929,-0.004660962694121414,-0.5672128829316224,-0.8235078442283081,1.0,0.0,0.0,0.0,1.0,0.0,0.0,0.0,1.0,-0.006961841601878405,0.2795754671096802,-0.01508051529526714,1.2184696791468346e-07,0.0,0.0,0.0,1.2184696791468346e-07,0.0,0.0,0.0,1.2184696791468346e-07,0.00980665,-0.6864654999999987,10.16949605,8.999999999999999e-08,0.0,0.0,0.0,8.999999999999999e-08,0.0,0.0,0.0,8.999999999999999e-08
1737285439.025887,12658,1737285439,24306624,base_link,0.007851403559185044,-0.00397958807431403,-0.5669837403766161,-0.8236819510523776,1.0,0.0,0.0,0.0,1.0,0.0,0.0,0.0,1.0,0.023813048377633095,-0.14220289885997775,-0.1659000366926193,1.2184696791468346e-07,0.0,0.0,0.0,1.2184696791468346e-07,0.0,0.0,0.0,1.2184696791468346e-07,-0.0588399,-0.05883989999999866,10.9638347,8.999999999999999e-08,0.0,0.0,0.0,8.999999999999999e-08,0.0,0.0,0.0,8.999999999999999e-08
1737285439.1282208,12659,1737285439,125306624,base_link,0.008228790649667243,-0.004032654020821116,-0.5674449081829394,-0.8233603712125377,1.0,0.0,0.0,0.0,1.0,0.0,0.0,0.0,1.0,-0.010816704481840134,0.17838862538337708,0.06816227734088895,1.2184696791468346e-07,0.0,0.0,0.0,1.2184696791468346e-07,0.0,0.0,0.0,1.2184696791468346e-07,-0.02941995,0.21574630000000122,9.8851032,8.999999999999999e-08,0.0,0.0,0.0,8.999999999999999e-08,0.0,0.0,0.0,8.999999999999999e-08
1737285439.226008,12660,1737285439,224294848,base_link,0.008274509101511517,-0.002346978919941485,-0.5663688087349911,-0.8241070298700195,1.0,0.0,0.0,0.0,1.0,0.0,0.0,0.0,1.0,0.16384625434875488,-0.25151610374450684,-0.13690027594566342,1.2184696791468346e-07,0.0,0.0,0.0,1.2184696791468346e-07,0.0,0.0,0.0,1.2184696791468346e-07,0.0,-0.33342609999999867,10.7677017,8.999999999999999e-08,0.0,0.0,0.0,8.999999999999999e-08,0.0,0.0,0.0,8.999999999999999e-08
1737285439.3274066,12661,1737285439,325280512,base_link,0.009477305239382658,-0.002535394973642546,-0.5673634050597854,-0.8234090836617562,1.0,0.0,0.0,0.0,1.0,0.0,0.0,0.0,1.0,0.18028174340724945,-0.3587328791618347,-0.11458883434534069,1.2184696791468346e-07,0.0,0.0,0.0,1.2184696791468346e-07,0.0,0.0,0.0,1.2184696791468346e-07,-0.1569064,0.009806650000001142,9.3163175,8.999999999999999e-08,0.0,0.0,0.0,8.999999999999999e-08,0.0,0.0,0.0,8.999999999999999e-08
1737285439.426095,12662,1737285439,424269504,base_link,0.011823736977144205,-0.003561675882871589,-0.5709483756663771,-0.82089309050127,1.0,0.0,0.0,0.0,1.0,0.0,0.0,0.0,1.0,0.0733884945511818,0.028138272464275388,0.2397199273109436,1.2184696791468346e-07,0.0,0.0,0.0,1.2184696791468346e-07,0.0,0.0,0.0,1.2184696791468346e-07,0.2157463,0.07845320000000107,8.6102387,8.999999999999999e-08,0.0,0.0,0.0,8.999999999999999e-08,0.0,0.0,0.0,8.999999999999999e-08
1737285439.5275872,12663,1737285439,525270272,base_link,0.011929650801229194,-0.002571180530059973,-0.5732314591454087,-0.8193026099729381,1.0,0.0,0.0,0.0,1.0,0.0,0.0,0.0,1.0,0.16249866783618927,-0.2996433675289154,0.03790858387947086,1.2184696791468346e-07,0.0,0.0,0.0,1.2184696791468346e-07,0.0,0.0,0.0,1.2184696791468346e-07,-0.0588399,-0.5197524499999988,9.5320638,8.999999999999999e-08,0.0,0.0,0.0,8.999999999999999e-08,0.0,0.0,0.0,8.999999999999999e-08
1737285439.6277065,12664,1737285439,624264896,base_link,0.013540065790592092,-0.0032663747753730837,-0.5765077733717592,-0.8169729399779099,1.0,0.0,0.0,0.0,1.0,0.0,0.0,0.0,1.0,-0.30047962069511414,0.20027399063110354,0.11510512232780454,1.2184696791468346e-07,0.0,0.0,0.0,1.2184696791468346e-07,0.0,0.0,0.0,1.2184696791468346e-07,-0.04903325,-0.6570455499999988,10.69905515,8.999999999999999e-08,0.0,0.0,0.0,8.999999999999999e-08,0.0,0.0,0.0,8.999999999999999e-08
1737285439.7281644,12665,1737285439,726259008,base_link,0.01362151063904622,-0.002939365371187166,-0.5770745308851016,-0.8165725934556369,1.0,0.0,0.0,0.0,1.0,0.0,0.0,0.0,1.0,-0.15088623762130737,0.11187423020601271,-0.15315642952919006,1.2184696791468346e-07,0.0,0.0,0.0,1.2184696791468346e-07,0.0,0.0,0.0,1.2184696791468346e-07,-0.0588399,0.31381280000000117,9.7674234,8.999999999999999e-08,0.0,0.0,0.0,8.999999999999999e-08,0.0,0.0,0.0,8.999999999999999e-08
1737285439.826291,12666,1737285439,824252096,base_link,0.010911398095480487,-0.0029419170239736126,-0.5779096060830543,-0.8160225326011254,1.0,0.0,0.0,0.0,1.0,0.0,0.0,0.0,1.0,0.0207635760307312,-0.10116489976644516,-0.023543776944279657,1.2184696791468346e-07,0.0,0.0,0.0,1.2184696791468346e-07,0.0,0.0,0.0,1.2184696791468346e-07,-0.1765197,0.039226600000001284,10.46369555,8.999999999999999e-08,0.0,0.0,0.0,8.999999999999999e-08,0.0,0.0,0.0,8.999999999999999e-08
1737285439.9272623,12667,1737285439,925246720,base_link,0.013320547517939351,-0.0013999623957175608,-0.5780782695779132,-0.8158713853058694,1.0,0.0,0.0,0.0,1.0,0.0,0.0,0.0,1.0,0.014539424329996109,-0.1860069185495377,-0.17031091451644895,1.2184696791468346e-07,0.0,0.0,0.0,1.2184696791468346e-07,0.0,0.0,0.0,1.2184696791468346e-07,-0.18632635,-0.04903324999999877,10.03220295,8.999999999999999e-08,0.0,0.0,0.0,8.999999999999999e-08,0.0,0.0,0.0,8.999999999999999e-08
1737285440.0261045,12668,1737285440,24242624,base_link,0.010924063289484988,-0.002350820625669519,-0.5783612029360222,-0.8157042708126703,1.0,0.0,0.0,0.0,1.0,0.0,0.0,0.0,1.0,0.28159505128860474,-0.1848255395889282,0.14388114213943484,1.2184696791468346e-07,0.0,0.0,0.0,1.2184696791468346e-07,0.0,0.0,0.0,1.2184696791468346e-07,-0.30400615,0.42168595000000114,9.3555441,8.999999999999999e-08,0.0,0.0,0.0,8.999999999999999e-08,0.0,0.0,0.0,8.999999999999999e-08
1737285440.126268,12669,1737285440,124236736,base_link,0.010366484943683125,-0.0011413777332289368,-0.5776662364803562,-0.8162064398651873,1.0,0.0,0.0,0.0,1.0,0.0,0.0,0.0,1.0,0.04176986590027809,-0.0736636146903038,0.04272598773241044,1.2184696791468346e-07,0.0,0.0,0.0,1.2184696791468346e-07,0.0,0.0,0.0,1.2184696791468346e-07,-0.02941995,-0.4216859499999988,9.50264385,8.999999999999999e-08,0.0,0.0,0.0,8.999999999999999e-08,0.0,0.0,0.0,8.999999999999999e-08
1737285440.2272503,12670,1737285440,225232128,base_link,0.011446066045624181,-0.0006123825025654805,-0.5787237467359237,-0.8154430927561311,1.0,0.0,0.0,0.0,1.0,0.0,0.0,0.0,1.0,0.13600488007068634,-0.09714144468307492,0.18892839550971985,1.2184696791468346e-07,0.0,0.0,0.0,1.2184696791468346e-07,0.0,0.0,0.0,1.2184696791468346e-07,-0.2745862,0.11767980000000111,9.1201845,8.999999999999999e-08,0.0,0.0,0.0,8.999999999999999e-08,0.0,0.0,0.0,8.999999999999999e-08
1737285440.326114,12671,1737285440,324224192,base_link,0.013168130921319418,0.00083152180795431,-0.5780954317788308,-0.8158624765583775,1.0,0.0,0.0,0.0,1.0,0.0,0.0,0.0,1.0,-0.10777799040079117,-0.032587639987468726,-0.07680699229240417,1.2184696791468346e-07,0.0,0.0,0.0,1.2184696791468346e-07,0.0,0.0,0.0,1.2184696791468346e-07,0.0196133,-0.6472388999999988,9.60071035,8.999999999999999e-08,0.0,0.0,0.0,8.999999999999999e-08,0.0,0.0,0.0,8.999999999999999e-08
1737285440.4271653,12672,1737285440,425223168,base_link,0.014547389197019506,-1.850923594655839e-05,-0.577384083996976,-0.8163430606503197,1.0,0.0,0.0,0.0,1.0,0.0,0.0,0.0,1.0,0.053501300513744354,0.05437580123543741,0.08670296519994736,1.2184696791468346e-07,0.0,0.0,0.0,1.2184696791468346e-07,0.0,0.0,0.0,1.2184696791468346e-07,0.0196133,-0.1176797999999989,8.95347145,8.999999999999999e-08,0.0,0.0,0.0,8.999999999999999e-08,0.0,0.0,0.0,8.999999999999999e-08
1737285440.5261803,12673,1737285440,524219840,base_link,0.01594156465425941,-0.0009286126271161497,-0.577105352669041,-0.8165135737485963,1.0,0.0,0.0,0.0,1.0,0.0,0.0,0.0,1.0,-0.29421862959861755,0.19621799886226654,0.07916732877492902,1.2184696791468346e-07,0.0,0.0,0.0,1.2184696791468346e-07,0.0,0.0,0.0,1.2184696791468346e-07,-0.04903325,-0.3236194499999988,9.5320638,8.999999999999999e-08,0.0,0.0,0.0,8.999999999999999e-08,0.0,0.0,0.0,8.999999999999999e-08
1737285440.6273189,12674,1737285440,626213184,base_link,0.017286564387419618,-0.001700841357276612,-0.5771055709053623,-0.8164848081013831,1.0,0.0,0.0,0.0,1.0,0.0,0.0,0.0,1.0,-0.1686069667339325,0.19864465296268466,0.13829888403415677,1.2184696791468346e-07,0.0,0.0,0.0,1.2184696791468346e-07,0.0,0.0,0.0,1.2184696791468346e-07,0.02941995,0.23535960000000122,9.9831697,8.999999999999999e-08,0.0,0.0,0.0,8.999999999999999e-08,0.0,0.0,0.0,8.999999999999999e-08
1737285440.7264743,12675,1737285440,725208064,base_link,0.018527207212794508,-0.0015573298956630427,-0.5778843252098911,-0.8159068721325976,1.0,0.0,0.0,0.0,1.0,0.0,0.0,0.0,1.0,-0.2884630858898163,0.0851336419582367,-0.03980809077620508,1.2184696791468346e-07,0.0,0.0,0.0,1.2184696791468346e-07,0.0,0.0,0.0,1.2184696791468346e-07,-0.0392266,-0.3824593499999988,9.93413645,8.999999999999999e-08,0.0,0.0,0.0,8.999999999999999e-08,0.0,0.0,0.0,8.999999999999999e-08
1737285440.825321,12676,1737285440,824201920,base_link,0.015869765916976645,-0.0012506681956461296,-0.57772506503672,-0.8160761824652907,1.0,0.0,0.0,0.0,1.0,0.0,0.0,0.0,1.0,0.042209114879369736,0.0578681081533432,0.011517602950334542,1.2184696791468346e-07,0.0,0.0,0.0,1.2184696791468346e-07,0.0,0.0,0.0,1.2184696791468346e-07,-0.0196133,-0.13729309999999875,10.03220295,8.999999999999999e-08,0.0,0.0,0.0,8.999999999999999e-08,0.0,0.0,0.0,8.999999999999999e-08
1737285440.9256163,12677,1737285440,924199872,base_link,0.012511725387911315,-0.0005511107848427357,-0.5785595128711871,-0.8155440166361193,1.0,0.0,0.0,0.0,1.0,0.0,0.0,0.0,1.0,-0.13488535583019257,-0.08735773712396623,-0.06429731100797652,1.2184696791468346e-07,0.0,0.0,0.0,1.2184696791468346e-07,0.0,0.0,0.0,1.2184696791468346e-07,-0.1569064,-0.5295590999999987,11.05209455,8.999999999999999e-08,0.0,0.0,0.0,8.999999999999999e-08,0.0,0.0,0.0,8.999999999999999e-08
1737285441.0271869,12678,1737285441,25195776,base_link,0.01373327919969076,-0.0020959396755148504,-0.5804664226664469,-0.8141656687899077,1.0,0.0,0.0,0.0,1.0,0.0,0.0,0.0,1.0,-0.22585704922676086,0.35010138154029846,0.044083569198846775,1.2184696791468346e-07,0.0,0.0,0.0,1.2184696791468346e-07,0.0,0.0,0.0,1.2184696791468346e-07,-0.20593965,0.7158854500000011,8.9436648,8.999999999999999e-08,0.0,0.0,0.0,8.999999999999999e-08,0.0,0.0,0.0,8.999999999999999e-08
1737285441.1263435,12679,1737285441,124189376,base_link,0.01642997777751318,-0.0009478795842929564,-0.582570606445721,-0.8126134664525247,1.0,0.0,0.0,0.0,1.0,0.0,0.0,0.0,1.0,-0.191361665725708,-0.07024561613798143,-0.09252239018678664,1.2184696791468346e-07,0.0,0.0,0.0,1.2184696791468346e-07,0.0,0.0,0.0,1.2184696791468346e-07,0.04903325,-0.4020726499999987,11.01286795,8.999999999999999e-08,0.0,0.0,0.0,8.999999999999999e-08,0.0,0.0,0.0,8.999999999999999e-08
1737285441.2253487,12680,1737285441,224186816,base_link,0.013376498489821633,0.0005906179860206549,-0.5825414924756904,-0.8126906730132578,1.0,0.0,0.0,0.0,1.0,0.0,0.0,0.0,1.0,-0.014215044677257538,0.1300061792135239,0.1321887373924255,1.2184696791468346e-07,0.0,0.0,0.0,1.2184696791468346e-07,0.0,0.0,0.0,1.2184696791468346e-07,-0.3138128,0.28439285000000114,9.24767095,8.999999999999999e-08,0.0,0.0,0.0,8.999999999999999e-08,0.0,0.0,0.0,8.999999999999999e-08
1737285441.3272245,12681,1737285441,325181440,base_link,0.01552787334166209,-0.00020918690506407326,-0.5806374627313318,-0.8140141142899457,1.0,0.0,0.0,0.0,1.0,0.0,0.0,0.0,1.0,-0.3462862968444824,0.16031895577907562,-0.09652460366487504,1.2184696791468346e-07,0.0,0.0,0.0,1.2184696791468346e-07,0.0,0.0,0.0,1.2184696791468346e-07,0.2549729,-0.6864654999999987,9.97336305,8.999999999999999e-08,0.0,0.0,0.0,8.999999999999999e-08,0.0,0.0,0.0,8.999999999999999e-08
1737285441.4265091,12682,1737285441,424176320,base_link,0.0105696683664943,0.0007987931025955429,-0.5774261837899,-0.816374084788361,1.0,0.0,0.0,0.0,1.0,0.0,0.0,0.0,1.0,0.1475340574979782,-0.28369635343551636,-0.22011218965053556,1.2184696791468346e-07,0.0,0.0,0.0,1.2184696791468346e-07,0.0,0.0,0.0,1.2184696791468346e-07,-0.3334261,-0.47071919999999867,10.79712165,8.999999999999999e-08,0.0,0.0,0.0,8.999999999999999e-08,0.0,0.0,0.0,8.999999999999999e-08
1737285441.5256,12683,1737285441,524171712,base_link,0.011749042895994615,-0.0009818692682125295,-0.5769855073134681,-0.8166692845172934,1.0,0.0,0.0,0.0,1.0,0.0,0.0,0.0,1.0,-0.002875083591789007,-0.07490617036819458,0.04897237196564675,1.2184696791468346e-07,0.0,0.0,0.0,1.2184696791468346e-07,0.0,0.0,0.0,1.2184696791468346e-07,-0.28439285000000003,0.26477955000000114,9.3359308,8.999999999999999e-08,0.0,0.0,0.0,8.999999999999999e-08,0.0,0.0,0.0,8.999999999999999e-08
1737285441.6275246,12684,1737285441,625169408,base_link,0.009258572832373056,0.001429576809778846,-0.5748715733269727,-0.8181900203008001,1.0,0.0,0.0,0.0,1.0,0.0,0.0,0.0,1.0,-0.010605882853269577,-0.2988194227218628,-0.09800149500370021,1.2184696791468346e-07,0.0,0.0,0.0,1.2184696791468346e-07,0.0,0.0,0.0,1.2184696791468346e-07,-0.44129925000000003,-0.4707191999999987,9.9635564,8.999999999999999e-08,0.0,0.0,0.0,8.999999999999999e-08,0.0,0.0,0.0,8.999999999999999e-08
