Time,header.seq,header.stamp.secs,header.stamp.nsecs,header.frame_id,status.status,status.service,latitude,longitude,altitude,position_covariance_0,position_covariance_1,position_covariance_2,position_covariance_3,position_covariance_4,position_covariance_5,position_covariance_6,position_covariance_7,position_covariance_8,position_covariance_type
1737286240.2857049,20669,1737286240,60343808,base_link,0,1,33.6371353,72.9912757,492.95618854530886,1.032256,0.0,0.0,0.0,1.032256,0.0,0.0,0.0,1.8769000000000002,2
1737286240.2860181,20670,1737286240,60340992,base_link,0,1,33.6371353,72.9912757,492.95618854530886,1.032256,0.0,0.0,0.0,1.032256,0.0,0.0,0.0,1.8769000000000002,2
1737286240.2915714,20671,1737286240,260335872,base_link,0,1,33.637135,72.9912757,493.20618670639493,1.0404,0.0,0.0,0.0,1.0404,0.0,0.0,0.0,1.885129,2
1737286240.394002,20672,1737286240,260330752,base_link,0,1,33.637135,72.9912757,493.20618670639493,1.0404,0.0,0.0,0.0,1.0404,0.0,0.0,0.0,1.885129,2
1737286240.49397,20673,1737286240,460325632,base_link,0,1,33.6371347,72.9912758,493.44618526466934,1.044484,0.0,0.0,0.0,1.044484,0.0,0.0,0.0,1.890625,2
1737286240.5897553,20674,1737286240,460319744,base_link,0,1,33.6371347,72.9912758,493.44618526466934,1.044484,0.0,0.0,0.0,1.044484,0.0,0.0,0.0,1.890625,2
1737286240.6928048,20675,1737286240,660313856,base_link,0,1,33.6371344,72.991276,493.63618422013184,1.048576,0.0,0.0,0.0,1.048576,0.0,0.0,0.0,1.901641,2
1737286240.792111,20676,1737286240,660308224,base_link,0,1,33.6371344,72.991276,493.63618422013184,1.048576,0.0,0.0,0.0,1.048576,0.0,0.0,0.0,1.901641,2
1737286240.8963463,20677,1737286240,860302336,base_link,0,1,33.6371341,72.9912759,493.7661819840326,1.0547289999999998,0.0,0.0,0.0,1.0547289999999998,0.0,0.0,0.0,1.9099239999999997,2
1737286240.989926,20678,1737286240,860296960,base_link,0,1,33.6371341,72.9912759,493.7661819840326,1.0547289999999998,0.0,0.0,0.0,1.0547289999999998,0.0,0.0,0.0,1.9099239999999997,2
1737286241.0976734,20679,1737286241,60291840,base_link,0,1,33.637134,72.9912758,493.9261809738749,1.056784,0.0,0.0,0.0,1.056784,0.0,0.0,0.0,1.9099239999999997,2
1737286241.195261,20680,1737286241,60286208,base_link,0,1,33.637134,72.9912758,493.9261809738749,1.056784,0.0,0.0,0.0,1.056784,0.0,0.0,0.0,1.9099239999999997,2
1737286241.2968123,20681,1737286241,260280832,base_link,0,1,33.6371338,72.9912759,494.0161801451216,1.058841,0.0,0.0,0.0,1.058841,0.0,0.0,0.0,1.912689,2
1737286241.3929975,20682,1737286241,260275456,base_link,0,1,33.6371338,72.9912759,494.0161801451216,1.058841,0.0,0.0,0.0,1.058841,0.0,0.0,0.0,1.912689,2
1737286241.4974618,20683,1737286241,460270080,base_link,0,1,33.6371337,72.9912758,494.08617913496425,1.058841,0.0,0.0,0.0,1.058841,0.0,0.0,0.0,1.912689,2
1737286241.5959992,20684,1737286241,460265984,base_link,0,1,33.6371337,72.9912758,494.08617913496425,1.058841,0.0,0.0,0.0,1.058841,0.0,0.0,0.0,1.912689,2
1737286241.6909666,20685,1737286241,660259328,base_link,0,1,33.6371338,72.9912756,494.0961789535602,1.058841,0.0,0.0,0.0,1.058841,0.0,0.0,0.0,1.9154559999999998,2
1737286241.7931826,20686,1737286241,660253440,base_link,0,1,33.6371338,72.9912756,494.0961789535602,1.058841,0.0,0.0,0.0,1.058841,0.0,0.0,0.0,1.9154559999999998,2
1737286241.895919,20687,1737286241,860249344,base_link,0,1,33.6371339,72.9912754,494.10617877215606,1.0609,0.0,0.0,0.0,1.0609,0.0,0.0,0.0,1.918225,2
1737286241.9919248,20688,1737286241,860245504,base_link,0,1,33.6371339,72.9912754,494.10617877215606,1.0609,0.0,0.0,0.0,1.0609,0.0,0.0,0.0,1.918225,2
1737286242.0939922,20689,1737286242,60243712,base_link,0,1,33.637134,72.9912751,494.08617819356465,1.0609,0.0,0.0,0.0,1.0609,0.0,0.0,0.0,1.9209959999999997,2
1737286242.192644,20690,1737286242,60239872,base_link,0,1,33.637134,72.9912751,494.08617819356465,1.0609,0.0,0.0,0.0,1.0609,0.0,0.0,0.0,1.9209959999999997,2
1737286242.296229,20691,1737286242,262237056,base_link,0,1,33.6371342,72.9912748,494.0861782279435,1.0609,0.0,0.0,0.0,1.0609,0.0,0.0,0.0,1.9209959999999997,2
1737286242.393317,20692,1737286242,262231936,base_link,0,1,33.6371342,72.9912748,494.0861782279435,1.0609,0.0,0.0,0.0,1.0609,0.0,0.0,0.0,1.9209959999999997,2
1737286242.4975734,20693,1737286242,462229120,base_link,0,1,33.6371345,72.9912745,494.0661788752925,1.0629609999999998,0.0,0.0,0.0,1.0629609999999998,0.0,0.0,0.0,1.923769,2
1737286242.5957975,20694,1737286242,462224000,base_link,0,1,33.6371345,72.9912745,494.0661788752925,1.0629609999999998,0.0,0.0,0.0,1.0629609999999998,0.0,0.0,0.0,1.923769,2
1737286242.700482,20695,1737286242,662220160,base_link,0,1,33.6371348,72.9912743,494.056179919829,1.065024,0.0,0.0,0.0,1.065024,0.0,0.0,0.0,1.9265439999999998,2
1737286242.7928886,20696,1737286242,662215552,base_link,0,1,33.6371348,72.9912743,494.056179919829,1.065024,0.0,0.0,0.0,1.065024,0.0,0.0,0.0,1.9265439999999998,2
1737286242.8921483,20697,1737286242,862209920,base_link,0,1,33.6371351,72.9912741,494.06618096436586,1.0670889999999997,0.0,0.0,0.0,1.0670889999999997,0.0,0.0,0.0,1.929321,2
1737286242.9912965,20698,1737286242,862207104,base_link,0,1,33.6371351,72.9912741,494.06618096436586,1.0670889999999997,0.0,0.0,0.0,1.0670889999999997,0.0,0.0,0.0,1.929321,2
1737286243.095937,20699,1737286243,62199680,base_link,0,1,33.6371354,72.991274,494.0761824060905,1.069156,0.0,0.0,0.0,1.069156,0.0,0.0,0.0,1.9320999999999997,2
1737286243.193761,20700,1737286243,62195840,base_link,0,1,33.6371354,72.991274,494.0761824060905,1.069156,0.0,0.0,0.0,1.069156,0.0,0.0,0.0,1.9320999999999997,2
1737286243.2917635,20701,1737286243,262188160,base_link,0,1,33.6371358,72.991274,494.1061848579745,1.073296,0.0,0.0,0.0,1.073296,0.0,0.0,0.0,1.9320999999999997,2
1737286243.3947864,20702,1737286243,262184320,base_link,0,1,33.6371358,72.991274,494.1061848579745,1.073296,0.0,0.0,0.0,1.073296,0.0,0.0,0.0,1.9320999999999997,2
1737286243.495943,20703,1737286243,462177664,base_link,0,1,33.6371362,72.9912738,494.1161865154843,1.0753689999999998,0.0,0.0,0.0,1.0753689999999998,0.0,0.0,0.0,1.934881,2
1737286243.594474,20704,1737286243,462172800,base_link,0,1,33.6371362,72.9912738,494.1161865154843,1.0753689999999998,0.0,0.0,0.0,1.0753689999999998,0.0,0.0,0.0,1.934881,2
1737286243.6962757,20705,1737286243,662165632,base_link,0,1,33.6371366,72.9912737,494.1261885701827,1.0795209999999997,0.0,0.0,0.0,1.0795209999999997,0.0,0.0,0.0,1.9376639999999998,2
1737286243.7940805,20706,1737286243,662161792,base_link,0,1,33.6371366,72.9912737,494.1261885701827,1.0795209999999997,0.0,0.0,0.0,1.0795209999999997,0.0,0.0,0.0,1.9376639999999998,2
1737286243.898459,20707,1737286243,862154112,base_link,0,1,33.637137,72.9912738,494.16619141925844,1.083681,0.0,0.0,0.0,1.083681,0.0,0.0,0.0,1.9376639999999998,2
1737286243.992417,20708,1737286243,862145152,base_link,0,1,33.637137,72.9912738,494.16619141925844,1.083681,0.0,0.0,0.0,1.083681,0.0,0.0,0.0,1.9376639999999998,2
1737286244.0999827,20709,1737286244,62142336,base_link,0,1,33.6371372,72.9912739,494.196193042391,1.0878489999999998,0.0,0.0,0.0,1.0878489999999998,0.0,0.0,0.0,1.940449,2
1737286244.1924212,20710,1737286244,62142336,base_link,0,1,33.6371372,72.9912739,494.196193042391,1.0878489999999998,0.0,0.0,0.0,1.0878489999999998,0.0,0.0,0.0,1.940449,2
1737286244.2964668,20711,1737286244,262132352,base_link,0,1,33.6371374,72.991274,494.2161946655243,1.0920249999999998,0.0,0.0,0.0,1.0920249999999998,0.0,0.0,0.0,1.940449,2
1737286244.393823,20712,1737286244,262132352,base_link,0,1,33.6371374,72.991274,494.2161946655243,1.0920249999999998,0.0,0.0,0.0,1.0920249999999998,0.0,0.0,0.0,1.940449,2
1737286244.4927673,20713,1737286244,462132352,base_link,0,1,33.6371376,72.9912741,494.23619628865805,1.094116,0.0,0.0,0.0,1.094116,0.0,0.0,0.0,1.940449,2
1737286244.590297,20714,1737286244,462121344,base_link,0,1,33.6371376,72.9912741,494.23619628865805,1.094116,0.0,0.0,0.0,1.094116,0.0,0.0,0.0,1.940449,2
1737286244.6939268,20715,1737286244,662114432,base_link,0,1,33.6371379,72.9912742,494.26619852476534,1.0962089999999998,0.0,0.0,0.0,1.0962089999999998,0.0,0.0,0.0,1.940449,2
1737286244.7910757,20716,1737286244,662103680,base_link,0,1,33.6371379,72.9912742,494.26619852476534,1.0962089999999998,0.0,0.0,0.0,1.0962089999999998,0.0,0.0,0.0,1.940449,2
1737286244.8948836,20717,1737286244,862099584,base_link,0,1,33.6371381,72.9912743,494.29620014790044,1.0983040000000002,0.0,0.0,0.0,1.0983040000000002,0.0,0.0,0.0,1.9432359999999997,2
1737286244.9908724,20718,1737286244,862099584,base_link,0,1,33.6371381,72.9912743,494.29620014790044,1.0983040000000002,0.0,0.0,0.0,1.0983040000000002,0.0,0.0,0.0,1.9432359999999997,2
1737286245.0980613,20719,1737286245,62098304,base_link,0,1,33.6371382,72.9912744,494.3162011580624,1.100401,0.0,0.0,0.0,1.100401,0.0,0.0,0.0,1.9432359999999997,2
1737286245.1909359,20720,1737286245,62094208,base_link,0,1,33.6371382,72.9912744,494.3162011580624,1.100401,0.0,0.0,0.0,1.100401,0.0,0.0,0.0,1.9432359999999997,2
1737286245.2951694,20721,1737286245,262090624,base_link,0,1,33.6371383,72.9912747,494.36620296260253,1.1025,0.0,0.0,0.0,1.1025,0.0,0.0,0.0,1.9432359999999997,2
1737286245.3932688,20722,1737286245,262086784,base_link,0,1,33.6371383,72.9912747,494.36620296260253,1.1025,0.0,0.0,0.0,1.1025,0.0,0.0,0.0,1.9432359999999997,2
1737286245.5000637,20723,1737286245,462083456,base_link,0,1,33.6371383,72.9912749,494.39620375698024,1.104601,0.0,0.0,0.0,1.104601,0.0,0.0,0.0,1.9460250000000001,2
1737286245.5939066,20724,1737286245,462077824,base_link,0,1,33.6371383,72.9912749,494.39620375698024,1.104601,0.0,0.0,0.0,1.104601,0.0,0.0,0.0,1.9460250000000001,2
1737286245.698426,20725,1737286245,662071424,base_link,0,1,33.6371382,72.991275,494.39620354119546,1.1067040000000001,0.0,0.0,0.0,1.1067040000000001,0.0,0.0,0.0,1.9460250000000001,2
1737286245.7947502,20726,1737286245,662067328,base_link,0,1,33.6371382,72.991275,494.39620354119546,1.1067040000000001,0.0,0.0,0.0,1.1067040000000001,0.0,0.0,0.0,1.9460250000000001,2
1737286245.8987188,20727,1737286245,862061952,base_link,0,1,33.637138,72.9912751,494.426202712437,1.1067040000000001,0.0,0.0,0.0,1.1067040000000001,0.0,0.0,0.0,1.9460250000000001,2
1737286245.9976783,20728,1737286245,862057344,base_link,0,1,33.637138,72.9912751,494.426202712437,1.1067040000000001,0.0,0.0,0.0,1.1067040000000001,0.0,0.0,0.0,1.9460250000000001,2
1737286246.1107247,20729,1737286246,62051712,base_link,0,1,33.6371379,72.9912753,494.436202893841,1.108809,0.0,0.0,0.0,1.108809,0.0,0.0,0.0,1.9488159999999997,2
1737286246.2058315,20730,1737286246,62048640,base_link,0,1,33.6371379,72.9912753,494.436202893841,1.108809,0.0,0.0,0.0,1.108809,0.0,0.0,0.0,1.9488159999999997,2
1737286246.302661,20731,1737286246,262040704,base_link,0,1,33.6371379,72.9912754,494.44620329102986,1.108809,0.0,0.0,0.0,1.108809,0.0,0.0,0.0,1.9488159999999997,2
1737286246.3994002,20732,1737286246,262034048,base_link,0,1,33.6371379,72.9912754,494.44620329102986,1.108809,0.0,0.0,0.0,1.108809,0.0,0.0,0.0,1.9488159999999997,2
1737286246.4948974,20733,1737286246,462030720,base_link,0,1,33.6371379,72.9912755,494.45620368821875,1.110916,0.0,0.0,0.0,1.110916,0.0,0.0,0.0,1.9488159999999997,2
1737286246.5919962,20734,1737286246,462023296,base_link,0,1,33.6371379,72.9912755,494.45620368821875,1.110916,0.0,0.0,0.0,1.110916,0.0,0.0,0.0,1.9488159999999997,2
1737286246.6900144,20735,1737286246,662017408,base_link,0,1,33.6371378,72.9912756,494.4562034724339,1.110916,0.0,0.0,0.0,1.110916,0.0,0.0,0.0,1.9460250000000001,2
1737286246.798499,20736,1737286246,662011264,base_link,0,1,33.6371378,72.9912756,494.4562034724339,1.110916,0.0,0.0,0.0,1.110916,0.0,0.0,0.0,1.9460250000000001,2
1737286246.899523,20737,1737286246,862009216,base_link,0,1,33.6371378,72.9912758,494.4962042668118,1.110916,0.0,0.0,0.0,1.110916,0.0,0.0,0.0,1.9460250000000001,2
1737286246.9905655,20738,1737286246,862004096,base_link,0,1,33.6371378,72.9912758,494.4962042668118,1.110916,0.0,0.0,0.0,1.110916,0.0,0.0,0.0,1.9460250000000001,2
1737286247.10684,20739,1737286247,61992576,base_link,0,1,33.6371377,72.9912759,494.53620405102697,1.110916,0.0,0.0,0.0,1.110916,0.0,0.0,0.0,1.9488159999999997,2
1737286247.1915412,20740,1737286247,61993856,base_link,0,1,33.6371377,72.9912759,494.53620405102697,1.110916,0.0,0.0,0.0,1.110916,0.0,0.0,0.0,1.9488159999999997,2
1737286247.2930312,20741,1737286247,261992064,base_link,0,1,33.6371377,72.991276,494.5762044482158,1.110916,0.0,0.0,0.0,1.110916,0.0,0.0,0.0,1.9460250000000001,2
1737286247.392597,20742,1737286247,261992064,base_link,0,1,33.6371377,72.991276,494.5762044482158,1.110916,0.0,0.0,0.0,1.110916,0.0,0.0,0.0,1.9460250000000001,2
1737286247.4946973,20743,1737286247,461986688,base_link,0,1,33.6371378,72.9912762,494.6562058555675,1.108809,0.0,0.0,0.0,1.108809,0.0,0.0,0.0,1.9488159999999997,2
1737286247.593387,20744,1737286247,461984896,base_link,0,1,33.6371378,72.9912762,494.6562058555675,1.108809,0.0,0.0,0.0,1.108809,0.0,0.0,0.0,1.9488159999999997,2
1737286247.6907763,20745,1737286247,661980544,base_link,0,1,33.6371377,72.9912762,494.69620524259363,1.110916,0.0,0.0,0.0,1.110916,0.0,0.0,0.0,1.9488159999999997,2
1737286247.7948952,20746,1737286247,661974912,base_link,0,1,33.6371377,72.9912762,494.69620524259363,1.110916,0.0,0.0,0.0,1.110916,0.0,0.0,0.0,1.9488159999999997,2
1737286247.8989158,20747,1737286247,861968256,base_link,0,1,33.6371375,72.9912763,494.7662044138352,1.110916,0.0,0.0,0.0,1.110916,0.0,0.0,0.0,1.9488159999999997,2
1737286247.9928713,20748,1737286247,861962624,base_link,0,1,33.6371375,72.9912763,494.7662044138352,1.110916,0.0,0.0,0.0,1.110916,0.0,0.0,0.0,1.9488159999999997,2
1737286248.0994582,20749,1737286248,61958528,base_link,0,1,33.6371374,72.9912764,494.8162041980504,1.110916,0.0,0.0,0.0,1.110916,0.0,0.0,0.0,1.9516090000000001,2
1737286248.193465,20750,1737286248,61952128,base_link,0,1,33.6371374,72.9912764,494.8162041980504,1.110916,0.0,0.0,0.0,1.110916,0.0,0.0,0.0,1.9516090000000001,2
1737286248.296842,20751,1737286248,261945984,base_link,0,1,33.6371373,72.9912765,494.8762039822657,1.113025,0.0,0.0,0.0,1.113025,0.0,0.0,0.0,1.957201,2
1737286248.3913562,20752,1737286248,261941376,base_link,0,1,33.6371373,72.9912765,494.8762039822657,1.113025,0.0,0.0,0.0,1.113025,0.0,0.0,0.0,1.957201,2
1737286248.49353,20753,1737286248,261938560,base_link,0,1,33.6371373,72.9912765,494.8762039822657,1.113025,0.0,0.0,0.0,1.113025,0.0,0.0,0.0,1.957201,2
1737286248.594385,20754,1737286248,461933952,base_link,0,1,33.6371371,72.9912765,494.94620275631866,1.1151360000000001,0.0,0.0,0.0,1.1151360000000001,0.0,0.0,0.0,1.9599999999999997,2
1737286248.6984992,20755,1737286248,661929088,base_link,0,1,33.637137,72.9912765,494.9862021433454,1.117249,0.0,0.0,0.0,1.117249,0.0,0.0,0.0,1.962801,2
1737286248.7943778,20756,1737286248,661923200,base_link,0,1,33.637137,72.9912765,494.9862021433454,1.117249,0.0,0.0,0.0,1.117249,0.0,0.0,0.0,1.962801,2
1737286248.8981104,20757,1737286248,861920896,base_link,0,1,33.6371369,72.9912765,495.06620153037204,1.117249,0.0,0.0,0.0,1.117249,0.0,0.0,0.0,1.962801,2
1737286248.9911697,20758,1737286248,861916800,base_link,0,1,33.6371369,72.9912765,495.06620153037204,1.117249,0.0,0.0,0.0,1.117249,0.0,0.0,0.0,1.962801,2
1737286249.0980375,20759,1737286249,61910400,base_link,0,1,33.6371368,72.9912765,495.11620091739894,1.117249,0.0,0.0,0.0,1.117249,0.0,0.0,0.0,1.9656039999999997,2
1737286249.1962442,20760,1737286249,61905280,base_link,0,1,33.6371368,72.9912765,495.11620091739894,1.117249,0.0,0.0,0.0,1.117249,0.0,0.0,0.0,1.9656039999999997,2
1737286249.2979186,20761,1737286249,261900160,base_link,0,1,33.6371368,72.9912765,495.1862009173989,1.119364,0.0,0.0,0.0,1.119364,0.0,0.0,0.0,1.968409,2
1737286249.3927102,20762,1737286249,261894272,base_link,0,1,33.6371368,72.9912765,495.1862009173989,1.119364,0.0,0.0,0.0,1.119364,0.0,0.0,0.0,1.968409,2
1737286249.4949663,20763,1737286249,461888896,base_link,0,1,33.6371367,72.9912766,495.2662007016145,1.119364,0.0,0.0,0.0,1.119364,0.0,0.0,0.0,1.968409,2
1737286249.5936096,20764,1737286249,461883264,base_link,0,1,33.6371367,72.9912766,495.2662007016145,1.119364,0.0,0.0,0.0,1.119364,0.0,0.0,0.0,1.968409,2
1737286249.693076,20765,1737286249,661878912,base_link,0,1,33.6371366,72.9912766,495.3162000886414,1.119364,0.0,0.0,0.0,1.119364,0.0,0.0,0.0,1.968409,2
1737286249.794791,20766,1737286249,661872512,base_link,0,1,33.6371366,72.9912766,495.3162000886414,1.119364,0.0,0.0,0.0,1.119364,0.0,0.0,0.0,1.968409,2
1737286249.8993857,20767,1737286249,861869440,base_link,0,1,33.6371365,72.9912767,495.4061998728569,1.119364,0.0,0.0,0.0,1.119364,0.0,0.0,0.0,1.9656039999999997,2
1737286249.9930031,20768,1737286249,861878144,base_link,0,1,33.6371365,72.9912767,495.4061998728569,1.119364,0.0,0.0,0.0,1.119364,0.0,0.0,0.0,1.9656039999999997,2
1737286250.095002,20769,1737286250,61867392,base_link,0,1,33.6371365,72.9912769,495.45620066723404,1.119364,0.0,0.0,0.0,1.119364,0.0,0.0,0.0,1.968409,2
1737286250.1960235,20770,1737286250,61857408,base_link,0,1,33.6371365,72.9912769,495.45620066723404,1.119364,0.0,0.0,0.0,1.119364,0.0,0.0,0.0,1.968409,2
1737286250.298469,20771,1737286250,61850496,base_link,0,1,33.6371365,72.9912769,495.45620066723404,1.119364,0.0,0.0,0.0,1.119364,0.0,0.0,0.0,1.968409,2
1737286250.3928418,20772,1737286250,261841536,base_link,0,1,33.6371364,72.991277,495.5262004514497,1.119364,0.0,0.0,0.0,1.119364,0.0,0.0,0.0,1.968409,2
1737286250.5023308,20773,1737286250,461836928,base_link,0,1,33.6371364,72.9912769,495.5862000542611,1.121481,0.0,0.0,0.0,1.121481,0.0,0.0,0.0,1.9712159999999999,2
1737286250.5927892,20774,1737286250,461833856,base_link,0,1,33.6371364,72.9912769,495.5862000542611,1.121481,0.0,0.0,0.0,1.121481,0.0,0.0,0.0,1.9712159999999999,2
1737286250.6949065,20775,1737286250,661833856,base_link,0,1,33.6371364,72.9912769,495.6262000542612,1.121481,0.0,0.0,0.0,1.121481,0.0,0.0,0.0,1.9740250000000001,2
1737286250.793746,20776,1737286250,661833344,base_link,0,1,33.6371364,72.9912769,495.6262000542612,1.121481,0.0,0.0,0.0,1.121481,0.0,0.0,0.0,1.9740250000000001,2
1737286250.8988435,20777,1737286250,861828992,base_link,0,1,33.6371364,72.9912769,495.63620005426117,1.121481,0.0,0.0,0.0,1.121481,0.0,0.0,0.0,1.9740250000000001,2
1737286250.9918857,20778,1737286250,861827456,base_link,0,1,33.6371364,72.9912769,495.63620005426117,1.121481,0.0,0.0,0.0,1.121481,0.0,0.0,0.0,1.9740250000000001,2
1737286251.1022186,20779,1737286251,61818752,base_link,0,1,33.6371364,72.9912768,495.6461996570726,1.121481,0.0,0.0,0.0,1.121481,0.0,0.0,0.0,1.9768359999999998,2
1737286251.1927874,20780,1737286251,61812096,base_link,0,1,33.6371364,72.9912768,495.6461996570726,1.121481,0.0,0.0,0.0,1.121481,0.0,0.0,0.0,1.9768359999999998,2
1737286251.3021238,20781,1737286251,261807488,base_link,0,1,33.6371365,72.9912768,495.6762002700455,1.121481,0.0,0.0,0.0,1.121481,0.0,0.0,0.0,1.9768359999999998,2
1737286251.3943157,20782,1737286251,261801088,base_link,0,1,33.6371365,72.9912768,495.6762002700455,1.121481,0.0,0.0,0.0,1.121481,0.0,0.0,0.0,1.9768359999999998,2
1737286251.495389,20783,1737286251,461796480,base_link,0,1,33.6371365,72.9912769,495.69620066723405,1.121481,0.0,0.0,0.0,1.121481,0.0,0.0,0.0,1.979649,2
1737286251.5954943,20784,1737286251,461793664,base_link,0,1,33.6371365,72.9912769,495.69620066723405,1.121481,0.0,0.0,0.0,1.121481,0.0,0.0,0.0,1.979649,2
1737286251.7008526,20785,1737286251,661787264,base_link,0,1,33.6371366,72.991277,495.7062016773958,1.121481,0.0,0.0,0.0,1.121481,0.0,0.0,0.0,1.979649,2
1737286251.7982066,20786,1737286251,661780864,base_link,0,1,33.6371366,72.991277,495.7062016773958,1.121481,0.0,0.0,0.0,1.121481,0.0,0.0,0.0,1.979649,2
1737286251.9063647,20787,1737286251,861777536,base_link,0,1,33.6371367,72.9912771,495.73620268755786,1.119364,0.0,0.0,0.0,1.119364,0.0,0.0,0.0,1.979649,2
1737286252.0011737,20788,1737286251,861774976,base_link,0,1,33.6371367,72.9912771,495.73620268755786,1.119364,0.0,0.0,0.0,1.119364,0.0,0.0,0.0,1.979649,2
1737286252.0953796,20789,1737286252,61766784,base_link,0,1,33.6371367,72.9912771,495.7162026875579,1.119364,0.0,0.0,0.0,1.119364,0.0,0.0,0.0,1.9824639999999998,2
1737286252.1894083,20790,1737286252,61761664,base_link,0,1,33.6371367,72.9912771,495.7162026875579,1.119364,0.0,0.0,0.0,1.119364,0.0,0.0,0.0,1.9824639999999998,2
1737286252.302871,20791,1737286252,261757568,base_link,0,1,33.6371367,72.9912772,495.71620308474655,1.119364,0.0,0.0,0.0,1.119364,0.0,0.0,0.0,1.985281,2
1737286252.393243,20792,1737286252,261755264,base_link,0,1,33.6371367,72.9912772,495.71620308474655,1.119364,0.0,0.0,0.0,1.119364,0.0,0.0,0.0,1.985281,2
1737286252.492123,20793,1737286252,461749376,base_link,0,1,33.6371367,72.9912773,495.72620348193533,1.119364,0.0,0.0,0.0,1.119364,0.0,0.0,0.0,1.985281,2
1737286252.5902846,20794,1737286252,461745024,base_link,0,1,33.6371367,72.9912773,495.72620348193533,1.119364,0.0,0.0,0.0,1.119364,0.0,0.0,0.0,1.985281,2
1737286252.6919796,20795,1737286252,661738880,base_link,0,1,33.6371367,72.9912772,495.72620308474654,1.119364,0.0,0.0,0.0,1.119364,0.0,0.0,0.0,1.9880999999999998,2
1737286252.7912948,20796,1737286252,661741184,base_link,0,1,33.6371367,72.9912772,495.72620308474654,1.119364,0.0,0.0,0.0,1.119364,0.0,0.0,0.0,1.9880999999999998,2
1737286252.9008179,20797,1737286252,861740160,base_link,0,1,33.6371367,72.9912771,495.7062026875578,1.119364,0.0,0.0,0.0,1.119364,0.0,0.0,0.0,1.9880999999999998,2
1737286252.9908352,20798,1737286252,861734272,base_link,0,1,33.6371367,72.9912771,495.7062026875578,1.119364,0.0,0.0,0.0,1.119364,0.0,0.0,0.0,1.9880999999999998,2
1737286253.0987527,20799,1737286253,61727872,base_link,0,1,33.6371366,72.9912771,495.6862020745845,1.119364,0.0,0.0,0.0,1.119364,0.0,0.0,0.0,1.9880999999999998,2
1737286253.192673,20800,1737286253,61719168,base_link,0,1,33.6371366,72.9912771,495.6862020745845,1.119364,0.0,0.0,0.0,1.119364,0.0,0.0,0.0,1.9880999999999998,2
1737286253.297989,20801,1737286253,261714048,base_link,0,1,33.6371366,72.9912771,495.6862020745845,1.119364,0.0,0.0,0.0,1.119364,0.0,0.0,0.0,1.9880999999999998,2
1737286253.3929868,20802,1737286253,261707392,base_link,0,1,33.6371366,72.9912771,495.6862020745845,1.119364,0.0,0.0,0.0,1.119364,0.0,0.0,0.0,1.9880999999999998,2
1737286253.5023134,20803,1737286253,461702272,base_link,0,1,33.6371367,72.991277,495.686202290369,1.119364,0.0,0.0,0.0,1.119364,0.0,0.0,0.0,1.9909210000000002,2
1737286253.5912082,20804,1737286253,461700224,base_link,0,1,33.6371367,72.991277,495.686202290369,1.119364,0.0,0.0,0.0,1.119364,0.0,0.0,0.0,1.9909210000000002,2
1737286253.6926,20805,1737286253,661695872,base_link,0,1,33.6371367,72.9912769,495.66620189318036,1.117249,0.0,0.0,0.0,1.117249,0.0,0.0,0.0,1.9909210000000002,2
1737286253.7938187,20806,1737286253,661693056,base_link,0,1,33.6371367,72.9912769,495.66620189318036,1.117249,0.0,0.0,0.0,1.117249,0.0,0.0,0.0,1.9909210000000002,2
1737286253.893284,20807,1737286253,861687168,base_link,0,1,33.6371368,72.9912769,495.66620250615364,1.117249,0.0,0.0,0.0,1.117249,0.0,0.0,0.0,1.9909210000000002,2
1737286253.9903984,20808,1737286253,861683072,base_link,0,1,33.6371368,72.9912769,495.66620250615364,1.117249,0.0,0.0,0.0,1.117249,0.0,0.0,0.0,1.9909210000000002,2
1737286254.0989761,20809,1737286254,61680768,base_link,0,1,33.637137,72.9912769,495.65620373210044,1.1151360000000001,0.0,0.0,0.0,1.1151360000000001,0.0,0.0,0.0,1.9909210000000002,2
1737286254.1942725,20810,1737286254,61675648,base_link,0,1,33.637137,72.9912769,495.65620373210044,1.1151360000000001,0.0,0.0,0.0,1.1151360000000001,0.0,0.0,0.0,1.9909210000000002,2
1737286254.2980995,20811,1737286254,261668480,base_link,0,1,33.6371375,72.9912767,495.63620600259094,1.1151360000000001,0.0,0.0,0.0,1.1151360000000001,0.0,0.0,0.0,1.9937439999999997,2
1737286254.3920863,20812,1737286254,261665408,base_link,0,1,33.6371375,72.9912767,495.63620600259094,1.1151360000000001,0.0,0.0,0.0,1.1151360000000001,0.0,0.0,0.0,1.9937439999999997,2
1737286254.5024407,20813,1737286254,461661312,base_link,0,1,33.637138,72.9912766,495.6162086702721,1.113025,0.0,0.0,0.0,1.113025,0.0,0.0,0.0,1.9937439999999997,2
1737286254.5933695,20814,1737286254,461656448,base_link,0,1,33.637138,72.9912766,495.6162086702721,1.113025,0.0,0.0,0.0,1.113025,0.0,0.0,0.0,1.9937439999999997,2
1737286254.6893847,20815,1737286254,461652096,base_link,0,1,33.637138,72.9912766,495.6162086702721,1.113025,0.0,0.0,0.0,1.113025,0.0,0.0,0.0,1.9937439999999997,2
1737286254.7910304,20816,1737286254,661649792,base_link,0,1,33.6371387,72.9912767,495.5962133582834,1.110916,0.0,0.0,0.0,1.110916,0.0,0.0,0.0,1.9909210000000002,2
1737286254.8964252,20817,1737286254,861647744,base_link,0,1,33.6371396,72.9912769,495.59621966944104,1.108809,0.0,0.0,0.0,1.108809,0.0,0.0,0.0,1.9909210000000002,2
1737286254.9920769,20818,1737286254,861643904,base_link,0,1,33.6371396,72.9912769,495.59621966944104,1.108809,0.0,0.0,0.0,1.108809,0.0,0.0,0.0,1.9909210000000002,2
1737286255.0994847,20819,1737286255,61639296,base_link,0,1,33.6371408,72.991277,495.5962274223474,1.108809,0.0,0.0,0.0,1.108809,0.0,0.0,0.0,1.9937439999999997,2
1737286255.1914456,20820,1737286255,61635456,base_link,0,1,33.6371408,72.991277,495.5962274223474,1.108809,0.0,0.0,0.0,1.108809,0.0,0.0,0.0,1.9937439999999997,2
1737286255.2955444,20821,1737286255,261630336,base_link,0,1,33.637142,72.9912771,495.5862351752677,1.108809,0.0,0.0,0.0,1.108809,0.0,0.0,0.0,1.9937439999999997,2
1737286255.3930802,20822,1737286255,261631104,base_link,0,1,33.637142,72.9912771,495.5862351752677,1.108809,0.0,0.0,0.0,1.108809,0.0,0.0,0.0,1.9937439999999997,2
1737286255.495578,20823,1737286255,461621632,base_link,0,1,33.6371433,72.9912774,495.6062443355644,1.108809,0.0,0.0,0.0,1.108809,0.0,0.0,0.0,1.996569,2
1737286255.5906346,20824,1737286255,461607552,base_link,0,1,33.6371433,72.9912774,495.6062443355644,1.108809,0.0,0.0,0.0,1.108809,0.0,0.0,0.0,1.996569,2
1737286255.693528,20825,1737286255,661607552,base_link,0,1,33.6371446,72.9912777,495.6062534958796,1.1067040000000001,0.0,0.0,0.0,1.1067040000000001,0.0,0.0,0.0,1.996569,2
1737286255.7932138,20826,1737286255,661620096,base_link,0,1,33.6371446,72.9912777,495.6062534958796,1.1067040000000001,0.0,0.0,0.0,1.1067040000000001,0.0,0.0,0.0,1.996569,2
1737286255.8956552,20827,1737286255,661610880,base_link,0,1,33.6371446,72.9912777,495.6062534958796,1.1067040000000001,0.0,0.0,0.0,1.1067040000000001,0.0,0.0,0.0,1.996569,2
1737286255.9947016,20828,1737286255,861603712,base_link,0,1,33.6371459,72.9912779,495.6162622590207,1.1067040000000001,0.0,0.0,0.0,1.1067040000000001,0.0,0.0,0.0,1.996569,2
1737286256.0935633,20829,1737286256,61597312,base_link,0,1,33.6371471,72.9912781,495.576270409196,1.104601,0.0,0.0,0.0,1.104601,0.0,0.0,0.0,1.996569,2
1737286256.1926017,20830,1737286256,61591680,base_link,0,1,33.6371471,72.9912781,495.576270409196,1.104601,0.0,0.0,0.0,1.104601,0.0,0.0,0.0,1.996569,2
1737286256.2947123,20831,1737286256,261587584,base_link,0,1,33.6371482,72.9912783,495.5862779464022,1.104601,0.0,0.0,0.0,1.104601,0.0,0.0,0.0,1.9993959999999997,2
1737286256.3909094,20832,1737286256,261584256,base_link,0,1,33.6371482,72.9912783,495.5862779464022,1.104601,0.0,0.0,0.0,1.104601,0.0,0.0,0.0,1.9993959999999997,2
1737286256.4987504,20833,1737286256,461579648,base_link,0,1,33.6371492,72.9912783,495.5762840762473,1.1025,0.0,0.0,0.0,1.1025,0.0,0.0,0.0,1.9993959999999997,2
1737286256.589815,20834,1737286256,461578112,base_link,0,1,33.6371492,72.9912783,495.5762840762473,1.1025,0.0,0.0,0.0,1.1025,0.0,0.0,0.0,1.9993959999999997,2
1737286256.6937559,20835,1737286256,661574272,base_link,0,1,33.6371503,72.9912783,495.56629081908716,1.1025,0.0,0.0,0.0,1.1025,0.0,0.0,0.0,2.002225,2
1737286256.7976685,20836,1737286256,661571968,base_link,0,1,33.6371503,72.9912783,495.56629081908716,1.1025,0.0,0.0,0.0,1.1025,0.0,0.0,0.0,2.002225,2
1737286256.9036613,20837,1737286256,861564800,base_link,0,1,33.6371514,72.9912782,495.5662971647423,1.1025,0.0,0.0,0.0,1.1025,0.0,0.0,0.0,2.0050559999999997,2
1737286256.9984598,20838,1737286256,861560960,base_link,0,1,33.6371514,72.9912782,495.5662971647423,1.1025,0.0,0.0,0.0,1.1025,0.0,0.0,0.0,2.0050559999999997,2
1737286257.096709,20839,1737286257,61553536,base_link,0,1,33.6371526,72.9912783,495.586304917787,1.1025,0.0,0.0,0.0,1.1025,0.0,0.0,0.0,2.007889,2
1737286257.196736,20840,1737286257,61546624,base_link,0,1,33.6371526,72.9912783,495.586304917787,1.1025,0.0,0.0,0.0,1.1025,0.0,0.0,0.0,2.007889,2
1737286257.3015864,20841,1737286257,261541248,base_link,0,1,33.637154,72.9912784,495.5663138968239,1.100401,0.0,0.0,0.0,1.100401,0.0,0.0,0.0,2.007889,2
1737286257.3977618,20842,1737286257,261535616,base_link,0,1,33.637154,72.9912784,495.5663138968239,1.100401,0.0,0.0,0.0,1.100401,0.0,0.0,0.0,2.007889,2
1737286257.5016923,20843,1737286257,461532544,base_link,0,1,33.6371559,72.9912786,495.5863263380308,1.100401,0.0,0.0,0.0,1.100401,0.0,0.0,0.0,2.0107239999999997,2
1737286257.5925994,20844,1737286257,461531776,base_link,0,1,33.6371559,72.9912786,495.5863263380308,1.100401,0.0,0.0,0.0,1.100401,0.0,0.0,0.0,2.0107239999999997,2
1737286257.7028446,20845,1737286257,661525120,base_link,0,1,33.637158,72.991279,495.57634079965584,1.100401,0.0,0.0,0.0,1.100401,0.0,0.0,0.0,2.0107239999999997,2
1737286257.7938652,20846,1737286257,661522048,base_link,0,1,33.637158,72.991279,495.57634079965584,1.100401,0.0,0.0,0.0,1.100401,0.0,0.0,0.0,2.0107239999999997,2
1737286257.900664,20847,1737286257,861518720,base_link,0,1,33.6371603,72.9912794,495.53635648731824,1.100401,0.0,0.0,0.0,1.100401,0.0,0.0,0.0,2.0107239999999997,2
1737286257.9909372,20848,1737286257,861513344,base_link,0,1,33.6371603,72.9912794,495.53635648731824,1.100401,0.0,0.0,0.0,1.100401,0.0,0.0,0.0,2.0107239999999997,2
1737286258.0939782,20849,1737286258,61504640,base_link,0,1,33.6371629,72.9912798,495.51637401402917,1.0983040000000002,0.0,0.0,0.0,1.0983040000000002,0.0,0.0,0.0,2.013561,2
1737286258.1930661,20850,1737286258,61496960,base_link,0,1,33.6371629,72.9912798,495.51637401402917,1.0983040000000002,0.0,0.0,0.0,1.0983040000000002,0.0,0.0,0.0,2.013561,2
1737286258.296216,20851,1737286258,261490304,base_link,0,1,33.6371659,72.9912802,495.4663939928115,1.0983040000000002,0.0,0.0,0.0,1.0983040000000002,0.0,0.0,0.0,2.013561,2
1737286258.389096,20852,1737286258,261488512,base_link,0,1,33.6371659,72.9912802,495.4663939928115,1.0983040000000002,0.0,0.0,0.0,1.0983040000000002,0.0,0.0,0.0,2.013561,2
1737286258.4960105,20853,1737286258,461483648,base_link,0,1,33.6371692,72.9912807,495.45641620789917,1.0983040000000002,0.0,0.0,0.0,1.0983040000000002,0.0,0.0,0.0,2.0164,2
1737286258.5903404,20854,1737286258,461477760,base_link,0,1,33.6371692,72.9912807,495.45641620789917,1.0983040000000002,0.0,0.0,0.0,1.0983040000000002,0.0,0.0,0.0,2.0164,2
1737286258.6958318,20855,1737286258,661472896,base_link,0,1,33.6371728,72.9912812,495.45644026211994,1.0983040000000002,0.0,0.0,0.0,1.0983040000000002,0.0,0.0,0.0,2.0164,2
1737286258.7932215,20856,1737286258,661464960,base_link,0,1,33.6371728,72.9912812,495.45644026211994,1.0983040000000002,0.0,0.0,0.0,1.0983040000000002,0.0,0.0,0.0,2.0164,2
1737286258.894031,20857,1737286258,861458560,base_link,0,1,33.6371767,72.9912818,495.4164665527118,1.0962089999999998,0.0,0.0,0.0,1.0962089999999998,0.0,0.0,0.0,2.0164,2
1737286258.99087,20858,1737286258,861456000,base_link,0,1,33.6371767,72.9912818,495.4164665527118,1.0962089999999998,0.0,0.0,0.0,1.0962089999999998,0.0,0.0,0.0,2.0164,2
1737286259.0980406,20859,1737286259,61449088,base_link,0,1,33.6371807,72.9912823,495.36649305926596,1.0962089999999998,0.0,0.0,0.0,1.0962089999999998,0.0,0.0,0.0,2.0164,2
1737286259.1920419,20860,1737286259,61442944,base_link,0,1,33.6371807,72.9912823,495.36649305926596,1.0962089999999998,0.0,0.0,0.0,1.0962089999999998,0.0,0.0,0.0,2.0164,2
1737286259.291574,20861,1737286259,61436544,base_link,0,1,33.6371807,72.9912823,495.36649305926596,1.0962089999999998,0.0,0.0,0.0,1.0962089999999998,0.0,0.0,0.0,2.0164,2
1737286259.3907154,20862,1737286259,261432448,base_link,0,1,33.6371847,72.9912828,495.33651956598027,1.0962089999999998,0.0,0.0,0.0,1.0962089999999998,0.0,0.0,0.0,2.0164,2
1737286259.4959686,20863,1737286259,461425536,base_link,0,1,33.6371888,72.9912831,495.3365458914519,1.0962089999999998,0.0,0.0,0.0,1.0962089999999998,0.0,0.0,0.0,2.019241,2
1737286259.5923886,20864,1737286259,461420416,base_link,0,1,33.6371888,72.9912831,495.3365458914519,1.0962089999999998,0.0,0.0,0.0,1.0962089999999998,0.0,0.0,0.0,2.019241,2
1737286259.6997273,20865,1737286259,661412992,base_link,0,1,33.6371926,72.9912831,495.2865691863629,1.0962089999999998,0.0,0.0,0.0,1.0962089999999998,0.0,0.0,0.0,2.019241,2
1737286259.795397,20866,1737286259,661406336,base_link,0,1,33.6371926,72.9912831,495.2865691863629,1.0962089999999998,0.0,0.0,0.0,1.0962089999999998,0.0,0.0,0.0,2.019241,2
1737286259.8967543,20867,1737286259,861402752,base_link,0,1,33.6371959,72.9912829,495.2365886218266,1.094116,0.0,0.0,0.0,1.094116,0.0,0.0,0.0,2.019241,2
1737286259.9914677,20868,1737286259,861398656,base_link,0,1,33.6371959,72.9912829,495.2365886218266,1.094116,0.0,0.0,0.0,1.094116,0.0,0.0,0.0,2.019241,2
1737286260.0952961,20869,1737286260,61396096,base_link,0,1,33.6371987,72.9912824,495.166603800575,1.0920249999999998,0.0,0.0,0.0,1.0920249999999998,0.0,0.0,0.0,2.022084,2
1737286260.1903284,20870,1737286260,61391744,base_link,0,1,33.6371987,72.9912824,495.166603800575,1.0920249999999998,0.0,0.0,0.0,1.0920249999999998,0.0,0.0,0.0,2.022084,2
1737286260.2937477,20871,1737286260,261386880,base_link,0,1,33.6372012,72.9912817,495.11661634584715,1.0920249999999998,0.0,0.0,0.0,1.0920249999999998,0.0,0.0,0.0,2.022084,2
1737286260.3940983,20872,1737286260,261383552,base_link,0,1,33.6372012,72.9912817,495.11661634584715,1.0920249999999998,0.0,0.0,0.0,1.0920249999999998,0.0,0.0,0.0,2.022084,2
1737286260.4931898,20873,1737286260,261379456,base_link,0,1,33.6372012,72.9912817,495.11661634584715,1.0920249999999998,0.0,0.0,0.0,1.0920249999999998,0.0,0.0,0.0,2.022084,2
1737286260.5906577,20874,1737286260,461373568,base_link,0,1,33.6372034,72.9912808,495.07662625762,1.0920249999999998,0.0,0.0,0.0,1.0920249999999998,0.0,0.0,0.0,2.024929,2
1737286260.7004511,20875,1737286260,661369472,base_link,0,1,33.6372055,72.9912799,495.026635556385,1.0920249999999998,0.0,0.0,0.0,1.0920249999999998,0.0,0.0,0.0,2.024929,2
1737286260.7932558,20876,1737286260,661370752,base_link,0,1,33.6372055,72.9912799,495.026635556385,1.0920249999999998,0.0,0.0,0.0,1.0920249999999998,0.0,0.0,0.0,2.024929,2
1737286260.8955956,20877,1737286260,861370752,base_link,0,1,33.6372073,72.9912793,494.97664420772304,1.089936,0.0,0.0,0.0,1.089936,0.0,0.0,0.0,2.024929,2
1737286260.992355,20878,1737286260,861356928,base_link,0,1,33.6372073,72.9912793,494.97664420772304,1.089936,0.0,0.0,0.0,1.089936,0.0,0.0,0.0,2.024929,2
1737286261.0913696,20879,1737286261,61366400,base_link,0,1,33.637209,72.9912786,494.93665184882235,1.089936,0.0,0.0,0.0,1.089936,0.0,0.0,0.0,2.027776,2
1737286261.1919467,20880,1737286261,61358720,base_link,0,1,33.637209,72.9912786,494.93665184882235,1.089936,0.0,0.0,0.0,1.089936,0.0,0.0,0.0,2.027776,2
1737286261.2963188,20881,1737286261,261346432,base_link,0,1,33.6372106,72.991278,494.9266592741198,1.089936,0.0,0.0,0.0,1.089936,0.0,0.0,0.0,2.030625,2
1737286261.39094,20882,1737286261,261340288,base_link,0,1,33.6372106,72.991278,494.9266592741198,1.089936,0.0,0.0,0.0,1.089936,0.0,0.0,0.0,2.030625,2
1737286261.4980893,20883,1737286261,461334656,base_link,0,1,33.6372122,72.9912776,494.9166674938759,1.0878489999999998,0.0,0.0,0.0,1.0878489999999998,0.0,0.0,0.0,2.030625,2
1737286261.592423,20884,1737286261,461326464,base_link,0,1,33.6372122,72.9912776,494.9166674938759,1.0878489999999998,0.0,0.0,0.0,1.0878489999999998,0.0,0.0,0.0,2.030625,2
1737286261.6962101,20885,1737286261,661320576,base_link,0,1,33.6372135,72.9912772,494.8866738745239,1.0878489999999998,0.0,0.0,0.0,1.0878489999999998,0.0,0.0,0.0,2.033476,2
1737286261.7931378,20886,1737286261,661316480,base_link,0,1,33.6372135,72.9912772,494.8866738745239,1.0878489999999998,0.0,0.0,0.0,1.0878489999999998,0.0,0.0,0.0,2.033476,2
1737286261.897526,20887,1737286261,861312896,base_link,0,1,33.6372147,72.991277,494.8866804365855,1.0878489999999998,0.0,0.0,0.0,1.0878489999999998,0.0,0.0,0.0,2.0363290000000003,2
1737286261.9920967,20888,1737286261,861309312,base_link,0,1,33.6372147,72.991277,494.8866804365855,1.0878489999999998,0.0,0.0,0.0,1.0878489999999998,0.0,0.0,0.0,2.0363290000000003,2
1737286262.1034951,20889,1737286262,61300864,base_link,0,1,33.6372157,72.9912769,494.90668616979366,1.089936,0.0,0.0,0.0,1.089936,0.0,0.0,0.0,2.0391839999999997,2
1737286262.1925244,20890,1737286262,61298048,base_link,0,1,33.6372157,72.9912769,494.90668616979366,1.089936,0.0,0.0,0.0,1.089936,0.0,0.0,0.0,2.0391839999999997,2
1737286262.2915423,20891,1737286262,61293440,base_link,0,1,33.6372157,72.9912769,494.90668616979366,1.089936,0.0,0.0,0.0,1.089936,0.0,0.0,0.0,2.0391839999999997,2
1737286262.389789,20892,1737286262,262290112,base_link,0,1,33.6372166,72.9912768,494.8966912899656,1.089936,0.0,0.0,0.0,1.089936,0.0,0.0,0.0,2.042041,2
1737286262.4990954,20893,1737286262,462286528,base_link,0,1,33.6372174,72.9912769,494.8966965915464,1.089936,0.0,0.0,0.0,1.089936,0.0,0.0,0.0,2.0448999999999997,2
1737286262.5984955,20894,1737286262,462281152,base_link,0,1,33.6372174,72.9912769,494.8966965915464,1.089936,0.0,0.0,0.0,1.089936,0.0,0.0,0.0,2.0448999999999997,2
1737286262.6976612,20895,1737286262,662279360,base_link,0,1,33.637218,72.9912771,494.91670106426636,1.0920249999999998,0.0,0.0,0.0,1.0920249999999998,0.0,0.0,0.0,2.050624,2
1737286262.7884927,20896,1737286262,662275776,base_link,0,1,33.637218,72.9912771,494.91670106426636,1.0920249999999998,0.0,0.0,0.0,1.0920249999999998,0.0,0.0,0.0,2.050624,2
1737286262.9041793,20897,1737286262,862271680,base_link,0,1,33.6372184,72.9912773,494.95670431089815,1.094116,0.0,0.0,0.0,1.094116,0.0,0.0,0.0,2.0534890000000003,2
1737286262.9937983,20898,1737286262,862266816,base_link,0,1,33.6372184,72.9912773,494.95670431089815,1.094116,0.0,0.0,0.0,1.094116,0.0,0.0,0.0,2.0534890000000003,2
1737286263.0915792,20899,1737286262,862261184,base_link,0,1,33.6372184,72.9912773,494.95670431089815,1.094116,0.0,0.0,0.0,1.094116,0.0,0.0,0.0,2.0534890000000003,2
1737286263.192701,20900,1737286263,62257344,base_link,0,1,33.6372186,72.9912772,494.9667051397662,1.0983040000000002,0.0,0.0,0.0,1.0983040000000002,0.0,0.0,0.0,2.0563559999999996,2
1737286263.3013275,20901,1737286263,262249664,base_link,0,1,33.6372184,72.9912773,494.9967043108982,1.100401,0.0,0.0,0.0,1.100401,0.0,0.0,0.0,2.059225,2
1737286263.3901114,20902,1737286263,262246080,base_link,0,1,33.6372184,72.9912773,494.9967043108982,1.100401,0.0,0.0,0.0,1.100401,0.0,0.0,0.0,2.059225,2
1737286263.4892206,20903,1737286263,262241472,base_link,0,1,33.6372184,72.9912773,494.9967043108982,1.100401,0.0,0.0,0.0,1.100401,0.0,0.0,0.0,2.059225,2
1737286263.5943227,20904,1737286263,462241728,base_link,0,1,33.6372178,72.9912777,495.01670222151944,1.1025,0.0,0.0,0.0,1.1025,0.0,0.0,0.0,2.059225,2
1737286263.693375,20905,1737286263,462242752,base_link,0,1,33.6372178,72.9912777,495.01670222151944,1.1025,0.0,0.0,0.0,1.1025,0.0,0.0,0.0,2.059225,2
1737286263.794354,20906,1737286263,662239168,base_link,0,1,33.6372171,72.9912783,495.0367003135447,1.1025,0.0,0.0,0.0,1.1025,0.0,0.0,0.0,2.062096,2
1737286263.8969204,20907,1737286263,862236608,base_link,0,1,33.6372164,72.9912789,495.07669840557145,1.104601,0.0,0.0,0.0,1.104601,0.0,0.0,0.0,2.064969,2
1737286263.9946318,20908,1737286263,862234048,base_link,0,1,33.6372164,72.9912789,495.07669840557145,1.104601,0.0,0.0,0.0,1.104601,0.0,0.0,0.0,2.064969,2
1737286264.0992799,20909,1737286264,62226368,base_link,0,1,33.6372155,72.9912796,495.1566956687343,1.104601,0.0,0.0,0.0,1.104601,0.0,0.0,0.0,2.064969,2
1737286264.1934288,20910,1737286264,62223296,base_link,0,1,33.6372155,72.9912796,495.1566956687343,1.104601,0.0,0.0,0.0,1.104601,0.0,0.0,0.0,2.064969,2
1737286264.2912328,20911,1737286264,262220736,base_link,0,1,33.6372145,72.9912803,495.21669231885596,1.104601,0.0,0.0,0.0,1.104601,0.0,0.0,0.0,2.064969,2
1737286264.3932927,20912,1737286264,262214336,base_link,0,1,33.6372145,72.9912803,495.21669231885596,1.104601,0.0,0.0,0.0,1.104601,0.0,0.0,0.0,2.064969,2
1737286264.4974759,20913,1737286264,462208192,base_link,0,1,33.6372135,72.991281,495.3366889689815,1.104601,0.0,0.0,0.0,1.104601,0.0,0.0,0.0,2.064969,2
1737286264.588997,20914,1737286264,462202560,base_link,0,1,33.6372135,72.991281,495.3366889689815,1.104601,0.0,0.0,0.0,1.104601,0.0,0.0,0.0,2.064969,2
1737286264.6913369,20915,1737286264,462199744,base_link,0,1,33.6372135,72.991281,495.3366889689815,1.104601,0.0,0.0,0.0,1.104601,0.0,0.0,0.0,2.064969,2
1737286264.792466,20916,1737286264,662191296,base_link,0,1,33.6372126,72.991282,495.43668742382226,1.1067040000000001,0.0,0.0,0.0,1.1067040000000001,0.0,0.0,0.0,2.064969,2
1737286264.8973813,20917,1737286264,862188224,base_link,0,1,33.637212,72.9912827,495.6066865261248,1.1067040000000001,0.0,0.0,0.0,1.1067040000000001,0.0,0.0,0.0,2.062096,2
1737286264.990956,20918,1737286264,862185664,base_link,0,1,33.637212,72.9912827,495.6066865261248,1.1067040000000001,0.0,0.0,0.0,1.1067040000000001,0.0,0.0,0.0,2.062096,2
1737286265.0965035,20919,1737286265,62177472,base_link,0,1,33.6372114,72.991283,495.7066840395373,1.1067040000000001,0.0,0.0,0.0,1.1067040000000001,0.0,0.0,0.0,2.062096,2
1737286265.190379,20920,1737286265,62172864,base_link,0,1,33.6372114,72.991283,495.7066840395373,1.1067040000000001,0.0,0.0,0.0,1.1067040000000001,0.0,0.0,0.0,2.062096,2
1737286265.2952137,20921,1737286265,262168000,base_link,0,1,33.6372112,72.9912834,495.76668440234306,1.108809,0.0,0.0,0.0,1.108809,0.0,0.0,0.0,2.064969,2
1737286265.3941104,20922,1737286265,262161088,base_link,0,1,33.6372112,72.9912834,495.76668440234306,1.108809,0.0,0.0,0.0,1.108809,0.0,0.0,0.0,2.064969,2
1737286265.4947128,20923,1737286265,462156480,base_link,0,1,33.637211,72.9912833,495.8566827790361,1.110916,0.0,0.0,0.0,1.110916,0.0,0.0,0.0,2.067844,2
1737286265.5926557,20924,1737286265,462154432,base_link,0,1,33.637211,72.9912833,495.8566827790361,1.110916,0.0,0.0,0.0,1.110916,0.0,0.0,0.0,2.067844,2
1737286265.6952643,20925,1737286265,662147264,base_link,0,1,33.637211,72.991283,495.9766815873688,1.110916,0.0,0.0,0.0,1.110916,0.0,0.0,0.0,2.064969,2
1737286265.7905335,20926,1737286265,662142400,base_link,0,1,33.637211,72.991283,495.9766815873688,1.110916,0.0,0.0,0.0,1.110916,0.0,0.0,0.0,2.064969,2
1737286265.9026423,20927,1737286265,862137536,base_link,0,1,33.6372112,72.9912823,496.05668003289617,1.110916,0.0,0.0,0.0,1.110916,0.0,0.0,0.0,2.064969,2
1737286265.9908774,20928,1737286265,862132672,base_link,0,1,33.6372112,72.9912823,496.05668003289617,1.110916,0.0,0.0,0.0,1.110916,0.0,0.0,0.0,2.064969,2
1737286266.0977929,20929,1737286266,62127040,base_link,0,1,33.6372116,72.9912811,496.18667771839614,1.113025,0.0,0.0,0.0,1.113025,0.0,0.0,0.0,2.064969,2
1737286266.1902592,20930,1737286266,62127296,base_link,0,1,33.6372116,72.9912811,496.18667771839614,1.113025,0.0,0.0,0.0,1.113025,0.0,0.0,0.0,2.064969,2
1737286266.293818,20931,1737286266,262127296,base_link,0,1,33.6372119,72.9912793,496.2866724075234,1.113025,0.0,0.0,0.0,1.113025,0.0,0.0,0.0,2.067844,2
1737286266.3918946,20932,1737286266,262127296,base_link,0,1,33.6372119,72.9912793,496.2866724075234,1.113025,0.0,0.0,0.0,1.113025,0.0,0.0,0.0,2.067844,2
1737286266.495067,20933,1737286266,462127296,base_link,0,1,33.6372123,72.9912773,496.45666691525156,1.1151360000000001,0.0,0.0,0.0,1.1151360000000001,0.0,0.0,0.0,2.064969,2
1737286266.5910637,20934,1737286266,462115776,base_link,0,1,33.6372123,72.9912773,496.45666691525156,1.1151360000000001,0.0,0.0,0.0,1.1151360000000001,0.0,0.0,0.0,2.064969,2
1737286266.6974726,20935,1737286266,662110912,base_link,0,1,33.6372126,72.9912751,496.58666001550085,1.113025,0.0,0.0,0.0,1.113025,0.0,0.0,0.0,2.064969,2
1737286266.7951658,20936,1737286266,662108352,base_link,0,1,33.6372126,72.9912751,496.58666001550085,1.113025,0.0,0.0,0.0,1.113025,0.0,0.0,0.0,2.064969,2
1737286266.8977065,20937,1737286266,862101440,base_link,0,1,33.6372129,72.9912727,496.7366523213149,1.113025,0.0,0.0,0.0,1.113025,0.0,0.0,0.0,2.064969,2
1737286266.993256,20938,1737286266,862098112,base_link,0,1,33.6372129,72.9912727,496.7366523213149,1.113025,0.0,0.0,0.0,1.113025,0.0,0.0,0.0,2.064969,2
1737286267.0984414,20939,1737286267,62092480,base_link,0,1,33.637213,72.9912705,496.8766441955008,1.113025,0.0,0.0,0.0,1.113025,0.0,0.0,0.0,2.067844,2
1737286267.1902416,20940,1737286267,62085312,base_link,0,1,33.637213,72.9912705,496.8766441955008,1.113025,0.0,0.0,0.0,1.113025,0.0,0.0,0.0,2.067844,2
1737286267.2995248,20941,1737286267,262079680,base_link,0,1,33.6372131,72.9912683,496.996636069696,1.1151360000000001,0.0,0.0,0.0,1.1151360000000001,0.0,0.0,0.0,2.067844,2
1737286267.3957176,20942,1737286267,262074304,base_link,0,1,33.6372131,72.9912683,496.996636069696,1.1151360000000001,0.0,0.0,0.0,1.1151360000000001,0.0,0.0,0.0,2.067844,2
1737286267.505989,20943,1737286267,462071744,base_link,0,1,33.6372131,72.9912659,497.10662653642544,1.1151360000000001,0.0,0.0,0.0,1.1151360000000001,0.0,0.0,0.0,2.067844,2
1737286267.5974443,20944,1737286267,462066112,base_link,0,1,33.6372131,72.9912659,497.10662653642544,1.1151360000000001,0.0,0.0,0.0,1.1151360000000001,0.0,0.0,0.0,2.067844,2
1737286267.702341,20945,1737286267,662061760,base_link,0,1,33.6372129,72.9912637,497.18661657153496,1.1151360000000001,0.0,0.0,0.0,1.1151360000000001,0.0,0.0,0.0,2.064969,2
1737286267.7919269,20946,1737286267,662055872,base_link,0,1,33.6372129,72.9912637,497.18661657153496,1.1151360000000001,0.0,0.0,0.0,1.1151360000000001,0.0,0.0,0.0,2.064969,2
1737286267.8999815,20947,1737286267,862050752,base_link,0,1,33.6372126,72.9912614,497.2566055964078,1.1151360000000001,0.0,0.0,0.0,1.1151360000000001,0.0,0.0,0.0,2.062096,2
1737286268.0000472,20948,1737286267,862046912,base_link,0,1,33.6372126,72.9912614,497.2566055964078,1.1151360000000001,0.0,0.0,0.0,1.1151360000000001,0.0,0.0,0.0,2.062096,2
1737286268.0979743,20949,1737286268,62044352,base_link,0,1,33.6372122,72.9912592,497.3365944054843,1.1151360000000001,0.0,0.0,0.0,1.1151360000000001,0.0,0.0,0.0,2.062096,2
1737286268.189232,20950,1737286268,62040256,base_link,0,1,33.6372122,72.9912592,497.3365944054843,1.1151360000000001,0.0,0.0,0.0,1.1151360000000001,0.0,0.0,0.0,2.062096,2
1737286268.2913086,20951,1737286268,262037440,base_link,0,1,33.6372116,72.9912572,497.4165827829518,1.113025,0.0,0.0,0.0,1.113025,0.0,0.0,0.0,2.062096,2
1737286268.3929353,20952,1737286268,262034112,base_link,0,1,33.6372116,72.9912572,497.4165827829518,1.113025,0.0,0.0,0.0,1.113025,0.0,0.0,0.0,2.062096,2
1737286268.4902174,20953,1737286268,262027968,base_link,0,1,33.6372116,72.9912572,497.4165827829518,1.113025,0.0,0.0,0.0,1.113025,0.0,0.0,0.0,2.062096,2
1737286268.5920475,20954,1737286268,462027968,base_link,0,1,33.6372111,72.9912554,497.54657256790415,1.1151360000000001,0.0,0.0,0.0,1.1151360000000001,0.0,0.0,0.0,2.062096,2
1737286268.6943169,20955,1737286268,662023872,base_link,0,1,33.6372106,72.9912537,497.6565627500895,1.1151360000000001,0.0,0.0,0.0,1.1151360000000001,0.0,0.0,0.0,2.062096,2
1737286268.7930493,20956,1737286268,662017216,base_link,0,1,33.6372106,72.9912537,497.6565627500895,1.1151360000000001,0.0,0.0,0.0,1.1151360000000001,0.0,0.0,0.0,2.062096,2
1737286268.897004,20957,1737286268,862011840,base_link,0,1,33.63721,72.9912521,497.6865527164782,1.1151360000000001,0.0,0.0,0.0,1.1151360000000001,0.0,0.0,0.0,2.062096,2
1737286268.9917314,20958,1737286268,862010048,base_link,0,1,33.63721,72.9912521,497.6865527164782,1.1151360000000001,0.0,0.0,0.0,1.1151360000000001,0.0,0.0,0.0,2.062096,2
1737286269.1006668,20959,1737286269,62006464,base_link,0,1,33.6372098,72.9912505,497.73654513499105,1.1151360000000001,0.0,0.0,0.0,1.1151360000000001,0.0,0.0,0.0,2.062096,2
1737286269.188456,20960,1737286269,62002112,base_link,0,1,33.6372098,72.9912505,497.73654513499105,1.1151360000000001,0.0,0.0,0.0,1.1151360000000001,0.0,0.0,0.0,2.062096,2
1737286269.3001468,20961,1737286269,261997504,base_link,0,1,33.6372097,72.9912493,497.8165397553946,1.117249,0.0,0.0,0.0,1.117249,0.0,0.0,0.0,2.062096,2
1737286269.3922162,20962,1737286269,261990592,base_link,0,1,33.6372097,72.9912493,497.8165397553946,1.117249,0.0,0.0,0.0,1.117249,0.0,0.0,0.0,2.062096,2
1737286269.4933758,20963,1737286269,461984704,base_link,0,1,33.6372092,72.9912481,497.8765319237011,1.117249,0.0,0.0,0.0,1.117249,0.0,0.0,0.0,2.062096,2
1737286269.5907419,20964,1737286269,461981120,base_link,0,1,33.6372092,72.9912481,497.8765319237011,1.117249,0.0,0.0,0.0,1.117249,0.0,0.0,0.0,2.062096,2
1737286269.6924887,20965,1737286269,461975232,base_link,0,1,33.6372092,72.9912481,497.8765319237011,1.117249,0.0,0.0,0.0,1.117249,0.0,0.0,0.0,2.062096,2
1737286269.7938797,20966,1737286269,661970880,base_link,0,1,33.6372088,72.9912471,497.9765254994688,1.119364,0.0,0.0,0.0,1.119364,0.0,0.0,0.0,2.067844,2
1737286269.9006884,20967,1737286269,861967296,base_link,0,1,33.6372088,72.9912466,498.1265235134036,1.121481,0.0,0.0,0.0,1.121481,0.0,0.0,0.0,2.0707210000000003,2
1737286269.9899757,20968,1737286269,861962176,base_link,0,1,33.6372088,72.9912466,498.1265235134036,1.121481,0.0,0.0,0.0,1.121481,0.0,0.0,0.0,2.0707210000000003,2
1737286270.0945008,20969,1737286270,61960640,base_link,0,1,33.6372087,72.9912462,498.2365213115279,1.1236000000000002,0.0,0.0,0.0,1.1236000000000002,0.0,0.0,0.0,2.0736,2
1737286270.1897173,20970,1737286270,61957568,base_link,0,1,33.6372087,72.9912462,498.2365213115279,1.1236000000000002,0.0,0.0,0.0,1.1236000000000002,0.0,0.0,0.0,2.0736,2
1737286270.2977817,20971,1737286270,261952448,base_link,0,1,33.6372084,72.9912456,498.29651708918044,1.125721,0.0,0.0,0.0,1.125721,0.0,0.0,0.0,2.0764810000000002,2
1737286270.3905296,20972,1737286270,261949888,base_link,0,1,33.6372084,72.9912456,498.29651708918044,1.125721,0.0,0.0,0.0,1.125721,0.0,0.0,0.0,2.0764810000000002,2
1737286270.4958234,20973,1737286270,461945024,base_link,0,1,33.6372084,72.9912449,498.336514308693,1.125721,0.0,0.0,0.0,1.125721,0.0,0.0,0.0,2.0764810000000002,2
1737286270.5913715,20974,1737286270,461941184,base_link,0,1,33.6372084,72.9912449,498.336514308693,1.125721,0.0,0.0,0.0,1.125721,0.0,0.0,0.0,2.0764810000000002,2
1737286270.6888573,20975,1737286270,461936064,base_link,0,1,33.6372084,72.9912449,498.336514308693,1.125721,0.0,0.0,0.0,1.125721,0.0,0.0,0.0,2.0764810000000002,2
1737286270.7908375,20976,1737286270,661931968,base_link,0,1,33.6372087,72.9912442,498.41651336727557,1.125721,0.0,0.0,0.0,1.125721,0.0,0.0,0.0,2.0764810000000002,2
1737286270.8918822,20977,1737286270,661927104,base_link,0,1,33.6372087,72.9912442,498.41651336727557,1.125721,0.0,0.0,0.0,1.125721,0.0,0.0,0.0,2.0764810000000002,2
1737286270.9888897,20978,1737286270,861920192,base_link,0,1,33.6372088,72.9912435,498.50651119981234,1.125721,0.0,0.0,0.0,1.125721,0.0,0.0,0.0,2.0736,2
1737286271.0973797,20979,1737286271,61912000,base_link,0,1,33.6372089,72.9912433,498.6365110184106,1.125721,0.0,0.0,0.0,1.125721,0.0,0.0,0.0,2.0764810000000002,2
1737286271.1899967,20980,1737286271,61905088,base_link,0,1,33.6372089,72.9912433,498.6365110184106,1.125721,0.0,0.0,0.0,1.125721,0.0,0.0,0.0,2.0764810000000002,2
1737286271.3006506,20981,1737286271,261906368,base_link,0,1,33.6372087,72.9912431,498.73650899794086,1.127844,0.0,0.0,0.0,1.127844,0.0,0.0,0.0,2.0764810000000002,2
1737286271.3911347,20982,1737286271,261900736,base_link,0,1,33.6372087,72.9912431,498.73650899794086,1.127844,0.0,0.0,0.0,1.127844,0.0,0.0,0.0,2.0764810000000002,2
1737286271.4900424,20983,1737286271,461894592,base_link,0,1,33.6372082,72.991243,498.876505535617,1.1299689999999998,0.0,0.0,0.0,1.1299689999999998,0.0,0.0,0.0,2.079364,2
1737286271.592988,20984,1737286271,461889984,base_link,0,1,33.6372082,72.991243,498.876505535617,1.1299689999999998,0.0,0.0,0.0,1.1299689999999998,0.0,0.0,0.0,2.079364,2
1737286271.688645,20985,1737286271,461883072,base_link,0,1,33.6372082,72.991243,498.876505535617,1.1299689999999998,0.0,0.0,0.0,1.1299689999999998,0.0,0.0,0.0,2.079364,2
1737286271.7912433,20986,1737286271,661878464,base_link,0,1,33.6372074,72.9912432,499.0065014258661,1.1299689999999998,0.0,0.0,0.0,1.1299689999999998,0.0,0.0,0.0,2.079364,2
1737286271.8953774,20987,1737286271,861875392,base_link,0,1,33.6372069,72.9912436,499.1664999496053,1.1320960000000002,0.0,0.0,0.0,1.1320960000000002,0.0,0.0,0.0,2.082249,2
1737286271.9918764,20988,1737286271,861872576,base_link,0,1,33.6372069,72.9912436,499.1664999496053,1.1320960000000002,0.0,0.0,0.0,1.1320960000000002,0.0,0.0,0.0,2.082249,2
1737286272.0976803,20989,1737286272,61868736,base_link,0,1,33.6372064,72.9912441,499.2864988705567,1.1320960000000002,0.0,0.0,0.0,1.1320960000000002,0.0,0.0,0.0,2.085136,2
1737286272.1917474,20990,1737286272,61864896,base_link,0,1,33.6372064,72.9912441,499.2864988705567,1.1320960000000002,0.0,0.0,0.0,1.1320960000000002,0.0,0.0,0.0,2.085136,2
1737286272.2909126,20991,1737286272,261859008,base_link,0,1,33.6372056,72.9912446,499.36649595244705,1.1342249999999998,0.0,0.0,0.0,1.1342249999999998,0.0,0.0,0.0,2.085136,2
1737286272.3929188,20992,1737286272,261857472,base_link,0,1,33.6372056,72.9912446,499.36649595244705,1.1342249999999998,0.0,0.0,0.0,1.1342249999999998,0.0,0.0,0.0,2.085136,2
1737286272.494972,20993,1737286272,461854400,base_link,0,1,33.6372045,72.9912452,499.47649159249124,1.1342249999999998,0.0,0.0,0.0,1.1342249999999998,0.0,0.0,0.0,2.088025,2
1737286272.5915277,20994,1737286272,461850048,base_link,0,1,33.6372045,72.9912452,499.47649159249124,1.1342249999999998,0.0,0.0,0.0,1.1342249999999998,0.0,0.0,0.0,2.088025,2
1737286272.6938016,20995,1737286272,661846976,base_link,0,1,33.6372036,72.991246,499.59648925300075,1.1342249999999998,0.0,0.0,0.0,1.1342249999999998,0.0,0.0,0.0,2.088025,2
1737286272.7965798,20996,1737286272,661841088,base_link,0,1,33.6372036,72.991246,499.59648925300075,1.1342249999999998,0.0,0.0,0.0,1.1342249999999998,0.0,0.0,0.0,2.088025,2
1737286272.9009714,20997,1737286272,861834688,base_link,0,1,33.6372027,72.991247,499.7064877079334,1.1342249999999998,0.0,0.0,0.0,1.1342249999999998,0.0,0.0,0.0,2.088025,2
1737286272.9933693,20998,1737286272,861829824,base_link,0,1,33.6372027,72.991247,499.7064877079334,1.1342249999999998,0.0,0.0,0.0,1.1342249999999998,0.0,0.0,0.0,2.088025,2
1737286273.0992115,20999,1737286273,61822656,base_link,0,1,33.6372017,72.9912478,499.78648475542883,1.1342249999999998,0.0,0.0,0.0,1.1342249999999998,0.0,0.0,0.0,2.088025,2
1737286273.1966052,21000,1737286273,61819072,base_link,0,1,33.6372017,72.9912478,499.78648475542883,1.1342249999999998,0.0,0.0,0.0,1.1342249999999998,0.0,0.0,0.0,2.088025,2
1737286273.2891653,21001,1737286273,261814976,base_link,0,1,33.6372006,72.9912485,499.8464807927001,1.1363560000000001,0.0,0.0,0.0,1.1363560000000001,0.0,0.0,0.0,2.088025,2
1737286273.3988354,21002,1737286273,261811904,base_link,0,1,33.6372006,72.9912485,499.8464807927001,1.1363560000000001,0.0,0.0,0.0,1.1363560000000001,0.0,0.0,0.0,2.088025,2
1737286273.4977744,21003,1737286273,461808832,base_link,0,1,33.6371998,72.9912493,499.9064790662378,1.1363560000000001,0.0,0.0,0.0,1.1363560000000001,0.0,0.0,0.0,2.090916,2
1737286273.5901363,21004,1737286273,461802176,base_link,0,1,33.6371998,72.9912493,499.9064790662378,1.1363560000000001,0.0,0.0,0.0,1.1363560000000001,0.0,0.0,0.0,2.090916,2
1737286273.6943433,21005,1737286273,661799616,base_link,0,1,33.6371991,72.9912501,499.9464779527941,1.1363560000000001,0.0,0.0,0.0,1.1363560000000001,0.0,0.0,0.0,2.0938090000000003,2
1737286273.7926629,21006,1737286273,661797312,base_link,0,1,33.6371991,72.9912501,499.9464779527941,1.1363560000000001,0.0,0.0,0.0,1.1363560000000001,0.0,0.0,0.0,2.0938090000000003,2
1737286273.8953989,21007,1737286273,861792960,base_link,0,1,33.6371985,72.9912509,499.9764774523684,1.1384889999999999,0.0,0.0,0.0,1.1384889999999999,0.0,0.0,0.0,2.096704,2
1737286273.9918673,21008,1737286273,861786816,base_link,0,1,33.6371985,72.9912509,499.9764774523684,1.1384889999999999,0.0,0.0,0.0,1.1384889999999999,0.0,0.0,0.0,2.096704,2
1737286274.0911565,21009,1737286273,861787840,base_link,0,1,33.6371985,72.9912509,499.9764774523684,1.1384889999999999,0.0,0.0,0.0,1.1384889999999999,0.0,0.0,0.0,2.096704,2
1737286274.1911077,21010,1737286274,61782720,base_link,0,1,33.637198,72.9912517,499.99647756495995,1.140624,0.0,0.0,0.0,1.140624,0.0,0.0,0.0,2.0996010000000003,2
1737286274.2958186,21011,1737286274,261779648,base_link,0,1,33.6371976,72.9912525,500.0264782905685,1.142761,0.0,0.0,0.0,1.142761,0.0,0.0,0.0,2.105401,2
1737286274.3893912,21012,1737286274,261774784,base_link,0,1,33.6371976,72.9912525,500.0264782905685,1.142761,0.0,0.0,0.0,1.142761,0.0,0.0,0.0,2.105401,2
1737286274.500872,21013,1737286274,461769664,base_link,0,1,33.6371973,72.9912533,500.036479629194,1.1449,0.0,0.0,0.0,1.1449,0.0,0.0,0.0,2.105401,2
1737286274.5902987,21014,1737286274,461763776,base_link,0,1,33.6371973,72.9912533,500.036479629194,1.1449,0.0,0.0,0.0,1.1449,0.0,0.0,0.0,2.105401,2
1737286274.6913874,21015,1737286274,661760960,base_link,0,1,33.6371971,72.9912538,500.0664803892079,1.142761,0.0,0.0,0.0,1.142761,0.0,0.0,0.0,2.105401,2
1737286274.7903802,21016,1737286274,661755584,base_link,0,1,33.6371971,72.9912538,500.0664803892079,1.142761,0.0,0.0,0.0,1.142761,0.0,0.0,0.0,2.105401,2
1737286274.8923056,21017,1737286274,861748672,base_link,0,1,33.637197,72.9912544,500.0664821594486,1.142761,0.0,0.0,0.0,1.142761,0.0,0.0,0.0,2.105401,2
1737286274.9915445,21018,1737286274,861742784,base_link,0,1,33.637197,72.9912544,500.0664821594486,1.142761,0.0,0.0,0.0,1.142761,0.0,0.0,0.0,2.105401,2
1737286275.0929718,21019,1737286274,861740224,base_link,0,1,33.637197,72.9912544,500.0664821594486,1.142761,0.0,0.0,0.0,1.142761,0.0,0.0,0.0,2.105401,2
1737286275.192011,21020,1737286275,61735104,base_link,0,1,33.6371969,72.9912548,500.0564831352702,1.142761,0.0,0.0,0.0,1.142761,0.0,0.0,0.0,2.105401,2
1737286275.2958853,21021,1737286275,261732800,base_link,0,1,33.6371969,72.9912552,500.02648472410925,1.142761,0.0,0.0,0.0,1.142761,0.0,0.0,0.0,2.105401,2
1737286275.3900518,21022,1737286275,261730240,base_link,0,1,33.6371969,72.9912552,500.02648472410925,1.142761,0.0,0.0,0.0,1.142761,0.0,0.0,0.0,2.105401,2
1737286275.4983447,21023,1737286275,461724864,base_link,0,1,33.6371968,72.9912553,499.9564845083017,1.147041,0.0,0.0,0.0,1.147041,0.0,0.0,0.0,2.108304,2
1737286275.5898242,21024,1737286275,461718976,base_link,0,1,33.6371968,72.9912553,499.9564845083017,1.147041,0.0,0.0,0.0,1.147041,0.0,0.0,0.0,2.108304,2
1737286275.699498,21025,1737286275,661714112,base_link,0,1,33.6371969,72.9912554,499.856485518529,1.1491840000000002,0.0,0.0,0.0,1.1491840000000002,0.0,0.0,0.0,2.111209,2
1737286275.7901068,21026,1737286275,661710272,base_link,0,1,33.6371969,72.9912554,499.856485518529,1.1491840000000002,0.0,0.0,0.0,1.1491840000000002,0.0,0.0,0.0,2.111209,2
1737286275.8999343,21027,1737286275,861704128,base_link,0,1,33.6371968,72.9912554,499.7564849055115,1.1513289999999998,0.0,0.0,0.0,1.1513289999999998,0.0,0.0,0.0,2.1170250000000004,2
1737286275.989658,21028,1737286275,861699264,base_link,0,1,33.6371968,72.9912554,499.7564849055115,1.1513289999999998,0.0,0.0,0.0,1.1513289999999998,0.0,0.0,0.0,2.1170250000000004,2
1737286276.0932956,21029,1737286276,61690048,base_link,0,1,33.6371966,72.9912554,499.65648367947693,1.1534760000000002,0.0,0.0,0.0,1.1534760000000002,0.0,0.0,0.0,2.119936,2
1737286276.191125,21030,1737286276,61685696,base_link,0,1,33.6371966,72.9912554,499.65648367947693,1.1534760000000002,0.0,0.0,0.0,1.1534760000000002,0.0,0.0,0.0,2.119936,2
1737286276.2985058,21031,1737286276,261682112,base_link,0,1,33.6371965,72.9912556,499.53648386087923,1.155625,0.0,0.0,0.0,1.155625,0.0,0.0,0.0,2.119936,2
1737286276.3925958,21032,1737286276,261676224,base_link,0,1,33.6371965,72.9912556,499.53648386087923,1.155625,0.0,0.0,0.0,1.155625,0.0,0.0,0.0,2.119936,2
1737286276.4967806,21033,1737286276,461671360,base_link,0,1,33.6371963,72.9912556,499.3864826348451,1.155625,0.0,0.0,0.0,1.155625,0.0,0.0,0.0,2.119936,2
