Time,header.seq,header.stamp.secs,header.stamp.nsecs,header.frame_id,twist.linear.x,twist.linear.y,twist.linear.z,twist.angular.x,twist.angular.y,twist.angular.z
1737286240.2993097,20671,1737286240,297335872,base_link,0.01780731789767742,-0.13758395612239838,1.0692366361618042,-0.10056603228727054,0.05852346497062275,-0.22222424952900297
1737286240.3989658,20672,1737286240,397330752,base_link,-0.009570067748427391,-0.1377340406179428,0.9468197822570801,0.24152642777179284,0.07310621737427254,-0.25776025243462336
1737286240.4994879,20673,1737286240,497325632,base_link,0.011257167905569077,-0.134800985455513,0.9263955354690552,-0.23354612364523317,-0.18076277232563379,0.062247588446415404
1737286240.5976794,20674,1737286240,595319744,base_link,-0.0067896670661866665,-0.14168578386306763,0.8764854073524475,0.22073655644458726,0.21602310665057156,0.04928735306151669
1737286240.6992793,20675,1737286240,697313856,base_link,-0.025850802659988403,-0.13907977938652039,0.7871251702308655,0.2912030062885416,0.15359832220905403,-0.08971680474502942
1737286240.7975376,20676,1737286240,795308224,base_link,-0.011733411811292171,-0.12936711311340332,0.7551818490028381,-0.09005720416925123,-0.1543911403187687,0.28790022606196347
1737286240.901524,20677,1737286240,900302336,base_link,-0.01147788017988205,-0.12420506030321121,0.6825843453407288,0.2589207911244342,0.3044572188071079,-0.06308223480148692
1737286240.9945722,20678,1737286240,993296960,base_link,-0.03452129662036896,-0.12015099823474884,0.5733024477958679,0.06153966632428626,-0.11526797050962337,-0.17246235945806665
1737286241.1009367,20679,1737286241,97291840,base_link,-0.0114641347900033,-0.09354637563228607,0.508772075176239,0.09351131087103731,-0.15038778503108657,-0.1338554584632994
1737286241.198072,20680,1737286241,195286208,base_link,-0.03052474372088909,-0.09587052464485168,0.3942929208278656,-0.28220266190521953,-0.01847206460202398,-0.06837582048625747
1737286241.300295,20681,1737286241,297280832,base_link,-0.02486809343099594,-0.07270440459251404,0.29098251461982727,0.2375427124841902,-0.019447092876850876,-0.1435980926568489
1737286241.3984203,20682,1737286241,395275456,base_link,-0.04866071790456772,-0.07427528500556946,0.27572473883628845,-0.33459559541776757,-0.0804427095463747,0.05109680278343711
1737286241.5019255,20683,1737286241,500270080,base_link,-0.029894784092903137,-0.07764072716236115,0.17081251740455627,-0.010321279756342488,-0.044784421738918896,0.17497647598025678
1737286241.599121,20684,1737286241,596265984,base_link,-0.013588644564151764,-0.06433790177106857,0.05682500824332237,0.10211096778210078,0.10563227996560247,0.10850304012885423
1737286241.7004187,20685,1737286241,698259328,base_link,-0.03401312604546547,-0.05566011369228363,0.012690916657447815,0.29004779478832116,0.2952932126721612,-0.2962805329517421
1737286241.7996855,20686,1737286241,797253440,base_link,-0.02310519851744175,-0.04526400566101074,0.014746755361557007,0.029798906860225412,0.05014969120415046,-0.6311054693594922
1737286241.90407,20687,1737286241,901249344,base_link,-0.02403772808611393,-0.04611258953809738,-0.07607752829790115,-0.16184816638702915,-0.10316686346740372,-0.4182342282890302
1737286242.0007384,20688,1737286241,998245504,base_link,0.012544759549200535,-0.009452433325350285,-0.1472339928150177,0.2102612577386605,-0.04288180383326641,-0.7279810934632176
1737286242.103784,20689,1737286242,101243712,base_link,0.023261316120624542,-0.014177091419696808,-0.11120398342609406,0.12917774078601346,0.1409392610061383,-0.8028111711051504
1737286242.1998947,20690,1737286242,198239872,base_link,0.01630500704050064,-0.00627950020134449,-0.07084980607032776,0.21456131497630068,-0.11216063808139468,-0.5598583522521946
1737286242.3008747,20691,1737286242,299237056,base_link,0.0166698656976223,-0.01242356188595295,-0.01570812612771988,0.3440864873007277,0.2409182874172458,0.04139017694384632
1737286242.396704,20692,1737286242,395231936,base_link,-0.02511512115597725,0.002640750026330352,-0.08625201880931854,0.08309432137919104,0.196907560819929,0.14863136690415069
1737286242.5021613,20693,1737286242,499229120,base_link,0.007640560157597065,0.0031747077591717243,-0.0020801611244678497,-0.381865036656172,-0.12883048560827587,0.30699271237917325
1737286242.6020427,20694,1737286242,600224000,base_link,0.02082708850502968,-0.01044998038560152,0.002069293987005949,-0.20394633165489273,-0.27446857151840764,0.2371688189974277
1737286242.7068245,20695,1737286242,704220160,base_link,0.015883395448327065,-0.013144547119736671,0.058756593614816666,-0.10217504491922774,-0.22031393391668624,-0.02383434470255852
1737286242.7992778,20696,1737286242,796215552,base_link,0.008252700790762901,-0.017513809725642204,0.04232783243060112,0.26082692841213645,0.24427539492585781,0.020177796947338615
1737286242.9048932,20697,1737286242,901209920,base_link,0.05203964188694954,-0.011329807341098785,0.03639223426580429,-0.3022270060463321,-0.06618408487077013,-0.26075347422619927
1737286242.9988518,20698,1737286242,997207104,base_link,0.0533619150519371,0.0011813300661742687,0.0030661411583423615,0.07168030510224,-0.06448396992876862,-0.23221373592242966
1737286243.0997584,20699,1737286243,98199680,base_link,0.05059772729873657,-0.010057967156171799,0.0569780059158802,-0.0030163854834476395,-0.14042687640945242,-0.2875794124956484
1737286243.1999547,20700,1737286243,197195840,base_link,0.05517991632223129,-0.02457410655915737,0.09990811347961426,0.25734927510782263,0.27885155788183447,-0.10073064815295293
1737286243.2960439,20701,1737286243,294188160,base_link,0.041407108306884766,-0.02736235037446022,0.024999093264341354,-0.2086974744295719,-0.4642317559900933,-0.04282121391872785
1737286243.3971431,20702,1737286243,395184320,base_link,0.08521413803100586,-0.044060658663511276,0.0963122770190239,-0.3427378802296401,-0.12661554165302843,0.07003740614921608
1737286243.501016,20703,1737286243,499177664,base_link,0.0797540694475174,-0.03468672186136246,0.02712002955377102,0.11631572595551053,0.04788496670135163,0.1387628343763108
1737286243.5990074,20704,1737286243,597172800,base_link,0.0526956170797348,-0.04773987829685211,0.006382384337484837,0.22949263104654227,0.2243568708389639,-0.1522879257781262
1737286243.6999419,20705,1737286243,698165632,base_link,0.056996166706085205,-0.06148961931467056,0.0073944274336099625,0.5204921899276935,0.3465259019567253,-0.10785314926622369
1737286243.7990434,20706,1737286243,797161792,base_link,0.08740345388650894,-0.07269815355539322,0.040453799068927765,-0.09567393183846104,0.021646460436568368,0.22577594715524946
1737286243.9033148,20707,1737286243,901154112,base_link,0.09238649159669876,-0.07577089220285416,0.10858101397752762,-0.15574983689671848,-0.3462195376316804,0.05591794613176134
1737286243.9971123,20708,1737286243,995145152,base_link,0.10494796931743622,-0.08812128007411957,0.12476587295532227,-0.10625629253488617,-0.20040752807921836,0.00870102621536089
1737286244.1015804,20709,1737286244,99142336,base_link,0.127463698387146,-0.10120974481105804,0.04818558692932129,-0.23806308988875263,-0.06585080398505869,-0.06443850488330631
1737286244.1989884,20710,1737286244,197142336,base_link,0.13345952332019806,-0.11596405506134033,0.033589787781238556,0.012095380917616652,0.068402776429215,0.068304426432369
1737286244.3042073,20711,1737286244,302132352,base_link,0.11963855475187302,-0.12082704901695251,-0.024665191769599915,0.23436500057361231,0.0668164193601468,-0.23725251311150186
1737286244.3998795,20712,1737286244,398132352,base_link,0.12000284343957901,-0.14093075692653656,-0.005381398368626833,0.2754548057915373,-0.09230060690813088,-0.08409491459033094
1737286244.5041013,20713,1737286244,502132352,base_link,0.11287911981344223,-0.13871367275714874,0.04243341088294983,-0.18093031876752697,-0.3010960067646424,-0.2398774082696712
1737286244.5949106,20714,1737286244,593121344,base_link,0.09372603893280029,-0.15367576479911804,-0.009783536195755005,-0.23116263148200658,-0.1065243477585137,-0.0021997529216871425
1737286244.703816,20715,1737286244,702114432,base_link,0.08863470703363419,-0.16162337362766266,0.009299304336309433,0.10294015511636596,0.0009468130489643689,-0.07788667698966903
1737286244.7959065,20716,1737286244,794103680,base_link,0.08515830338001251,-0.1624002456665039,0.00622761994600296,0.29558635529517896,0.2630803851659878,-0.09314519532763044
1737286244.8999727,20717,1737286244,898099584,base_link,0.06319889426231384,-0.17258089780807495,0.022395413368940353,-0.05339970701003498,0.19952780666313144,0.07914290183477687
1737286244.9959717,20718,1737286244,994099584,base_link,0.09356674551963806,-0.1720106452703476,0.04021433740854263,0.010281530808471169,0.25866185251490004,0.1316736088389942
1737286245.1032476,20719,1737286245,101098304,base_link,0.07061835378408432,-0.17970247566699982,0.11607633531093597,0.16209112881405568,0.24082617777867665,0.12803827890893998
1737286245.1990507,20720,1737286245,197094208,base_link,0.06195491924881935,-0.17757539451122284,0.030446700751781464,0.03801636708288933,-0.03339139408623512,-0.004815857624072213
1737286245.3009112,20721,1737286245,299090624,base_link,0.06607437133789062,-0.18250396847724915,0.0684228241443634,0.23360725054893366,-0.08001082532065942,-0.04801951799751682
1737286245.3962102,20722,1737286245,395086784,base_link,0.09626742452383041,-0.19533725082874298,0.09553796797990799,0.0702745986808132,0.2059090248680304,0.04909112044954556
1737286245.504967,20723,1737286245,503083456,base_link,0.07306896150112152,-0.20195771753787994,0.0875023901462555,-0.10898833639881851,0.05820351861082822,0.09670382933580675
1737286245.5996869,20724,1737286245,597077824,base_link,0.08256895840167999,-0.21416868269443512,0.08788391947746277,-0.12996700018578364,-0.10448101449140096,-0.05855053568493148
1737286245.7022922,20725,1737286245,701071424,base_link,0.08315768092870712,-0.218133345246315,0.10828356444835663,0.15741839005182695,0.12296395136292278,-0.15442116552474594
1737286245.7996595,20726,1737286245,797067328,base_link,0.04183744639158249,-0.2233472615480423,-0.002525150775909424,0.44770780475862004,0.16439162298912882,-0.13481953843784572
1737286245.90959,20727,1737286245,907061952,base_link,0.07910726219415665,-0.222574844956398,0.04676256701350212,-0.1870809373216689,-0.005969904796566787,0.14086651875516454
1737286246.0007036,20728,1737286245,998057344,base_link,0.07035396993160248,-0.22063986957073212,0.08028855174779892,0.26416212257779115,0.0790063549438755,-0.14733909984385193
1737286246.1111953,20729,1737286246,107051712,base_link,0.028038151562213898,-0.22497141361236572,-0.010680720210075378,0.36745471453438355,0.1599544211381915,-0.050469521869775553
1737286246.2064233,20730,1737286246,203048640,base_link,0.06849931180477142,-0.21154791116714478,0.08591356128454208,-0.470213977697474,-0.3370030857244093,0.18308496992227433
1737286246.30718,20731,1737286246,306040704,base_link,0.06589216738939285,-0.20160646736621857,0.03699260577559471,0.06664420321884368,-0.16459436857977372,-0.14755193726389865
1737286246.4032178,20732,1737286246,402034048,base_link,0.01831274852156639,-0.20585332810878754,0.034920092672109604,-0.18449135288202897,-0.08930656646632378,0.16905483602524515
1737286246.5134068,20733,1737286246,509030720,base_link,0.0235615074634552,-0.20017367601394653,0.029083792120218277,0.01560365798900026,-0.13675446896735952,-0.1345746555754785
1737286246.604089,20734,1737286246,602023296,base_link,0.04604015499353409,-0.1783604472875595,0.09849826991558075,-0.17227396085104224,0.011815586923128058,-0.025833602409078945
1737286246.7031653,20735,1737286246,702017408,base_link,0.028541162610054016,-0.1892959475517273,0.08939392119646072,-0.42665648149858937,-0.09982259777591691,-0.04131226912369416
1737286246.8032093,20736,1737286246,802011264,base_link,0.021591143682599068,-0.1746014654636383,0.06546922028064728,-0.2906793271736462,-0.22665591138925983,-0.07497169947695251
1737286246.9072175,20737,1737286246,906009216,base_link,0.0312962643802166,-0.15783599019050598,0.15135663747787476,-0.3513108876883828,-0.0946701446763697,0.08205925970399618
1737286246.9960406,20738,1737286246,993004096,base_link,0.014611882157623768,-0.16219046711921692,0.15045295655727386,-0.2460786391857811,-0.009259655579297272,0.033280819075094295
1737286247.1133866,20739,1737286247,111992576,base_link,-0.00414787232875824,-0.1482187956571579,0.10913801938295364,0.40639738719038193,0.20090964958440957,-0.11675289915854006
1737286247.1964076,20740,1737286247,194993856,base_link,-0.0010175332427024841,-0.1492733210325241,0.15801630914211273,0.24223415645075863,0.08661577614044266,-0.06028590331276266
1737286247.2956228,20741,1737286247,293992064,base_link,-0.004701397381722927,-0.1439545601606369,0.2456374317407608,-0.11000012470446513,-0.3219065532771446,-0.04952909644167927
1737286247.4006345,20742,1737286247,397992064,base_link,0.003449566662311554,-0.13445261120796204,0.22191479802131653,-0.22569110304314155,-0.16973504078569918,-0.008502486468905886
1737286247.4993887,20743,1737286247,497986688,base_link,0.01808982901275158,-0.12903796136379242,0.30473947525024414,-0.41416673563209294,-0.20021150045283714,0.10411006184202186
1737286247.598488,20744,1737286247,596984896,base_link,-0.0064490921795368195,-0.1456625759601593,0.2789917290210724,0.1104635838630657,0.17805759564695728,0.007263077863720724
1737286247.6977742,20745,1737286247,694980544,base_link,0.016881415620446205,-0.13671191036701202,0.2886768877506256,-0.27921774637561475,-0.02476568490734936,-0.05837988495842666
1737286247.797056,20746,1737286247,794974912,base_link,0.004954327363520861,-0.14728039503097534,0.2045365869998932,0.1439496638511033,0.2849681531852102,-0.1210125242200386
1737286247.9039414,20747,1737286247,901968256,base_link,0.011631392873823643,-0.15481062233448029,0.29820987582206726,0.4458626098300173,0.242933417660264,-0.12703638822853186
1737286247.9979453,20748,1737286247,995962624,base_link,-0.017257291823625565,-0.16460545361042023,0.2417997419834137,0.27766940760849385,0.3271542617510901,-0.05653082105143304
1737286248.1050568,20749,1737286248,102958528,base_link,0.007341640070080757,-0.16424311697483063,0.24366264045238495,0.19197098736309082,0.30612295076284646,-0.02535359878945197
1737286248.2019498,20750,1737286248,198952128,base_link,0.022747954353690147,-0.16283202171325684,0.3701549172401428,0.24721490247943395,0.24588729872891388,0.08149812003126347
1737286248.3034992,20751,1737286248,300945984,base_link,0.021940233185887337,-0.1620878130197525,0.3429546058177948,0.3922844138255284,0.12883708903641997,-0.0924746312568254
1737286248.3991108,20752,1737286248,394941376,base_link,-0.008207383565604687,-0.17270976305007935,0.32013577222824097,-0.07966551765724791,0.07123898346489393,-0.1934894284136741
1737286248.4980288,20753,1737286248,494938560,base_link,-0.014312971383333206,-0.1755644977092743,0.22586247324943542,0.29067994421961413,0.21813883808001971,-0.22717704003351588
1737286248.6003933,20754,1737286248,596933952,base_link,-0.017262285575270653,-0.1674889773130417,0.2267669439315796,-0.10882290816334343,-0.10651906719111391,-0.0881559902913383
1737286248.7037213,20755,1737286248,698929088,base_link,-0.02482958883047104,-0.16877752542495728,0.2207065224647522,-0.20770277645913926,0.00036433744099570204,0.00782905041062031
1737286248.7998793,20756,1737286248,797923200,base_link,0.002896936610341072,-0.15540491044521332,0.2504814863204956,-0.2789134811205287,-0.33692853106276044,0.10689286678900228
1737286248.9061096,20757,1737286248,901920896,base_link,-0.016848767176270485,-0.1610359102487564,0.3088357448577881,-0.22946206341491546,-0.16240520653846235,-0.002164190553596139
1737286248.9960887,20758,1737286248,993916800,base_link,-0.0235649012029171,-0.14470840990543365,0.2947711646556854,-0.20188182543091054,-0.19113386356633502,0.13201636122545804
1737286249.105237,20759,1737286249,100910400,base_link,0.011695812456309795,-0.15248097479343414,0.2507615387439728,0.31877587003410895,0.21047562404926842,-0.23967088473272483
1737286249.2003462,20760,1737286249,196905280,base_link,-0.027970116585493088,-0.14635330438613892,0.27144256234169006,0.18601001140059759,-0.04534056164023198,-0.1728740351447564
1737286249.305907,20761,1737286249,301900160,base_link,-0.01857762783765793,-0.14941386878490448,0.27407360076904297,0.0769792980314406,-0.032005258847389625,-0.08777160451841517
1737286249.3962405,20762,1737286249,393894272,base_link,-0.023075154051184654,-0.14301346242427826,0.2715394198894501,-0.3840093799918291,-0.13290088499905606,-0.020723585958556456
1737286249.4990196,20763,1737286249,495888896,base_link,0.00013804761692881584,-0.13277482986450195,0.32399192452430725,-0.15920838864781456,0.027513768074251346,0.08571234367741419
1737286249.598662,20764,1737286249,596883264,base_link,-0.01292559877038002,-0.12429234385490417,0.29236507415771484,-0.0903500291398094,-0.07221749534620041,-0.020752823823283712
1737286249.6995428,20765,1737286249,697878912,base_link,-0.037032101303339005,-0.1344008892774582,0.20179970562458038,0.1945902405397047,-0.0026560322826728023,-0.18902847934213055
1737286249.7997246,20766,1737286249,797872512,base_link,-0.03557761013507843,-0.13098688423633575,0.23604440689086914,0.421918626552369,0.40945769764564854,-0.1361557435706473
1737286249.9057848,20767,1737286249,903869440,base_link,-0.02269388735294342,-0.12683311104774475,0.21392285823822021,0.15704520624439844,0.22973378265953698,0.10767400812173905
1737286249.9989884,20768,1737286249,995878144,base_link,-0.030736513435840607,-0.12508884072303772,0.19495023787021637,0.25741617825311525,0.10470481496453705,-0.014825074283078804
1737286250.105527,20769,1737286250,102867392,base_link,0.023191798478364944,-0.1123785749077797,0.2939251959323883,-0.326757644037169,-0.11826110995785959,0.1181259256569749
1737286250.1967041,20770,1737286250,194857408,base_link,0.010265165939927101,-0.10461454093456268,0.27281469106674194,-0.3109181832472197,-0.15551539826355457,0.2112013510841888
1737286250.302715,20771,1737286250,300850496,base_link,-0.0020388271659612656,-0.11747118085622787,0.20998334884643555,-0.16562732460908744,-0.38210163845437445,-0.08462353002263251
1737286250.3967483,20772,1737286250,394841536,base_link,-0.002143457531929016,-0.10981915146112442,0.19823847711086273,0.12425951409451941,0.1779661578972643,0.03656379088592701
1737286250.5038059,20773,1737286250,496836928,base_link,0.002079855650663376,-0.10190504789352417,0.17968350648880005,-0.32513509357957787,-0.24252406709875046,0.017398711123811472
1737286250.5977192,20774,1737286250,595833856,base_link,-0.04047207534313202,-0.10130102932453156,0.041920341551303864,0.3964242970819246,0.039113685561585135,-0.25203303792107457
1737286250.69986,20775,1737286250,697833856,base_link,-0.04221140220761299,-0.09717974811792374,0.04033525288105011,-0.3806302376136155,-0.043137497764495124,-0.10766574229929435
1737286250.7988722,20776,1737286250,796833344,base_link,-0.02658180333673954,-0.09283044934272766,0.0738978236913681,-0.21579419559006155,-0.13741169703365733,0.026926839599743804
1737286250.9030097,20777,1737286250,901828992,base_link,-0.054599579423666,-0.09905661642551422,-0.018563561141490936,-0.25320089204128776,0.037378573401456144,0.05233833864436095
1737286250.997908,20778,1737286250,995827456,base_link,-0.05750565603375435,-0.10400602966547012,0.015788676217198372,0.38331243529731573,0.08743302956837032,-0.1818669379954481
1737286251.1072507,20779,1737286251,105818752,base_link,-0.033163074404001236,-0.1050235852599144,0.022969935089349747,0.04848217440520948,0.005053316623559528,-0.1340164225284499
1737286251.1983669,20780,1737286251,196812096,base_link,-0.02246888354420662,-0.08923523873090744,0.006668830290436745,-0.16027848206750497,-0.1627165341011354,0.12684763216192926
1737286251.3079352,20781,1737286251,305807488,base_link,-0.036078136414289474,-0.08927088975906372,0.004117908887565136,0.2871869038279175,0.1219864162047566,0.07399999427325415
1737286251.3989825,20782,1737286251,396801088,base_link,-0.009768836200237274,-0.09065824002027512,0.06109663471579552,-0.037632589763307564,0.011952652516127123,0.11399252188010485
1737286251.508222,20783,1737286251,506796480,base_link,-0.026989594101905823,-0.09188266843557358,-3.4887343645095825e-05,-0.2811201502474008,-0.3061746550173954,0.11741366785941962
1737286251.5998595,20784,1737286251,597793664,base_link,-0.016520686447620392,-0.09631777554750443,0.05576510727405548,-0.2238399944793962,-0.1914354920785855,-0.1264258654622126
1737286251.7094843,20785,1737286251,707787264,base_link,-0.0014117266982793808,-0.09468858689069748,0.05445250868797302,0.30494832465205224,0.20537120279352217,-0.017261972935489978
1737286251.804511,20786,1737286251,801780864,base_link,0.0208498015999794,-0.08840478956699371,0.044504471123218536,0.14123328015885925,0.09437880056537364,0.037155776191028195
1737286251.9111297,20787,1737286251,909777536,base_link,-0.028525816276669502,-0.09887316823005676,-0.04592565447092056,-0.2191465462434908,-0.015291166722339258,0.038911371650094416
1737286252.0055494,20788,1737286252,3774976,base_link,-0.035128362476825714,-0.09966570138931274,-0.11710175126791,0.022650658317782776,-0.060814546849635456,-0.2145309352120208
1737286252.1072178,20789,1737286252,104766784,base_link,-0.01885056681931019,-0.0947357639670372,-0.08166128396987915,0.12693426641251063,0.12882599602170364,-0.14470695746208473
1737286252.2048607,20790,1737286252,201761664,base_link,-0.01989716663956642,-0.10323147475719452,-0.04264703765511513,-0.25583588840547883,-0.054339336394893224,0.18279266094124222
1737286252.308963,20791,1737286252,306757568,base_link,-0.02619256265461445,-0.11530087888240814,-0.10575850307941437,0.24084675220237953,-0.024329184037073025,-0.061896032319313496
1737286252.4021063,20792,1737286252,400755264,base_link,-0.018112782388925552,-0.12182050943374634,-0.09562914073467255,-0.3089154197307142,-0.2245200813840107,0.055185701333994766
1737286252.5131302,20793,1737286252,510749376,base_link,0.005342463962733746,-0.11382940411567688,-0.04822145029902458,-0.2762918072493624,-0.48673375733177293,0.11687499057984369
1737286252.6001282,20794,1737286252,595745024,base_link,-0.0002895062789320946,-0.1111021339893341,0.030072923749685287,-0.27095274404361225,-0.16568688062813497,0.18795870195791511
1737286252.699066,20795,1737286252,697738880,base_link,-0.022286605089902878,-0.11234958469867706,0.005259629338979721,0.10277745986398137,0.22884901770728422,0.21045813155144608
1737286252.7979715,20796,1737286252,796741184,base_link,-0.03787582740187645,-0.10992852598428726,-0.018345963209867477,-0.35221546912271673,0.06285824307633377,-0.04395130784122445
1737286252.9049978,20797,1737286252,903740160,base_link,-0.04604420065879822,-0.10665863752365112,-0.07317174971103668,0.025625551806436803,0.07730250421275363,0.0906510452685561
1737286252.9969075,20798,1737286252,994734272,base_link,-0.06738270819187164,-0.1097453385591507,-0.08259043097496033,0.06812320837681006,0.10236659995614687,-0.3490430078754708
1737286253.1065297,20799,1737286253,100727872,base_link,-0.03933338820934296,-0.10758747905492783,-0.007762107998132706,0.40610536089252824,0.11648743136674586,-0.13786157261583842
1737286253.1973991,20800,1737286253,194719168,base_link,-0.053785327821969986,-0.0956232026219368,-0.029238421469926834,-0.19475323250530585,-0.24041281872193898,-0.1743867860323323
1737286253.3039773,20801,1737286253,301714048,base_link,-0.04328346624970436,-0.08790277689695358,-0.009849107824265957,-0.5005292912578313,-0.27632171241243114,0.006515510787839693
1737286253.3969505,20802,1737286253,395707392,base_link,-0.03052295744419098,-0.07378596067428589,0.01534486934542656,-0.617929974247895,-0.3030059423238212,0.20618902101357298
1737286253.506994,20803,1737286253,504702272,base_link,-0.06479957699775696,-0.06769905984401703,-0.04583659768104553,0.010477327778262812,0.1586392828261017,0.013398822733547394
1737286253.59795,20804,1737286253,596700224,base_link,-0.03627783805131912,-0.029881659895181656,-0.03948099911212921,-0.16134685720313724,-0.07329295128886415,0.15327017034502394
1737286253.6970685,20805,1737286253,695695872,base_link,-0.05907431244850159,-0.01864604279398918,-0.06587272882461548,0.3893993327685574,0.17379173545436247,-0.1427868009055778
1737286253.7990313,20806,1737286253,797693056,base_link,-0.06563049554824829,0.009788496419787407,-0.02353002317249775,-0.06582751034876638,0.1292328043212102,0.013433026192812805
1737286253.9061272,20807,1737286253,903687168,base_link,-0.06707242876291275,0.057784903794527054,0.019630761817097664,-0.3697351399301507,-0.2771167619814354,0.09896879428226947
1737286253.9971178,20808,1737286253,995683072,base_link,-0.07166188955307007,0.08899155259132385,-0.002752985805273056,-0.2723778125171685,-0.27836908811297784,-0.039708099509951245
1737286254.104213,20809,1737286254,102680768,base_link,-0.08162275701761246,0.12508167326450348,-0.0046799443662166595,0.30318055287171525,0.23658320696372162,-0.07505532020761818
1737286254.1981447,20810,1737286254,196675648,base_link,-0.07637140899896622,0.16872823238372803,-0.016545195132493973,0.2084096890297907,0.33273678597535195,-0.0325536338782191
1737286254.3000357,20811,1737286254,298668480,base_link,-0.07039697468280792,0.236898273229599,-0.039389077574014664,0.09104817658816623,-0.009522062877615808,0.034041444213962525
1737286254.3991592,20812,1737286254,394665408,base_link,-0.07981418073177338,0.30027690529823303,-0.008139804005622864,-0.17038717250996915,-0.1079481155475863,-0.16063933186433615
1737286254.5061758,20813,1737286254,504661312,base_link,-0.04919718578457832,0.3589949905872345,-0.06408880650997162,0.15612683429112817,0.23510058510055973,0.008824626119732205
1737286254.5981507,20814,1737286254,596656448,base_link,-0.03266715630888939,0.41773152351379395,-0.006821971852332354,-0.4558336140937015,-0.07503623299258691,0.018608323938853023
1737286254.7032382,20815,1737286254,700652096,base_link,-0.05286722257733345,0.4531192183494568,-0.05772409588098526,-0.3736510085268278,-0.30950534041108413,0.1675592117651774
1737286254.7972412,20816,1737286254,795649792,base_link,-0.021748917177319527,0.5013450980186462,0.006258817855268717,-0.17644757732248112,-0.36311174968272225,-0.12517916305075427
1737286254.898401,20817,1737286254,896647744,base_link,-0.022000262513756752,0.539310097694397,-0.06021202355623245,0.45472658184994946,0.1052257958775336,-0.13745344440285873
1737286254.9952466,20818,1737286254,993643904,base_link,0.004835993051528931,0.5730499029159546,-0.010581780225038528,-0.26162997497347945,-0.4108380245674667,0.06472106564844067
1737286255.1061242,20819,1737286255,104639296,base_link,0.03837770223617554,0.6263682246208191,0.01390910055488348,-0.32362534565578427,-0.15506183258476308,0.12470651916881378
1737286255.1964314,20820,1737286255,194635456,base_link,0.027740463614463806,0.651156485080719,0.027535315603017807,-0.16442719909443354,-0.3677995169675374,0.13148674814154887
1737286255.30021,20821,1737286255,298630336,base_link,0.040694255381822586,0.6654728651046753,-0.007933528162539005,-0.15177861719490796,-0.38199296896945456,-0.041723557521866086
1737286255.4012456,20822,1737286255,399631104,base_link,0.04615475609898567,0.6758083701133728,-0.026371579617261887,-0.037754952407486685,-0.3525021493627882,-0.03287715577513084
1737286255.5052116,20823,1737286255,503621632,base_link,0.04053507745265961,0.6696853041648865,0.001939915120601654,0.018015915125704506,-0.06129711879865325,-0.01693420657237758
1737286255.594303,20824,1737286255,592607552,base_link,0.053396496921777725,0.6809056997299194,-0.03947596997022629,0.31369059896246115,0.1551828434125266,0.05079075753687876
1737286255.7034595,20825,1737286255,701607552,base_link,0.04141784459352493,0.6640350222587585,-0.02647092193365097,0.14618185211077775,0.018087075219145342,0.0361876431325831
1737286255.7964442,20826,1737286255,794620096,base_link,0.013119768351316452,0.6356436610221863,-0.08540433645248413,0.020488477696879375,-0.14396991852483879,-0.1971126987954656
1737286255.899689,20827,1737286255,894610880,base_link,0.019927876070141792,0.6196742057800293,-0.029373548924922943,0.34750069545444195,0.21087582979540279,-0.21431831044835087
1737286256.0014653,20828,1737286255,999603712,base_link,0.012660720385611057,0.6025689840316772,-0.08283013850450516,-0.17758259792055547,-0.03558475182337532,-0.1106925156485348
1737286256.0987203,20829,1737286256,97597312,base_link,0.022181633859872818,0.5834704637527466,0.01461491733789444,-0.3165549599195176,-0.022559460290516947,0.09436718373389202
1737286256.1974065,20830,1737286256,195591680,base_link,0.003164814319461584,0.5622785091400146,-0.05086483433842659,0.28527178587767965,0.14230245505006517,0.03611274079760642
1737286256.2994223,20831,1737286256,297587584,base_link,0.0011839903891086578,0.5494040846824646,0.02119896560907364,0.37035747681437076,0.10562312064039638,-0.09473418109719932
1737286256.3957894,20832,1737286256,394584256,base_link,-0.025491056963801384,0.5280712842941284,-0.05188370123505592,0.3252469680297242,0.14716862049975957,-0.05563436705245571
1737286256.5055299,20833,1737286256,503579648,base_link,-0.02420216239988804,0.5143731236457825,-0.0093925129622221,0.31762180562160996,0.22883782705111633,-0.07423209971360485
1737286256.5975027,20834,1737286256,595578112,base_link,-0.03751738741993904,0.5290418267250061,-0.0011506950249895453,-0.040435900116342426,0.17496615669518362,-0.002258541826361986
1737286256.7057147,20835,1737286256,703574272,base_link,-0.015516131184995174,0.5430342555046082,0.019005045294761658,0.04978976512387739,0.2820928861885911,-0.16271985240553577
1737286256.8025694,20836,1737286256,800571968,base_link,-0.03656863421201706,0.5775309801101685,0.04073606804013252,-0.05233200174551187,-0.05133207498807924,-0.1218836293103025
1737286256.9096656,20837,1737286256,907564800,base_link,-0.024700133129954338,0.6203718781471252,0.030377471819519997,0.09048305843116884,0.30940529734914446,-0.15574895134110156
1737286257.0056636,20838,1737286257,3560960,base_link,-0.021414654329419136,0.7000616192817688,0.05334814265370369,0.10132017901661737,0.3164512722446226,0.09532099501897187
1737286257.1016471,20839,1737286257,100553536,base_link,-0.013684323988854885,0.7693202495574951,0.05110541731119156,0.21380380610291683,0.12836634258008645,-0.06402935445127958
1737286257.201607,20840,1737286257,200546624,base_link,-0.016109509393572807,0.8440084457397461,-0.022596757858991623,-0.5047346673095892,-0.12475666910989573,0.01233259835160198
1737286257.306693,20841,1737286257,304541248,base_link,0.007292184978723526,0.9497174024581909,0.025127165019512177,-0.2747579181588609,-0.2382127493598976,-0.0015057542538036185
1737286257.4037044,20842,1737286257,401535616,base_link,-0.006943315267562866,1.0327986478805542,-0.04350901395082474,0.3900989010410493,0.09979681396432874,-0.23313682374917521
1737286257.5106628,20843,1737286257,508532544,base_link,0.049560561776161194,1.1488739252090454,0.012539179064333439,-0.3754191354571911,-0.38505408182494544,0.150656205741596
1737286257.607745,20844,1737286257,605531776,base_link,0.023838894441723824,1.248780608177185,0.04505692422389984,0.06592484031461099,-0.042045258575118455,-0.10320657897552253
1737286257.7137718,20845,1737286257,711525120,base_link,0.037302713841199875,1.3212885856628418,-0.07100401073694229,-0.04100069672591845,0.07465085123841743,0.07146236671407794
1737286257.7998455,20846,1737286257,798522048,base_link,0.030409514904022217,1.411081075668335,-0.014334268867969513,0.12881067801962195,0.1511065900752914,0.024455843625901977
1737286257.9116795,20847,1737286257,910518720,base_link,0.0409112386405468,1.5005147457122803,-0.0766436904668808,0.0655851961060174,0.14850680748734185,-0.0544760692859613
1737286257.9949603,20848,1737286257,993513344,base_link,0.039956703782081604,1.5525639057159424,-0.10724896192550659,0.1315276795618335,0.09212230039127228,-0.015869070110378632
1737286258.1061091,20849,1737286258,103504640,base_link,0.055176421999931335,1.6526439189910889,-0.02151259407401085,0.2135719910311032,0.104201339964994,-0.009914528226142298
1737286258.19625,20850,1737286258,194496960,base_link,0.04564222693443298,1.7152615785598755,-0.05327872931957245,0.2415782244464571,0.10016897729241195,-0.04033925755830138
1737286258.30302,20851,1737286258,300490304,base_link,0.07122121006250381,1.7899774312973022,-0.048365309834480286,0.16199734534907353,0.04989701674213043,-0.01645362707039864
1737286258.3969924,20852,1737286258,395488512,base_link,0.08148179203271866,1.8539026975631714,0.006047837436199188,0.10639761200468557,0.1334925316359835,-0.025280943471292325
1737286258.5010467,20853,1737286258,498483648,base_link,0.05394800752401352,1.9240235090255737,-0.05522000417113304,-0.0492889653322405,0.0210437076777267,-0.0011882275797720152
1737286258.59696,20854,1737286258,595477760,base_link,0.0932108461856842,1.9895954132080078,-0.0683971643447876,-0.10442797251937253,0.05068192284912123,0.1621509233574035
1737286258.702108,20855,1737286258,700472896,base_link,0.07205861806869507,2.071885585784912,-0.012106021866202354,0.4033091156301196,0.12309501029896334,-0.027580675619085795
1737286258.798094,20856,1737286258,796464960,base_link,0.08955170959234238,2.141878366470337,-0.015859384089708328,-0.0570654116672729,-0.40661553933581973,-0.005218470511301268
1737286258.9052248,20857,1737286258,903458560,base_link,0.0620126873254776,2.2065553665161133,-0.006578061729669571,-0.16198146882251063,-0.20898209572601817,-0.06926401068734665
1737286258.9968925,20858,1737286258,994456000,base_link,0.06679093837738037,2.2054190635681152,-0.06036151945590973,0.44173161435972474,0.13068150331495054,0.12971205362587743
1737286259.1059618,20859,1737286259,104449088,base_link,0.0679054781794548,2.1979477405548096,-0.09108876436948776,0.7431238856120342,0.33542604113956853,0.11241113725487183
1737286259.1970055,20860,1737286259,195442944,base_link,0.05399111285805702,2.191779375076294,-0.0042407214641571045,0.10537235902720776,-0.11833948744527126,0.08992031679591936
1737286259.3044448,20861,1737286259,302436544,base_link,0.03141546994447708,2.135547161102295,-0.08999204635620117,-0.09824716835167317,-0.08098998345093213,0.11959353329121927
1737286259.3964083,20862,1737286259,394432448,base_link,0.01670013554394245,2.0624778270721436,-0.09462565928697586,0.12021687460320732,0.0273750652579101,0.15999061873141318
1737286259.5003312,20863,1737286259,498425536,base_link,0.015550087206065655,1.962632656097412,-0.04428956285119057,0.34588917764351207,-0.1363216768107831,-0.048281222840623625
1737286259.5974047,20864,1737286259,594420416,base_link,-0.014848724007606506,1.8700931072235107,-0.14781010150909424,0.4650096540624383,0.09859229854439619,-0.1456566676443271
1737286259.706196,20865,1737286259,704412992,base_link,-0.01702927239239216,1.7269917726516724,-0.14351215958595276,0.32975845164255324,-0.15032468666468404,-0.20687967104809366
1737286259.7976165,20866,1737286259,795406336,base_link,-0.036402516067028046,1.5837888717651367,-0.08351132273674011,-0.038625485672362,0.1321478222278194,0.1486431826788354
1737286259.902232,20867,1737286259,900402752,base_link,-0.05697173625230789,1.4140383005142212,-0.1058216392993927,-0.09333295660066585,0.03712096368076153,0.15088705397260402
1737286259.9982903,20868,1737286259,996398656,base_link,-0.03890668973326683,1.2682849168777466,-0.0965050682425499,-0.647314062170664,-0.2252552516999206,0.11316828386371872
1737286260.1052048,20869,1737286260,103396096,base_link,-0.0590936504304409,1.1449463367462158,-0.1892416775226593,-0.6664283170110354,0.09526784676887923,0.04414902269588417
1737286260.1949947,20870,1737286260,193391744,base_link,-0.06967450678348541,1.070446491241455,-0.2045222818851471,-0.16951549998833024,0.012769631130524357,-0.007345890727093194
1737286260.3039136,20871,1737286260,300386880,base_link,-0.058068692684173584,1.016098976135254,-0.08256186544895172,-0.09630243840049668,-0.047469875031106494,-0.12549493181577223
1737286260.4011176,20872,1737286260,399383552,base_link,-0.07782068103551865,0.9990777373313904,-0.11852948367595673,0.27835495756636625,0.16029432751037523,-0.20228959178467473
1737286260.497496,20873,1737286260,495379456,base_link,-0.0833892673254013,0.9641493558883667,-0.1556619107723236,0.19326691828287051,0.19768135588117913,0.04228808522119901
1737286260.5974019,20874,1737286260,595373568,base_link,-0.08941508084535599,0.9602676033973694,-0.10787495225667953,0.0643399195051973,-0.07985519584611757,-0.0026253145140259014
1737286260.7043293,20875,1737286260,702369472,base_link,-0.06349469721317291,0.9245629906654358,-0.13675430417060852,0.4080914375240429,0.3682296623447572,-0.09719854376630492
1737286260.7994256,20876,1737286260,797370752,base_link,-0.035149093717336655,0.8957213759422302,-0.046817779541015625,-0.24268040673906469,0.022385223920358317,0.2834958835716088
1737286260.9065533,20877,1737286260,904370752,base_link,-0.05272316560149193,0.8564918041229248,-0.13458511233329773,-0.10164977427749927,-0.11056560062952588,0.08259416546545524
1737286260.997471,20878,1737286260,995356928,base_link,-0.014610789716243744,0.8176762461662292,-0.08668479323387146,0.15570406672459475,0.14239052737584318,0.06927339301838348
1737286261.096049,20879,1737286261,94366400,base_link,0.012777783907949924,0.7878188490867615,-0.03098098561167717,-0.07301726246122728,-0.026549607874739686,-0.023102889367798685
1737286261.1982234,20880,1737286261,196358720,base_link,0.03228192776441574,0.7571409940719604,-0.049223534762859344,0.039568904652497405,0.17263545043425307,0.04965524076816721
1737286261.2978404,20881,1737286261,295346432,base_link,0.06496794521808624,0.727939248085022,-0.04423864930868149,-0.12059239195741898,0.042406668617341776,0.09801910570622974
1737286261.3962507,20882,1737286261,395340288,base_link,0.07581920176744461,0.7036677598953247,-0.0415889248251915,0.34456876100761263,0.21531006686861043,0.05287100970727733
1737286261.5031955,20883,1737286261,501334656,base_link,0.08744237571954727,0.6741532683372498,-0.023237671703100204,-0.3018009849777239,-0.13552946356452378,0.21440234483428539
1737286261.5972762,20884,1737286261,595326464,base_link,0.10140334814786911,0.6605803966522217,0.03620173782110214,0.08209769146002267,0.05742269643782632,-0.16778097236935868
1737286261.7031364,20885,1737286261,702320576,base_link,0.1424248069524765,0.6206129789352417,0.06148579344153404,-0.21723781746143003,-0.018043616941386637,0.006038396098403118
1737286261.798118,20886,1737286261,796316480,base_link,0.17301982641220093,0.5832864046096802,0.06675650179386139,-0.3118211586662504,-0.11149020445914158,0.16171430299290246
1737286261.905047,20887,1737286261,903312896,base_link,0.1616850048303604,0.5646988749504089,0.023344334214925766,0.3201403861236715,0.05736750525436586,-0.07300367920485296
1737286261.996351,20888,1737286261,995309312,base_link,0.185075044631958,0.5269389748573303,0.03048761934041977,0.13521750870378987,0.14800834858309134,0.06298103724428268
1737286262.1080844,20889,1737286262,106300864,base_link,0.22672374546527863,0.4667310118675232,0.09704140573740005,0.2145039179822841,-0.23277158345448787,0.00931682116732125
1737286262.1973126,20890,1737286262,196298048,base_link,0.24856336414813995,0.4383380115032196,0.10742498934268951,0.16036459501425568,0.010773748018156334,0.058169277034577686
1737286262.301191,20891,1737286262,299293440,base_link,0.24736487865447998,0.37283414602279663,0.11758247017860413,0.2553140001690108,0.07614583539718027,0.12136515014122932
1737286262.3973825,20892,1737286262,396290112,base_link,0.20881271362304688,0.3272293508052826,0.09730574488639832,-0.4819653895386687,-0.32845639452122394,0.6256236424222028
1737286262.5042262,20893,1737286262,503286528,base_link,0.20884673297405243,0.24794834852218628,0.11336692422628403,-0.251801696663125,-0.17745307711691202,1.2625419891772471
1737286262.6042738,20894,1737286262,602281152,base_link,0.24522806704044342,0.1974421888589859,0.08580262213945389,0.23779619049617204,0.2797362578537371,1.544299526853049
1737286262.708349,20895,1737286262,707279360,base_link,0.20321188867092133,0.1321050226688385,0.06698262691497803,0.0530986514058695,0.41888777194827526,2.160013225837876
1737286262.8031516,20896,1737286262,801275776,base_link,0.31122666597366333,0.11525110900402069,0.11825481057167053,0.08295879548330666,-0.035254284072557415,2.917605505986166
1737286262.9174724,20897,1737286262,915271680,base_link,0.3048555552959442,0.029253285378217697,0.1275886446237564,0.10888004134459495,-0.046972767065088794,2.7522489085543063
1737286263.0075715,20898,1737286263,5266816,base_link,0.3329077363014221,0.03974068909883499,0.14228156208992004,-0.12987884043361375,-0.16145748590687772,2.695173319510789
1737286263.10261,20899,1737286263,101261184,base_link,0.33588847517967224,0.037075191736221313,0.21668988466262817,-0.16588191593882554,-0.0819874732426175,1.9511045454185925
1737286263.1996112,20900,1737286263,198257344,base_link,0.3322209119796753,0.034115273505449295,0.1931104212999344,0.05542927016278601,0.0080593005779286,1.3545189765663506
1737286263.3127677,20901,1737286263,311249664,base_link,0.2787017822265625,0.08366943150758743,0.19856689870357513,0.13618011962527285,0.16100711252012562,0.6078027763031828
1737286263.3961177,20902,1737286263,394246080,base_link,0.2930682599544525,0.017109211534261703,0.17264659702777863,0.003357671049370543,0.011005131866444261,-0.2712024774721151
1737286263.5020275,20903,1737286263,500241472,base_link,0.264289915561676,0.021184097975492477,0.15372571349143982,0.25021528219462075,-0.03098193070583405,-0.5320502930175018
1737286263.5988975,20904,1737286263,597241728,base_link,0.2754214406013489,-0.0046916441060602665,0.2149239331483841,-0.3347118569272624,0.13303337918650446,-0.201427270128796
1737286263.6979344,20905,1737286263,696242752,base_link,0.29475000500679016,0.02694331854581833,0.26741281151771545,-0.3962349789782416,0.022737503580599516,0.45842855954399
1737286263.8012474,20906,1737286263,799239168,base_link,0.2890807092189789,0.009824599139392376,0.3358412981033325,-0.031232275408662573,-0.16527026418593713,1.31973231885315
1737286263.9028375,20907,1737286263,901236608,base_link,0.296075701713562,-0.009199872612953186,0.3495514690876007,-0.467018186264075,0.12846783395281672,1.0346318163536863
1737286263.9987676,20908,1737286263,997234048,base_link,0.30155429244041443,0.01502133160829544,0.45913711190223694,-0.2970712138924791,0.2571598579180458,0.7096535489901997
1737286264.106347,20909,1737286264,104226368,base_link,0.2947348654270172,0.06500878930091858,0.546390950679779,-0.20235900206051227,0.1278041796275188,0.44000454272440065
1737286264.2004118,20910,1737286264,198223296,base_link,0.2569228708744049,0.10227438807487488,0.5174068808555603,0.2079030258863108,-0.06424643312372284,0.12908311534404665
1737286264.3040934,20911,1737286264,302220736,base_link,0.25188377499580383,0.12888824939727783,0.5581281781196594,0.15290860817611293,-0.06061408195830053,-0.08279252423884904
1737286264.3987856,20912,1737286264,396214336,base_link,0.2100825160741806,0.1491551399230957,0.5524027943611145,0.3501220032942881,-0.0438148637971088,-0.33419935602968426
1737286264.5049653,20913,1737286264,503208192,base_link,0.18378770351409912,0.1139010339975357,0.47617077827453613,-0.4535871221781205,0.06107891935295162,-0.3161938220399021
1737286264.5938854,20914,1737286264,592202560,base_link,0.13611885905265808,0.1331612467765808,0.5308550000190735,-0.36843603028802846,0.055651555399476166,-0.3088364402791843
1737286264.696108,20915,1737286264,694199744,base_link,0.04545209929347038,0.15312187373638153,0.5656998753547668,0.13276940365600984,-0.5785361381533917,0.15089072704876905
1737286264.7968528,20916,1737286264,795191296,base_link,-0.02794310823082924,0.15344078838825226,0.5234026312828064,-0.33638020111403494,-0.20273460822076023,0.07354084430196162
1737286264.9037142,20917,1737286264,902188224,base_link,-0.149531751871109,0.16800037026405334,0.5280689001083374,-0.2675858003180697,0.0969049604152922,0.0844598880215908
1737286264.99894,20918,1737286264,994185664,base_link,-0.27246832847595215,0.2002805769443512,0.5680827498435974,-0.3697496670308757,0.16765428763528326,0.06067301750925207
1737286265.1027782,20919,1737286265,101177472,base_link,-0.3531622886657715,0.21026647090911865,0.5578052401542664,-0.34639065994518387,0.7748002011828864,-0.17281599652643725
1737286265.1981578,20920,1737286265,195172864,base_link,-0.44584736227989197,0.2526646852493286,0.5458080768585205,-0.38451826001092826,0.4706349734551911,-0.023024915571590768
1737286265.304354,20921,1737286265,299168000,base_link,-0.4926198124885559,0.28344354033470154,0.4873434901237488,0.12126673730074213,0.04329966598664294,-0.07840424762001687
1737286265.3970394,20922,1737286265,395161088,base_link,-0.5231828093528748,0.32645294070243835,0.5679674744606018,0.16093573148761978,-0.06539471736432659,-0.1638114905409557
1737286265.5089717,20923,1737286265,505156480,base_link,-0.5970848798751831,0.3656466007232666,0.5325870513916016,0.23988590488050207,-0.4159643542291955,-0.08016335325428095
1737286265.5991263,20924,1737286265,597154432,base_link,-0.6656566858291626,0.3834172785282135,0.5328981876373291,0.5934059892323826,-0.6307469283446738,0.2402146588170762
1737286265.7033236,20925,1737286265,699147264,base_link,-0.7801331281661987,0.39839664101600647,0.5509155988693237,-0.16365253880765104,-0.23909688082416783,0.1199216154601532
1737286265.7950945,20926,1737286265,793142400,base_link,-0.901883065700531,0.3706859052181244,0.5402413606643677,0.000570217579450083,0.10998393326498514,-0.09552073055523044
1737286265.9072075,20927,1737286265,905137536,base_link,-1.059823751449585,0.3413466513156891,0.511685848236084,0.22412852485803222,-0.03070234180649622,0.007739147189978583
1737286265.996545,20928,1737286265,994132672,base_link,-1.1976101398468018,0.33049288392066956,0.5520682334899902,0.14690873484768655,0.09730364372911007,-0.12056393563152829
1737286266.10323,20929,1737286266,101127040,base_link,-1.3158023357391357,0.2900125980377197,0.5182168483734131,0.23592617536491192,-0.05057835286668819,0.12847190898639815
1737286266.1940687,20930,1737286266,193127296,base_link,-1.387533187866211,0.3003624975681305,0.5215051770210266,-0.3753173580585646,1.18144745509723,-0.15539778569968637
1737286266.3060417,20931,1737286266,304127296,base_link,-1.4494341611862183,0.3077666163444519,0.5230913162231445,-0.39309158319403337,0.30450108896404127,0.0748186095042994
1737286266.3981807,20932,1737286266,396127296,base_link,-1.4884041547775269,0.2975868880748749,0.6114424467086792,0.10054776442616482,0.031753174885140234,0.04374009594039658
1737286266.5003788,20933,1737286266,498127296,base_link,-1.463392972946167,0.26949605345726013,0.506138265132904,0.17718712879261153,0.01868979205391472,-0.015232377612708119
1737286266.5971074,20934,1737286266,595115776,base_link,-1.4705677032470703,0.2823948860168457,0.596198320388794,0.21955125655282928,-0.4132550050008361,0.13084325734896082
1737286266.705527,20935,1737286266,699110912,base_link,-1.4271931648254395,0.2593653202056885,0.5129523873329163,-0.19286156011331002,0.34097391408784095,-0.06485989832560762
1737286266.8001034,20936,1737286266,798108352,base_link,-1.4337289333343506,0.24330173432826996,0.49736523628234863,0.30776547164452095,-0.12024880050252001,-0.01002015753499488
1737286266.901324,20937,1737286266,900101440,base_link,-1.4277126789093018,0.22436769306659698,0.5129178166389465,0.20523318341277336,-0.0794751043628125,0.15796411044318348
1737286266.9983473,20938,1737286266,996098112,base_link,-1.4277615547180176,0.19232578575611115,0.5392777919769287,0.2659041128290134,0.0029617264687064396,-0.005375879441071707
1737286267.1030293,20939,1737286267,101092480,base_link,-1.4162073135375977,0.17134828865528107,0.5014850497245789,-0.2970416626987931,0.3645762228279515,-0.13152935249559372
1737286267.1940231,20940,1737286267,193085312,base_link,-1.3977538347244263,0.12504161894321442,0.5041354298591614,0.08661247238291717,0.048343179687587425,-0.14108028107507908
1737286267.3061159,20941,1737286267,305079680,base_link,-1.3836435079574585,0.10971522331237793,0.39846688508987427,0.09473097645502607,-0.0314856304208607,0.019053497028440235
1737286267.4013472,20942,1737286267,399074304,base_link,-1.3509182929992676,0.08486142754554749,0.40256091952323914,0.31255721426222083,-0.1085053190371911,0.04582829802137313
1737286267.5101674,20943,1737286267,509071744,base_link,-1.3312467336654663,0.08687079697847366,0.41844630241394043,0.20491951727594038,-0.00925804986236405,-0.12664064627904076
1737286267.6023686,20944,1737286267,601066112,base_link,-1.291421890258789,0.07741276919841766,0.41876065731048584,0.1342566962692164,-0.1951801281135688,0.16404074377165231
1737286267.7112978,20945,1737286267,708061760,base_link,-1.2705947160720825,0.05160723254084587,0.4139212369918823,0.43831298354046117,-0.18829275975764861,0.1784470129028389
1737286267.8061972,20946,1737286267,802055872,base_link,-1.2290675640106201,0.0561223141849041,0.3923686444759369,-0.17744722836130106,0.2310945093120335,-0.05089949375828815
1737286267.9079928,20947,1737286267,907050752,base_link,-1.16385018825531,0.020015913993120193,0.36740925908088684,-0.2682535393699412,0.46601780126167025,-0.15988599892048355
1737286268.0050983,20948,1737286268,3046912,base_link,-1.1248459815979004,0.02251589670777321,0.38023149967193604,-0.4212191655116312,0.47735285546454037,-0.04890476535559138
1737286268.1090481,20949,1737286268,108044352,base_link,-1.0735652446746826,0.034522734582424164,0.46314650774002075,-0.3025103431911184,0.3396575601747947,-0.025329257369214885
1737286268.19412,20950,1737286268,193040256,base_link,-1.0338125228881836,0.008897670544683933,0.4040689468383789,-0.17149771507630376,0.3244359321623969,-0.15470582415922296
1737286268.3050969,20951,1737286268,303037440,base_link,-0.9799418449401855,0.01046106219291687,0.3594595491886139,-0.20072174975525617,-0.03898000395636157,0.034723414707165105
1737286268.4031935,20952,1737286268,402034112,base_link,-0.9378404021263123,0.005058105103671551,0.4004201889038086,-0.24832876096766715,0.14372817895136997,0.04935777756041246
1737286268.5024478,20953,1737286268,501027968,base_link,-0.9049120545387268,0.014561864547431469,0.39910879731178284,-0.1963305770356096,0.3462288110887696,-0.15889725774647503
1737286268.5945973,20954,1737286268,593027968,base_link,-0.8786498308181763,-0.0015432164072990417,0.3439907431602478,-0.33135419691021056,0.3833556276676554,-0.1543219451723059
1737286268.7012055,20955,1737286268,699023872,base_link,-0.8500758409500122,0.034810230135917664,0.44427523016929626,-0.26222736908586136,0.1542614350814135,-0.06094849375618977
1737286268.7974236,20956,1737286268,796017216,base_link,-0.8124350309371948,0.017620114609599113,0.3608527183532715,-0.2734149528371052,0.3270999523921714,-0.08489639640553977
1737286268.902611,20957,1737286268,901011840,base_link,-0.79102623462677,0.04504423588514328,0.38041776418685913,-0.16288934245205375,0.14895749058458052,-0.10658422942361094
1737286268.9962401,20958,1737286268,994010048,base_link,-0.7662684321403503,0.029756950214505196,0.34325483441352844,0.11386412282005699,-0.20288010672744677,-0.03088769204062375
1737286269.105437,20959,1737286269,103006464,base_link,-0.7396541833877563,0.03871103748679161,0.37376341223716736,-0.1790030068191184,0.19795952216458165,-0.009724822077465056
1737286269.1934881,20960,1737286269,192002112,base_link,-0.7046797275543213,0.052575476467609406,0.38823604583740234,0.21365767305171623,-0.03717543797135056,-0.08592412932233537
1737286269.3061678,20961,1737286269,303997504,base_link,-0.6490185856819153,0.07076320052146912,0.42668166756629944,0.25943853770460196,-0.20591224530735075,-0.2827881781077583
1737286269.397522,20962,1737286269,395990592,base_link,-0.6204510927200317,0.11411279439926147,0.3640729486942291,-0.018881261417729965,0.3283427344668652,-0.3534348203150221
1737286269.5013268,20963,1737286269,499984704,base_link,-0.5512900352478027,0.12353906780481339,0.3752269446849823,-0.16036096970431338,-0.10343001831398693,-0.5726983467295871
1737286269.5958343,20964,1737286269,593981120,base_link,-0.5044844746589661,0.11356218159198761,0.36258837580680847,-0.2790369843287202,0.30722698642513935,-0.6193616527110655
1737286269.6964073,20965,1737286269,694975232,base_link,-0.4366336464881897,0.11502259969711304,0.4816124439239502,0.08132473480444673,-0.37987403128812464,-0.9145831541356659
1737286269.798719,20966,1737286269,796970880,base_link,-0.3953252136707306,0.16270364820957184,0.4407786726951599,0.11247360146729594,-0.3183463984253382,-1.151031889837438
1737286269.9055645,20967,1737286269,903967296,base_link,-0.32804301381111145,0.1880185455083847,0.44670718908309937,0.02055562112578777,0.03274060569139958,-1.5764986798425995
1737286269.9968288,20968,1737286269,994962176,base_link,-0.2922244369983673,0.19382387399673462,0.4286775588989258,0.08480565405787537,-0.37648522521134786,-1.8730769592577063
1737286270.1003993,20969,1737286270,98960640,base_link,-0.26419496536254883,0.16263151168823242,0.3613262474536896,-0.11075988278883549,0.049745004048378214,-2.0833222883782914
1737286270.197605,20970,1737286270,194957568,base_link,-0.22445043921470642,0.2055506855249405,0.4024340808391571,-0.20000875692128378,-0.44014155363465784,-1.5856972798549391
1737286270.2995787,20971,1737286270,297952448,base_link,-0.2557206451892853,0.1771235167980194,0.30751001834869385,-0.05245774843489713,-0.2711509935351015,-1.1383617138060917
1737286270.3956378,20972,1737286270,393949888,base_link,-0.18334555625915527,0.2223961353302002,0.3930976092815399,0.06506907196417946,0.38472280340847265,-0.7720336432882078
1737286270.5058093,20973,1737286270,503945024,base_link,-0.25348761677742004,0.21001559495925903,0.36487603187561035,0.06114179216203331,0.39826019120453615,0.004421959340036332
1737286270.5975723,20974,1737286270,595941184,base_link,-0.23058688640594482,0.17150096595287323,0.3091247081756592,0.1376343600219118,-0.13291924845968062,0.5459250014737764
1737286270.6998048,20975,1737286270,697936064,base_link,-0.16554619371891022,0.171980082988739,0.3689262568950653,0.20509073990114668,0.22975136291482007,0.5583231733430625
1737286270.7961602,20976,1737286270,793931968,base_link,-0.10836543887853622,0.11574041843414307,0.40292125940322876,0.5603379143858028,0.40893657543516904,0.5948345534749114
1737286270.896553,20977,1737286270,894927104,base_link,-0.03448762372136116,0.0523214191198349,0.34855133295059204,0.3440935147476178,0.4464044266434095,0.48000551252901097
1737286270.9956713,20978,1737286270,993920192,base_link,0.07138103991746902,-0.024362387135624886,0.41438889503479004,0.05307469227024346,0.1622407590851175,0.4880908748828873
1737286271.1034553,20979,1737286271,101912000,base_link,0.13745546340942383,-0.15630018711090088,0.43527376651763916,0.05419518178745212,-0.4120705030459064,-0.05808295761504534
1737286271.1950493,20980,1737286271,192905088,base_link,0.24431286752223969,-0.19250504672527313,0.4555373787879944,-0.09413407886777705,0.04775070237992994,0.06772233315831913
1737286271.306964,20981,1737286271,304906368,base_link,0.29299604892730713,-0.25278881192207336,0.4640817642211914,-0.6063887442314956,0.06723495215115378,-0.04670209437550973
1737286271.3956215,20982,1737286271,393900736,base_link,0.32363924384117126,-0.30818837881088257,0.4760397672653198,-0.2997910976816636,-0.3771647920443043,0.10928534015288249
1737286271.4995718,20983,1737286271,497894592,base_link,0.36439332365989685,-0.3395429849624634,0.4585866332054138,-0.12087283243612322,-0.19795327520144235,-0.13838405902565099
1737286271.5968142,20984,1737286271,594889984,base_link,0.3460099697113037,-0.3650555908679962,0.44560977816581726,-0.16513486887706183,0.3395775960126822,0.05307518694785224
1737286271.6957636,20985,1737286271,694883072,base_link,0.34628531336784363,-0.3734460473060608,0.41839608550071716,0.1815245602916603,0.05116613026811484,-0.025727845410733172
1737286271.797563,20986,1737286271,795878464,base_link,0.35211440920829773,-0.40555667877197266,0.4297276437282562,0.25913210614902416,0.5315396370103904,-0.07660113761066213
1737286271.9005907,20987,1737286271,898875392,base_link,0.3767034709453583,-0.42150047421455383,0.453875869512558,0.049980653400748,0.183188003222064,0.1478221981937271
1737286271.9996226,20988,1737286271,997872576,base_link,0.43423134088516235,-0.42962974309921265,0.40190762281417847,0.16302277728257047,-0.20336767871535555,0.1123494726052358
1737286272.1057308,20989,1737286272,103868736,base_link,0.47923657298088074,-0.455488920211792,0.4587244987487793,0.10175662773172725,0.36332159044737344,0.10182310581906057
1737286272.1965744,20990,1737286272,195864896,base_link,0.5428916811943054,-0.4866991341114044,0.4901646673679352,-0.05763791754989145,-0.3393111637251826,0.020574041735689472
1737286272.2987812,20991,1737286272,296859008,base_link,0.5861095786094666,-0.5401390790939331,0.4244421720504761,-0.061133404183229295,-0.3139006157452252,0.127227603734189
1737286272.3997188,20992,1737286272,398857472,base_link,0.6418277025222778,-0.5727487802505493,0.43774905800819397,-0.058986506804416895,-0.20598466638397114,0.04086254432515342
1737286272.5026474,20993,1737286272,500854400,base_link,0.6567578315734863,-0.6046662926673889,0.3685618042945862,-0.2131356173055725,-0.02786288257838054,0.0731947343929911
1737286272.5956824,20994,1737286272,594850048,base_link,0.6900800466537476,-0.6252573728561401,0.3696832060813904,-0.20507405562253658,-0.42795859370980727,0.045011814254085895
1737286272.7049558,20995,1737286272,703846976,base_link,0.6686150431632996,-0.6584837436676025,0.4112490117549896,-0.23148322721110984,-0.2881048302430933,0.1820360202001587
1737286272.8021069,20996,1737286272,799841088,base_link,0.6698179841041565,-0.6422955989837646,0.3456856608390808,0.014320565120171736,0.28679956030861675,0.09950146781848448
1737286272.9110003,20997,1737286272,909834688,base_link,0.6734777688980103,-0.6207447052001953,0.3788575828075409,-0.11029035126283068,-0.1964484023773722,0.153703271951023
1737286272.9998248,20998,1737286272,997829824,base_link,0.6599281430244446,-0.6231226921081543,0.38709038496017456,0.1590073537593705,0.34890095879929217,-0.06297336548207606
1737286273.1037748,20999,1737286273,101822656,base_link,0.6773562431335449,-0.6028726696968079,0.4402552843093872,0.042055648656829266,0.02180350753898861,-0.02004365731388809
1737286273.2028837,21000,1737286273,201819072,base_link,0.647436797618866,-0.6085695624351501,0.29230597615242004,-0.0168708162234917,-0.23804206202759218,-0.11958111829013195
1737286273.2998662,21001,1737286273,298814976,base_link,0.65240877866745,-0.6042200922966003,0.23543903231620789,0.026475310253379233,-0.25979709838455994,-0.06005985203441718
1737286273.4039714,21002,1737286273,402811904,base_link,0.6407936215400696,-0.6043254137039185,0.16533958911895752,-0.1966756967136382,-0.1200622491927313,-0.034436588252935614
1737286273.5089629,21003,1737286273,507808832,base_link,0.6375216245651245,-0.5906274914741516,0.11357130855321884,0.050638919006876844,-0.1760358267308619,-0.08616743953671095
1737286273.593834,21004,1737286273,592802176,base_link,0.6120256781578064,-0.5669100880622864,0.09563794732093811,-0.2861337048281463,0.060354348024572166,-0.16180698185921874
1737286273.7053244,21005,1737286273,703799616,base_link,0.5960248112678528,-0.5275680422782898,0.060364700853824615,-0.23558274582099126,0.06623611816814477,0.22739862977889005
1737286273.8050432,21006,1737286273,802797312,base_link,0.5588796138763428,-0.4698496162891388,0.08062368631362915,0.0646911056722207,0.08016767048750512,0.10403725561965409
1737286273.9062748,21007,1737286273,904792960,base_link,0.5086479187011719,-0.44673022627830505,0.026091018691658974,0.20078872466699904,0.43414356353369477,-0.2384580727968323
