Time,header.seq,header.stamp.secs,header.stamp.nsecs,header.frame_id,twist.linear.x,twist.linear.y,twist.linear.z,twist.angular.x,twist.angular.y,twist.angular.z
1737286240.2856963,20669,1737286240,60343808,map,0.1919678803411783,0.1074631700505576,0.0,0.0,0.0,0.0
1737286240.2860332,20670,1737286240,60340992,map,0.1919678803411783,0.1074631700505576,0.0,0.0,0.0,0.0
1737286240.291586,20671,1737286240,260335872,map,0.1396130038844933,0.07815503276404188,0.0,0.0,0.0,0.0
1737286240.3939812,20672,1737286240,260330752,map,0.1396130038844933,0.07815503276404188,0.0,0.0,0.0,0.0
1737286240.4939852,20673,1737286240,460325632,map,0.20069369308395912,0.11234785959831022,0.0,0.0,0.0,0.0
1737286240.5897834,20674,1737286240,460319744,map,0.20069369308395912,0.11234785959831022,0.0,0.0,0.0,0.0
1737286240.6929352,20675,1737286240,660313856,map,0.15706462937005494,0.08792441185954712,0.0,0.0,0.0,0.0
1737286240.7921405,20676,1737286240,660308224,map,0.15706462937005494,0.08792441185954712,0.0,0.0,0.0,0.0
1737286240.8963802,20677,1737286240,860302336,map,0.12216137839893164,0.06838565366853666,0.0,0.0,0.0,0.0
1737286240.9900913,20678,1737286240,860296960,map,0.12216137839893164,0.06838565366853666,0.0,0.0,0.0,0.0
1737286241.0977013,20679,1737286241,60291840,map,0.07853231468502747,0.04396220592977356,0.0,0.0,0.0,0.0
1737286241.195461,20680,1737286241,60286208,map,0.07853231468502747,0.04396220592977356,0.0,0.0,0.0,0.0
1737286241.2970736,20681,1737286241,260280832,map,0.1396130038844933,0.07815503276404188,0.0,0.0,0.0,0.0
1737286241.3930368,20682,1737286241,260275456,map,0.1396130038844933,0.07815503276404188,0.0,0.0,0.0,0.0
1737286241.4976873,20683,1737286241,460270080,map,0.13088719114171246,0.07327034321628927,0.0,0.0,0.0,0.0
1737286241.596153,20684,1737286241,460265984,map,0.13088719114171246,0.07327034321628927,0.0,0.0,0.0,0.0
1737286241.6910028,20685,1737286241,660259328,map,0.06980650194224665,0.03907751638202094,0.0,0.0,0.0,0.0
1737286241.7933784,20686,1737286241,660253440,map,0.06980650194224665,0.03907751638202094,0.0,0.0,0.0,0.0
1737286241.8960392,20687,1737286241,860249344,map,0.13088719114171246,0.07327034321628927,0.0,0.0,0.0,0.0
1737286241.991972,20688,1737286241,860245504,map,0.13088719114171246,0.07327034321628927,0.0,0.0,0.0,0.0
1737286242.094092,20689,1737286242,60243712,map,0.12216137839893164,0.06838565366853666,0.0,0.0,0.0,0.0
1737286242.192729,20690,1737286242,60239872,map,0.12216137839893164,0.06838565366853666,0.0,0.0,0.0,0.0
1737286242.296284,20691,1737286242,262237056,map,0.15706462937005494,0.08792441185954712,0.0,0.0,0.0,0.0
1737286242.3933835,20692,1737286242,262231936,map,0.15706462937005494,0.08792441185954712,0.0,0.0,0.0,0.0
1737286242.4976146,20693,1737286242,462229120,map,0.20941950582673993,0.11723254914606283,0.0,0.0,0.0,0.0
1737286242.5958388,20694,1737286242,462224000,map,0.20941950582673993,0.11723254914606283,0.0,0.0,0.0,0.0
1737286242.700522,20695,1737286242,662220160,map,0.14833881662727413,0.08303972231179452,0.0,0.0,0.0,0.0
1737286242.792936,20696,1737286242,662215552,map,0.14833881662727413,0.08303972231179452,0.0,0.0,0.0,0.0
1737286242.8922522,20697,1737286242,862209920,map,0.15706462937005494,0.08792441185954712,0.0,0.0,0.0,0.0
1737286242.9914067,20698,1737286242,862207104,map,0.15706462937005494,0.08792441185954712,0.0,0.0,0.0,0.0
1737286243.095991,20699,1737286243,62199680,map,0.09598394017058914,0.0537315850252788,0.0,0.0,0.0,0.0
1737286243.193835,20700,1737286243,62195840,map,0.09598394017058914,0.0537315850252788,0.0,0.0,0.0,0.0
1737286243.291805,20701,1737286243,262188160,map,0.17451625485561661,0.09769379095505237,0.0,0.0,0.0,0.0
1737286243.3948848,20702,1737286243,262184320,map,0.17451625485561661,0.09769379095505237,0.0,0.0,0.0,0.0
1737286243.495995,20703,1737286243,462177664,map,0.15706462937005494,0.08792441185954712,0.0,0.0,0.0,0.0
1737286243.5944943,20704,1737286243,462172800,map,0.15706462937005494,0.08792441185954712,0.0,0.0,0.0,0.0
1737286243.69633,20705,1737286243,662165632,map,0.1919678803411783,0.1074631700505576,0.0,0.0,0.0,0.0
1737286243.7941957,20706,1737286243,662161792,map,0.1919678803411783,0.1074631700505576,0.0,0.0,0.0,0.0
1737286243.8985116,20707,1737286243,862154112,map,0.043629063713904154,0.024423447738763093,0.0,0.0,0.0,0.0
1737286243.9924312,20708,1737286243,862145152,map,0.043629063713904154,0.024423447738763093,0.0,0.0,0.0,0.0
1737286244.1000187,20709,1737286244,62142336,map,0.05235487645668498,0.02930813728651571,0.0,0.0,0.0,0.0
1737286244.1925611,20710,1737286244,62142336,map,0.05235487645668498,0.02930813728651571,0.0,0.0,0.0,0.0
1737286244.296531,20711,1737286244,262132352,map,0.10470975291336997,0.05861627457303142,0.0,0.0,0.0,0.0
1737286244.3938313,20712,1737286244,262132352,map,0.10470975291336997,0.05861627457303142,0.0,0.0,0.0,0.0
1737286244.492827,20713,1737286244,462132352,map,0.06108068919946582,0.03419282683426833,0.0,0.0,0.0,0.0
1737286244.5903382,20714,1737286244,462121344,map,0.06108068919946582,0.03419282683426833,0.0,0.0,0.0,0.0
1737286244.6939743,20715,1737286244,662114432,map,0.017451625485561662,0.009769379095505236,0.0,0.0,0.0,0.0
1737286244.791125,20716,1737286244,662103680,map,0.017451625485561662,0.009769379095505236,0.0,0.0,0.0,0.0
1737286244.8949351,20717,1737286244,862099584,map,0.0,0.0,0.0,0.0,0.0,0.0
1737286244.9909346,20718,1737286244,862099584,map,0.0,0.0,0.0,0.0,0.0,0.0
1737286245.0981982,20719,1737286245,62098304,map,0.043629063713904154,0.024423447738763093,0.0,0.0,0.0,0.0
1737286245.1909945,20720,1737286245,62094208,map,0.043629063713904154,0.024423447738763093,0.0,0.0,0.0,0.0
1737286245.295203,20721,1737286245,262090624,map,0.1134355656561508,0.06350096412078404,0.0,0.0,0.0,0.0
1737286245.3933134,20722,1737286245,262086784,map,0.1134355656561508,0.06350096412078404,0.0,0.0,0.0,0.0
1737286245.5002587,20723,1737286245,462083456,map,0.09598394017058914,0.0537315850252788,0.0,0.0,0.0,0.0
1737286245.5939512,20724,1737286245,462077824,map,0.09598394017058914,0.0537315850252788,0.0,0.0,0.0,0.0
1737286245.6984665,20725,1737286245,662071424,map,0.10470975291336997,0.05861627457303142,0.0,0.0,0.0,0.0
1737286245.794861,20726,1737286245,662067328,map,0.10470975291336997,0.05861627457303142,0.0,0.0,0.0,0.0
1737286245.8987992,20727,1737286245,862061952,map,0.15706462937005494,0.08792441185954712,0.0,0.0,0.0,0.0
1737286245.997722,20728,1737286245,862057344,map,0.15706462937005494,0.08792441185954712,0.0,0.0,0.0,0.0
1737286246.110782,20729,1737286246,62051712,map,0.05235487645668498,0.02930813728651571,0.0,0.0,0.0,0.0
1737286246.205941,20730,1737286246,62048640,map,0.05235487645668498,0.02930813728651571,0.0,0.0,0.0,0.0
1737286246.3026762,20731,1737286246,262040704,map,0.06108068919946582,0.03419282683426833,0.0,0.0,0.0,0.0
1737286246.3994575,20732,1737286246,262034048,map,0.06108068919946582,0.03419282683426833,0.0,0.0,0.0,0.0
1737286246.4949548,20733,1737286246,462030720,map,0.06980650194224665,0.03907751638202094,0.0,0.0,0.0,0.0
1737286246.5922678,20734,1737286246,462023296,map,0.06980650194224665,0.03907751638202094,0.0,0.0,0.0,0.0
1737286246.690173,20735,1737286246,662017408,map,0.07853231468502747,0.04396220592977356,0.0,0.0,0.0,0.0
1737286246.7985737,20736,1737286246,662011264,map,0.07853231468502747,0.04396220592977356,0.0,0.0,0.0,0.0
1737286246.9050598,20737,1737286246,862009216,map,0.07853231468502747,0.04396220592977356,0.0,0.0,0.0,0.0
1737286246.9907358,20738,1737286246,862004096,map,0.07853231468502747,0.04396220592977356,0.0,0.0,0.0,0.0
1737286247.1069567,20739,1737286247,61992576,map,0.05235487645668498,0.02930813728651571,0.0,0.0,0.0,0.0
1737286247.191595,20740,1737286247,61993856,map,0.05235487645668498,0.02930813728651571,0.0,0.0,0.0,0.0
1737286247.2931485,20741,1737286247,261992064,map,0.06108068919946582,0.03419282683426833,0.0,0.0,0.0,0.0
1737286247.392654,20742,1737286247,261992064,map,0.06108068919946582,0.03419282683426833,0.0,0.0,0.0,0.0
1737286247.4947176,20743,1737286247,461986688,map,0.0,0.0,0.0,0.0,0.0,0.0
1737286247.5935118,20744,1737286247,461984896,map,0.0,0.0,0.0,0.0,0.0,0.0
1737286247.6907988,20745,1737286247,661980544,map,0.07853231468502747,0.04396220592977356,0.0,0.0,0.0,0.0
1737286247.7950366,20746,1737286247,661974912,map,0.07853231468502747,0.04396220592977356,0.0,0.0,0.0,0.0
1737286247.8990633,20747,1737286247,861968256,map,0.1134355656561508,0.06350096412078404,0.0,0.0,0.0,0.0
1737286247.993017,20748,1737286247,861962624,map,0.1134355656561508,0.06350096412078404,0.0,0.0,0.0,0.0
1737286248.0996,20749,1737286248,61958528,map,0.008725812742780831,0.004884689547752618,0.0,0.0,0.0,0.0
1737286248.1936057,20750,1737286248,61952128,map,0.008725812742780831,0.004884689547752618,0.0,0.0,0.0,0.0
1737286248.2968664,20751,1737286248,261945984,map,0.12216137839893164,0.06838565366853666,0.0,0.0,0.0,0.0
1737286248.3915784,20752,1737286248,261941376,map,0.12216137839893164,0.06838565366853666,0.0,0.0,0.0,0.0
1737286248.4937787,20753,1737286248,261938560,map,0.12216137839893164,0.06838565366853666,0.0,0.0,0.0,0.0
1737286248.5945244,20754,1737286248,461933952,map,0.10470975291336997,0.05861627457303142,0.0,0.0,0.0,0.0
1737286248.6986578,20755,1737286248,661929088,map,0.07853231468502747,0.04396220592977356,0.0,0.0,0.0,0.0
1737286248.794529,20756,1737286248,661923200,map,0.07853231468502747,0.04396220592977356,0.0,0.0,0.0,0.0
1737286248.8983717,20757,1737286248,861920896,map,0.043629063713904154,0.024423447738763093,0.0,0.0,0.0,0.0
1737286248.991398,20758,1737286248,861916800,map,0.043629063713904154,0.024423447738763093,0.0,0.0,0.0,0.0
1737286249.0982583,20759,1737286249,61910400,map,0.13088719114171246,0.07327034321628927,0.0,0.0,0.0,0.0
1737286249.196834,20760,1737286249,61905280,map,0.13088719114171246,0.07327034321628927,0.0,0.0,0.0,0.0
1737286249.2980275,20761,1737286249,261900160,map,0.06980650194224665,0.03907751638202094,0.0,0.0,0.0,0.0
1737286249.3927786,20762,1737286249,261894272,map,0.06980650194224665,0.03907751638202094,0.0,0.0,0.0,0.0
1737286249.4950845,20763,1737286249,461888896,map,0.05235487645668498,0.02930813728651571,0.0,0.0,0.0,0.0
1737286249.5937297,20764,1737286249,461883264,map,0.05235487645668498,0.02930813728651571,0.0,0.0,0.0,0.0
1737286249.6930757,20765,1737286249,661878912,map,0.08725812742780831,0.04884689547752619,0.0,0.0,0.0,0.0
1737286249.794833,20766,1737286249,661872512,map,0.08725812742780831,0.04884689547752619,0.0,0.0,0.0,0.0
1737286249.899406,20767,1737286249,861869440,map,0.07853231468502747,0.04396220592977356,0.0,0.0,0.0,0.0
1737286249.9931397,20768,1737286249,861878144,map,0.07853231468502747,0.04396220592977356,0.0,0.0,0.0,0.0
1737286250.0950472,20769,1737286250,61867392,map,0.05235487645668498,0.02930813728651571,0.0,0.0,0.0,0.0
1737286250.1961539,20770,1737286250,61857408,map,0.05235487645668498,0.02930813728651571,0.0,0.0,0.0,0.0
1737286250.298488,20771,1737286250,61850496,map,0.05235487645668498,0.02930813728651571,0.0,0.0,0.0,0.0
1737286250.3929453,20772,1737286250,261841536,map,0.08725812742780831,0.04884689547752619,0.0,0.0,0.0,0.0
1737286250.502376,20773,1737286250,461836928,map,0.05235487645668498,0.02930813728651571,0.0,0.0,0.0,0.0
1737286250.5928085,20774,1737286250,461833856,map,0.05235487645668498,0.02930813728651571,0.0,0.0,0.0,0.0
1737286250.6950295,20775,1737286250,661833856,map,0.017451625485561662,0.009769379095505236,0.0,0.0,0.0,0.0
1737286250.7938726,20776,1737286250,661833344,map,0.017451625485561662,0.009769379095505236,0.0,0.0,0.0,0.0
1737286250.898981,20777,1737286250,861828992,map,0.05235487645668498,0.02930813728651571,0.0,0.0,0.0,0.0
1737286250.9919064,20778,1737286250,861827456,map,0.05235487645668498,0.02930813728651571,0.0,0.0,0.0,0.0
1737286251.1023576,20779,1737286251,61818752,map,0.05235487645668498,0.02930813728651571,0.0,0.0,0.0,0.0
1737286251.1928124,20780,1737286251,61812096,map,0.05235487645668498,0.02930813728651571,0.0,0.0,0.0,0.0
1737286251.3021417,20781,1737286251,261807488,map,0.05235487645668498,0.02930813728651571,0.0,0.0,0.0,0.0
1737286251.3944354,20782,1737286251,261801088,map,0.05235487645668498,0.02930813728651571,0.0,0.0,0.0,0.0
1737286251.4954216,20783,1737286251,461796480,map,0.017451625485561662,0.009769379095505236,0.0,0.0,0.0,0.0
1737286251.595544,20784,1737286251,461793664,map,0.017451625485561662,0.009769379095505236,0.0,0.0,0.0,0.0
1737286251.7008996,20785,1737286251,661787264,map,0.02617743822834249,0.014654068643257854,0.0,0.0,0.0,0.0
1737286251.7982607,20786,1737286251,661780864,map,0.02617743822834249,0.014654068643257854,0.0,0.0,0.0,0.0
1737286251.906429,20787,1737286251,861777536,map,0.034903250971123324,0.01953875819101047,0.0,0.0,0.0,0.0
1737286252.0012288,20788,1737286251,861774976,map,0.034903250971123324,0.01953875819101047,0.0,0.0,0.0,0.0
1737286252.095435,20789,1737286252,61766784,map,0.017451625485561662,0.009769379095505236,0.0,0.0,0.0,0.0
1737286252.1894588,20790,1737286252,61761664,map,0.017451625485561662,0.009769379095505236,0.0,0.0,0.0,0.0
1737286252.3032277,20791,1737286252,261757568,map,0.02617743822834249,0.014654068643257854,0.0,0.0,0.0,0.0
1737286252.393298,20792,1737286252,261755264,map,0.02617743822834249,0.014654068643257854,0.0,0.0,0.0,0.0
1737286252.4921827,20793,1737286252,461749376,map,0.043629063713904154,0.024423447738763093,0.0,0.0,0.0,0.0
1737286252.5903492,20794,1737286252,461745024,map,0.043629063713904154,0.024423447738763093,0.0,0.0,0.0,0.0
1737286252.6920993,20795,1737286252,661738880,map,0.06108068919946582,0.03419282683426833,0.0,0.0,0.0,0.0
1737286252.7916455,20796,1737286252,661741184,map,0.06108068919946582,0.03419282683426833,0.0,0.0,0.0,0.0
1737286252.9009185,20797,1737286252,861740160,map,0.06108068919946582,0.03419282683426833,0.0,0.0,0.0,0.0
1737286252.99089,20798,1737286252,861734272,map,0.06108068919946582,0.03419282683426833,0.0,0.0,0.0,0.0
1737286253.0988312,20799,1737286253,61727872,map,0.06108068919946582,0.03419282683426833,0.0,0.0,0.0,0.0
1737286253.192717,20800,1737286253,61719168,map,0.06108068919946582,0.03419282683426833,0.0,0.0,0.0,0.0
1737286253.2980187,20801,1737286253,261714048,map,0.08725812742780831,0.04884689547752619,0.0,0.0,0.0,0.0
1737286253.3930185,20802,1737286253,261707392,map,0.08725812742780831,0.04884689547752619,0.0,0.0,0.0,0.0
1737286253.5023618,20803,1737286253,461702272,map,0.07853231468502747,0.04396220592977356,0.0,0.0,0.0,0.0
1737286253.5912497,20804,1737286253,461700224,map,0.07853231468502747,0.04396220592977356,0.0,0.0,0.0,0.0
1737286253.6926396,20805,1737286253,661695872,map,0.043629063713904154,0.024423447738763093,0.0,0.0,0.0,0.0
1737286253.7938745,20806,1737286253,661693056,map,0.043629063713904154,0.024423447738763093,0.0,0.0,0.0,0.0
1737286253.893331,20807,1737286253,861687168,map,0.06980650194224665,0.03907751638202094,0.0,0.0,0.0,0.0
1737286253.9905093,20808,1737286253,861683072,map,0.06980650194224665,0.03907751638202094,0.0,0.0,0.0,0.0
1737286254.0990345,20809,1737286254,61680768,map,0.07234060637159515,0.1971467389276067,0.0,0.0,0.0,0.0
1737286254.1946902,20810,1737286254,61675648,map,0.07234060637159515,0.1971467389276067,0.0,0.0,0.0,0.0
1737286254.2981164,20811,1737286254,261668480,map,-0.02592525972683539,0.2687524528410785,0.0,0.0,0.0,0.0
1737286254.3921354,20812,1737286254,261665408,map,-0.02592525972683539,0.2687524528410785,0.0,0.0,0.0,0.0
1737286254.5024571,20813,1737286254,461661312,map,-0.04637845200519592,0.3368219695768104,0.0,0.0,0.0,0.0
1737286254.5934896,20814,1737286254,461656448,map,-0.04637845200519592,0.3368219695768104,0.0,0.0,0.0,0.0
1737286254.6894298,20815,1737286254,461652096,map,-0.04637845200519592,0.3368219695768104,0.0,0.0,0.0,0.0
1737286254.791048,20816,1737286254,661649792,map,0.003879802928965999,0.3899807009702306,0.0,0.0,0.0,0.0
1737286254.8964846,20817,1737286254,861647744,map,-0.00021293016441875336,0.6099999628366751,0.0,0.0,0.0,0.0
1737286254.992352,20818,1737286254,861643904,map,-0.00021293016441875336,0.6099999628366751,0.0,0.0,0.0,0.0
1737286255.0995367,20819,1737286255,61639296,map,0.0010053092357317625,0.6399992104318103,0.0,0.0,0.0,0.0
1737286255.191495,20820,1737286255,61635456,map,0.0010053092357317625,0.6399992104318103,0.0,0.0,0.0,0.0
1737286255.2955918,20821,1737286255,261630336,map,0.03370672180430389,0.6991879982559821,0.0,0.0,0.0,0.0
1737286255.3931828,20822,1737286255,261631104,map,0.03370672180430389,0.6991879982559821,0.0,0.0,0.0,0.0
1737286255.4956868,20823,1737286255,461621632,map,0.07084186819638727,0.7466467904641697,0.0,0.0,0.0,0.0
1737286255.590679,20824,1737286255,461607552,map,0.07084186819638727,0.7466467904641697,0.0,0.0,0.0,0.0
1737286255.6935775,20825,1737286255,661607552,map,0.06363917728319989,0.6770155501277039,0.0,0.0,0.0,0.0
1737286255.7932808,20826,1737286255,661620096,map,0.06363917728319989,0.6770155501277039,0.0,0.0,0.0,0.0
1737286255.8956962,20827,1737286255,661610880,map,0.06363917728319989,0.6770155501277039,0.0,0.0,0.0,0.0
1737286255.9947255,20828,1737286255,861603712,map,0.056626351363453634,0.6977058522982752,0.0,0.0,0.0,0.0
1737286256.0935855,20829,1737286256,61597312,map,0.042361417602623117,0.6586391351101878,0.0,0.0,0.0,0.0
1737286256.1926599,20830,1737286256,61591680,map,0.042361417602623117,0.6586391351101878,0.0,0.0,0.0,0.0
1737286256.294755,20831,1737286256,261587584,map,0.029546102369255256,0.5792469489214298,0.0,0.0,0.0,0.0
1737286256.390935,20832,1737286256,261584256,map,0.029546102369255256,0.5792469489214298,0.0,0.0,0.0,0.0
1737286256.4987981,20833,1737286256,461579648,map,-0.01012239573362498,0.5799116631907069,0.0,0.0,0.0,0.0
1737286256.5898807,20834,1737286256,461578112,map,-0.01012239573362498,0.5799116631907069,0.0,0.0,0.0,0.0
1737286256.6938093,20835,1737286256,661574272,map,-0.02721779287755285,0.5993823418744287,0.0,0.0,0.0,0.0
1737286256.7977123,20836,1737286256,661571968,map,-0.02721779287755285,0.5993823418744287,0.0,0.0,0.0,0.0
1737286256.9036784,20837,1737286256,861564800,map,-0.058438245675707136,0.6774842960854117,0.0,0.0,0.0,0.0
1737286256.998515,20838,1737286256,861560960,map,-0.058438245675707136,0.6774842960854117,0.0,0.0,0.0,0.0
1737286257.0967681,20839,1737286257,61553536,map,-0.025629324215555267,0.6795168413956008,0.0,0.0,0.0,0.0
1737286257.1967807,20840,1737286257,61546624,map,-0.025629324215555267,0.6795168413956008,0.0,0.0,0.0,0.0
1737286257.301698,20841,1737286257,261541248,map,0.01903692411256226,1.009820575904617,0.0,0.0,0.0,0.0
1737286257.3977885,20842,1737286257,261535616,map,0.01903692411256226,1.009820575904617,0.0,0.0,0.0,0.0
1737286257.5017347,20843,1737286257,461532544,map,0.06274478938592834,1.0881925801092909,0.0,0.0,0.0,0.0
1737286257.5926468,20844,1737286257,461531776,map,0.06274478938592834,1.0881925801092909,0.0,0.0,0.0,0.0
1737286257.7028892,20845,1737286257,661525120,map,0.12386512980599182,1.284039496907375,0.0,0.0,0.0,0.0
1737286257.7939713,20846,1737286257,661522048,map,0.12386512980599182,1.284039496907375,0.0,0.0,0.0,0.0
1737286257.9007616,20847,1737286257,861518720,map,0.14233011142171484,1.3123041337215555,0.0,0.0,0.0,0.0
1737286257.9909568,20848,1737286257,861513344,map,0.14233011142171484,1.3123041337215555,0.0,0.0,0.0,0.0
1737286258.094073,20849,1737286258,61504640,map,0.15566220922411658,1.6225502385502482,0.0,0.0,0.0,0.0
1737286258.1930902,20850,1737286258,61496960,map,0.15566220922411658,1.6225502385502482,0.0,0.0,0.0,0.0
1737286258.2962224,20851,1737286258,261490304,map,0.1616319668888318,1.7324765820292196,0.0,0.0,0.0,0.0
1737286258.3891354,20852,1737286258,261488512,map,0.1616319668888318,1.7324765820292196,0.0,0.0,0.0,0.0
1737286258.496139,20853,1737286258,461483648,map,0.18837383739969712,1.9006881115488972,0.0,0.0,0.0,0.0
1737286258.5903904,20854,1737286258,461477760,map,0.18837383739969712,1.9006881115488972,0.0,0.0,0.0,0.0
1737286258.6959562,20855,1737286258,661472896,map,0.21828822445981677,2.108731905924075,0.0,0.0,0.0,0.0
1737286258.7932994,20856,1737286258,661464960,map,0.21828822445981677,2.108731905924075,0.0,0.0,0.0,0.0
1737286258.8940856,20857,1737286258,861458560,map,0.2321567534233806,2.258097261377356,0.0,0.0,0.0,0.0
1737286258.9909248,20858,1737286258,861456000,map,0.2321567534233806,2.258097261377356,0.0,0.0,0.0,0.0
1737286259.0981386,20859,1737286259,61449088,map,0.1990096050643077,2.221102243727683,0.0,0.0,0.0,0.0
1737286259.192153,20860,1737286259,61442944,map,0.1990096050643077,2.221102243727683,0.0,0.0,0.0,0.0
1737286259.2916925,20861,1737286259,61436544,map,0.1990096050643077,2.221102243727683,0.0,0.0,0.0,0.0
1737286259.390737,20862,1737286259,261432448,map,0.20347799175212183,2.32109816829718,0.0,0.0,0.0,0.0
1737286259.4960322,20863,1737286259,461425536,map,0.11971666096590657,2.2468128362387407,0.0,0.0,0.0,0.0
1737286259.5924366,20864,1737286259,461420416,map,0.11971666096590657,2.2468128362387407,0.0,0.0,0.0,0.0
1737286259.700042,20865,1737286259,661412992,map,-0.003141591361662052,1.999997532599407,0.0,0.0,0.0,0.0
1737286259.795417,20866,1737286259,661406336,map,-0.003141591361662052,1.999997532599407,0.0,0.0,0.0,0.0
1737286259.896802,20867,1737286259,861402752,map,-0.06407331053888816,1.6987921034890017,0.0,0.0,0.0,0.0
1737286259.9915314,20868,1737286259,861398656,map,-0.06407331053888816,1.6987921034890017,0.0,0.0,0.0,0.0
1737286260.095468,20869,1737286260,61396096,map,-0.13318136113465057,1.4438707438847571,0.0,0.0,0.0,0.0
1737286260.1904259,20870,1737286260,61391744,map,-0.13318136113465057,1.4438707438847571,0.0,0.0,0.0,0.0
1737286260.293799,20871,1737286260,261386880,map,-0.24994051879291188,1.3368357180542156,0.0,0.0,0.0,0.0
1737286260.3941488,20872,1737286260,261383552,map,-0.24994051879291188,1.3368357180542156,0.0,0.0,0.0,0.0
1737286260.4932375,20873,1737286260,261379456,map,-0.24994051879291188,1.3368357180542156,0.0,0.0,0.0,0.0
1737286260.5906763,20874,1737286260,461373568,map,-0.37163656189132005,1.1829988444058597,0.0,0.0,0.0,0.0
1737286260.7004945,20875,1737286260,661369472,map,-0.36768938722572864,1.1001838548722518,0.0,0.0,0.0,0.0
1737286260.7932749,20876,1737286260,661370752,map,-0.36768938722572864,1.1001838548722518,0.0,0.0,0.0,0.0
1737286260.8956125,20877,1737286260,861370752,map,-0.31445333842153766,0.9598015930157388,0.0,0.0,0.0,0.0
1737286260.9924026,20878,1737286260,861356928,map,-0.31445333842153766,0.9598015930157388,0.0,0.0,0.0,0.0
1737286261.091702,20879,1737286261,61366400,map,-0.3049260917174136,0.878589823859771,0.0,0.0,0.0,0.0
1737286261.1920173,20880,1737286261,61358720,map,-0.3049260917174136,0.878589823859771,0.0,0.0,0.0,0.0
1737286261.296355,20881,1737286261,261346432,map,-0.2910798042150536,0.8516293487064229,0.0,0.0,0.0,0.0
1737286261.3910158,20882,1737286261,261340288,map,-0.2910798042150536,0.8516293487064229,0.0,0.0,0.0,0.0
1737286261.4981177,20883,1737286261,461334656,map,-0.25776099050188744,0.7994743721818016,0.0,0.0,0.0,0.0
1737286261.5924716,20884,1737286261,461326464,map,-0.25776099050188744,0.7994743721818016,0.0,0.0,0.0,0.0
1737286261.6962724,20885,1737286261,661320576,map,-0.18910620480034626,0.6323281136451309,0.0,0.0,0.0,0.0
1737286261.7931635,20886,1737286261,661316480,map,-0.18910620480034626,0.6323281136451309,0.0,0.0,0.0,0.0
1737286261.8975499,20887,1737286261,861312896,map,-0.12940787747294877,0.5756332176377126,0.0,0.0,0.0,0.0
1737286261.992149,20888,1737286261,861309312,map,-0.12940787747294877,0.5756332176377126,0.0,0.0,0.0,0.0
1737286262.1035013,20889,1737286262,61300864,map,-0.1024259256199103,0.5098126418213897,0.0,0.0,0.0,0.0
1737286262.1925688,20890,1737286262,61298048,map,-0.1024259256199103,0.5098126418213897,0.0,0.0,0.0,0.0
1737286262.291589,20891,1737286262,61293440,map,-0.1024259256199103,0.5098126418213897,0.0,0.0,0.0,0.0
1737286262.389832,20892,1737286262,262290112,map,-0.05590303366549549,0.4263506195926007,0.0,0.0,0.0,0.0
1737286262.4991477,20893,1737286262,462286528,map,-0.01940044708515225,0.3995292513107097,0.0,0.0,0.0,0.0
1737286262.598548,20894,1737286262,462281152,map,-0.01940044708515225,0.3995292513107097,0.0,0.0,0.0,0.0
1737286262.6977148,20895,1737286262,662279360,map,-0.010670245896833738,0.21974108822089033,0.0,0.0,0.0,0.0
1737286262.7885416,20896,1737286262,662275776,map,-0.010670245896833738,0.21974108822089033,0.0,0.0,0.0,0.0
1737286262.9043639,20897,1737286262,862271680,map,-0.010670245896833738,0.21974108822089033,0.0,0.0,0.0,0.0
1737286262.9940352,20898,1737286262,862266816,map,-0.010670245896833738,0.21974108822089033,0.0,0.0,0.0,0.0
1737286263.0916195,20899,1737286262,862261184,map,-0.010670245896833738,0.21974108822089033,0.0,0.0,0.0,0.0
1737286263.1927578,20900,1737286263,62257344,map,-0.0024250558856440314,0.049941156413838714,0.0,0.0,0.0,0.0
1737286263.301477,20901,1737286263,262249664,map,-0.012610290605348963,0.2596940133519613,0.0,0.0,0.0,0.0
1737286263.3902657,20902,1737286263,262246080,map,-0.012610290605348963,0.2596940133519613,0.0,0.0,0.0,0.0
1737286263.4893668,20903,1737286263,262241472,map,-0.012610290605348963,0.2596940133519613,0.0,0.0,0.0,0.0
1737286263.5944638,20904,1737286263,462241728,map,0.40130136517418175,0.18043617793928693,0.0,0.0,0.0,0.0
1737286263.6935318,20905,1737286263,462242752,map,0.40130136517418175,0.18043617793928693,0.0,0.0,0.0,0.0
1737286263.794491,20906,1737286263,662239168,map,0.4438737154312736,-0.20754788543667882,0.0,0.0,0.0,0.0
1737286263.8970535,20907,1737286263,862236608,map,0.3395284299193303,-0.247225494794761,0.0,0.0,0.0,0.0
1737286263.9950185,20908,1737286263,862234048,map,0.3395284299193303,-0.247225494794761,0.0,0.0,0.0,0.0
1737286264.0994298,20909,1737286264,62226368,map,0.45791178999743914,-0.5027094514541588,0.0,0.0,0.0,0.0
1737286264.1935732,20910,1737286264,62223296,map,0.45791178999743914,-0.5027094514541588,0.0,0.0,0.0,0.0
1737286264.2913873,20911,1737286264,262220736,map,0.34786494322313993,-0.5132153361663714,0.0,0.0,0.0,0.0
1737286264.393424,20912,1737286264,262214336,map,0.34786494322313993,-0.5132153361663714,0.0,0.0,0.0,0.0
1737286264.4976056,20913,1737286264,462208192,map,0.43790317334597745,-0.6333567800012272,0.0,0.0,0.0,0.0
1737286264.5891383,20914,1737286264,462202560,map,0.43790317334597745,-0.6333567800012272,0.0,0.0,0.0,0.0
1737286264.691517,20915,1737286264,462199744,map,0.43790317334597745,-0.6333567800012272,0.0,0.0,0.0,0.0
1737286264.7925642,20916,1737286264,662191296,map,0.4094108121194316,-0.5048591753347734,0.0,0.0,0.0,0.0
1737286264.8974948,20917,1737286264,862188224,map,0.1960554580203617,-0.32551844399423235,0.0,0.0,0.0,0.0
1737286264.9910746,20918,1737286264,862185664,map,0.1960554580203617,-0.32551844399423235,0.0,0.0,0.0,0.0
1737286265.096645,20919,1737286265,62177472,map,0.13930256227762544,-0.23128942073274406,0.0,0.0,0.0,0.0
1737286265.1905158,20920,1737286265,62172864,map,0.13930256227762544,-0.23128942073274406,0.0,0.0,0.0,0.0
1737286265.2954478,20921,1737286265,262168000,map,0.08254966653488914,-0.13706039747125573,0.0,0.0,0.0,0.0
1737286265.3941803,20922,1737286265,262161088,map,0.08254966653488914,-0.13706039747125573,0.0,0.0,0.0,0.0
1737286265.4948447,20923,1737286265,462156480,map,0.11866514564390314,-0.19702432136493012,0.0,0.0,0.0,0.0
1737286265.5927927,20924,1737286265,462154432,map,0.11866514564390314,-0.19702432136493012,0.0,0.0,0.0,0.0
1737286265.695475,20925,1737286265,662147264,map,0.07739031237645856,-0.12849412262930224,0.0,0.0,0.0,0.0
1737286265.7907012,20926,1737286265,662142400,map,0.07739031237645856,-0.12849412262930224,0.0,0.0,0.0,0.0
1737286265.9027808,20927,1737286265,862137536,map,-0.42447926369500116,-0.3337923826167244,0.0,0.0,0.0,0.0
1737286265.9910443,20928,1737286265,862132672,map,-0.42447926369500116,-0.3337923826167244,0.0,0.0,0.0,0.0
1737286266.0978475,20929,1737286266,62127040,map,-0.6484402846470099,-0.045002191578908564,0.0,0.0,0.0,0.0
1737286266.1903765,20930,1737286266,62127296,map,-0.6484402846470099,-0.045002191578908564,0.0,0.0,0.0,0.0
1737286266.2939372,20931,1737286266,262127296,map,-1.0384666565300127,0.15519988168609153,0.0,0.0,0.0,0.0
1737286266.392008,20932,1737286266,262127296,map,-1.0384666565300127,0.15519988168609153,0.0,0.0,0.0,0.0
1737286266.4951365,20933,1737286266,462127296,map,-0.8928242644011698,0.11342324672001772,0.0,0.0,0.0,0.0
1737286266.5911145,20934,1737286266,462115776,map,-0.8928242644011698,0.11342324672001772,0.0,0.0,0.0,0.0
1737286266.6975245,20935,1737286266,662110912,map,-1.1882925160447546,0.1672151198666743,0.0,0.0,0.0,0.0
1737286266.7952108,20936,1737286266,662108352,map,-1.1882925160447546,0.1672151198666743,0.0,0.0,0.0,0.0
1737286266.8980613,20937,1737286266,862101440,map,-1.0019472300502017,0.12728608798579766,0.0,0.0,0.0,0.0
1737286266.9933014,20938,1737286266,862098112,map,-1.0019472300502017,0.12728608798579766,0.0,0.0,0.0,0.0
1737286267.0985596,20939,1737286267,62092480,map,-0.9444254944177973,0.10276422282924645,0.0,0.0,0.0,0.0
1737286267.1903486,20940,1737286267,62085312,map,-0.9444254944177973,0.10276422282924645,0.0,0.0,0.0,0.0
1737286267.299627,20941,1737286267,262079680,map,-1.109225850608529,0.04144891243187561,0.0,0.0,0.0,0.0
1737286267.3958414,20942,1737286267,262074304,map,-1.109225850608529,0.04144891243187561,0.0,0.0,0.0,0.0
1737286267.5060997,20943,1737286267,462071744,map,-1.1095453200927017,-0.031767635423247446,0.0,0.0,0.0,0.0
1737286267.5974667,20944,1737286267,462066112,map,-1.1095453200927017,-0.031767635423247446,0.0,0.0,0.0,0.0
1737286267.702426,20945,1737286267,662061760,map,-0.9773430744813123,-0.07211459466304938,0.0,0.0,0.0,0.0
1737286267.791978,20946,1737286267,662055872,map,-0.9773430744813123,-0.07211459466304938,0.0,0.0,0.0,0.0
1737286267.9000025,20947,1737286267,862050752,map,-1.127389701861935,-0.16909305170721015,0.0,0.0,0.0,0.0
1737286268.0001693,20948,1737286267,862046912,map,-1.127389701861935,-0.16909305170721015,0.0,0.0,0.0,0.0
1737286268.0980008,20949,1737286268,62044352,map,-0.8918503192410906,-0.22583845569248154,0.0,0.0,0.0,0.0
1737286268.189344,20950,1737286268,62040256,map,-0.8918503192410906,-0.22583845569248154,0.0,0.0,0.0,0.0
1737286268.2914093,20951,1737286268,262037440,map,-0.9101692544892032,-0.2721983250914083,0.0,0.0,0.0,0.0
1737286268.3930216,20952,1737286268,262034112,map,-0.9101692544892032,-0.2721983250914083,0.0,0.0,0.0,0.0
1737286268.4902697,20953,1737286268,262027968,map,-0.9101692544892032,-0.2721983250914083,0.0,0.0,0.0,0.0
1737286268.592141,20954,1737286268,462027968,map,-0.8877137880232322,-0.30913464793426804,0.0,0.0,0.0,0.0
1737286268.6943738,20955,1737286268,662023872,map,-0.6492116073342628,-0.2617714440164605,0.0,0.0,0.0,0.0
1737286268.7931178,20956,1737286268,662017216,map,-0.6492116073342628,-0.2617714440164605,0.0,0.0,0.0,0.0
1737286268.897077,20957,1737286268,862011840,map,-0.8299849100644707,-0.2924466602053653,0.0,0.0,0.0,0.0
1737286268.9917877,20958,1737286268,862010048,map,-0.8299849100644707,-0.2924466602053653,0.0,0.0,0.0,0.0
1737286269.1007812,20959,1737286269,62006464,map,-0.585451337982781,-0.17130887558492533,0.0,0.0,0.0,0.0
1737286269.188473,20960,1737286269,62002112,map,-0.585451337982781,-0.17130887558492533,0.0,0.0,0.0,0.0
1737286269.300479,20961,1737286269,261997504,map,-0.5552113637773621,-0.12899744777506855,0.0,0.0,0.0,0.0
1737286269.3923402,20962,1737286269,261990592,map,-0.5552113637773621,-0.12899744777506855,0.0,0.0,0.0,0.0
1737286269.493512,20963,1737286269,461984704,map,-0.6111453723423832,-0.32031442968509816,0.0,0.0,0.0,0.0
1737286269.5908551,20964,1737286269,461981120,map,-0.6111453723423832,-0.32031442968509816,0.0,0.0,0.0,0.0
1737286269.6926043,20965,1737286269,461975232,map,-0.6111453723423832,-0.32031442968509816,0.0,0.0,0.0,0.0
1737286269.7939298,20966,1737286269,661970880,map,-0.4118129982294134,-0.20496354429337224,0.0,0.0,0.0,0.0
1737286269.900797,20967,1737286269,861967296,map,-0.06266719538273682,-0.031190104566382736,0.0,0.0,0.0,0.0
1737286269.9900367,20968,1737286269,861962176,map,-0.06266719538273682,-0.031190104566382736,0.0,0.0,0.0,0.0
1737286270.0945554,20969,1737286270,61960640,map,-0.28647860746393977,-0.14258333516060678,0.0,0.0,0.0,0.0
1737286270.1898272,20970,1737286270,61957568,map,-0.28647860746393977,-0.14258333516060678,0.0,0.0,0.0,0.0
1737286270.2978635,20971,1737286270,261952448,map,-0.31360768454699633,-0.15540341113718067,0.0,0.0,0.0,0.0
1737286270.390591,20972,1737286270,261949888,map,-0.31360768454699633,-0.15540341113718067,0.0,0.0,0.0,0.0
1737286270.495944,20973,1737286270,461945024,map,-0.31443609489395685,-0.05941331692338474,0.0,0.0,0.0,0.0
1737286270.5914853,20974,1737286270,461941184,map,-0.31443609489395685,-0.05941331692338474,0.0,0.0,0.0,0.0
1737286270.6889307,20975,1737286270,461936064,map,-0.31443609489395685,-0.05941331692338474,0.0,0.0,0.0,0.0
1737286270.7909455,20976,1737286270,661931968,map,-0.4116558368544661,0.08330349322596968,0.0,0.0,0.0,0.0
1737286270.8919804,20977,1737286270,661927104,map,-0.4116558368544661,0.08330349322596968,0.0,0.0,0.0,0.0
1737286270.9889297,20978,1737286270,861920192,map,-0.20833027760850986,0.02642906414463463,0.0,0.0,0.0,0.0
1737286271.0975342,20979,1737286271,61912000,map,-0.06944342586950329,0.008809688048211544,0.0,0.0,0.0,0.0
1737286271.1900473,20980,1737286271,61905088,map,-0.06944342586950329,0.008809688048211544,0.0,0.0,0.0,0.0
1737286271.3006842,20981,1737286271,261906368,map,-0.2579327246581551,0.03272169846478573,0.0,0.0,0.0,0.0
1737286271.3911817,20982,1737286271,261900736,map,-0.2579327246581551,0.03272169846478573,0.0,0.0,0.0,0.0
1737286271.490163,20983,1737286271,461894592,map,-0.09525872304441359,-0.48065140765834413,0.0,0.0,0.0,0.0
1737286271.5930665,20984,1737286271,461889984,map,-0.09525872304441359,-0.48065140765834413,0.0,0.0,0.0,0.0
1737286271.6888065,20985,1737286271,461883072,map,-0.09525872304441359,-0.48065140765834413,0.0,0.0,0.0,0.0
1737286271.7912676,20986,1737286271,661878464,map,-0.030906254855592275,-0.4188613176348482,0.0,0.0,0.0,0.0
1737286271.8953958,20987,1737286271,861875392,map,0.16052384784985643,-0.388113506942848,0.0,0.0,0.0,0.0
1737286271.9918907,20988,1737286271,861872576,map,0.16052384784985643,-0.388113506942848,0.0,0.0,0.0,0.0
1737286272.097799,20989,1737286272,61868736,map,0.12668121316826825,-0.28293439209508586,0.0,0.0,0.0,0.0
1737286272.1918077,20990,1737286272,61864896,map,0.12668121316826825,-0.28293439209508586,0.0,0.0,0.0,0.0
1737286272.291082,20991,1737286272,261859008,map,0.35186700207406835,-0.5701663028024435,0.0,0.0,0.0,0.0
1737286272.3929605,20992,1737286272,261857472,map,0.35186700207406835,-0.5701663028024435,0.0,0.0,0.0,0.0
1737286272.4950268,20993,1737286272,461854400,map,0.2902962270466008,-0.6259617404941842,0.0,0.0,0.0,0.0
1737286272.5916262,20994,1737286272,461850048,map,0.2902962270466008,-0.6259617404941842,0.0,0.0,0.0,0.0
1737286272.6939309,20995,1737286272,661846976,map,0.3906358557832205,-0.5319808532048038,0.0,0.0,0.0,0.0
1737286272.7970753,20996,1737286272,661841088,map,0.3906358557832205,-0.5319808532048038,0.0,0.0,0.0,0.0
1737286272.901078,20997,1737286272,861834688,map,0.4597008687306505,-0.5670759307961194,0.0,0.0,0.0,0.0
1737286272.9934354,20998,1737286272,861829824,map,0.4597008687306505,-0.5670759307961194,0.0,0.0,0.0,0.0
1737286273.0992692,20999,1737286273,61822656,map,0.38196428037717467,-0.5866031780649906,0.0,0.0,0.0,0.0
1737286273.1967554,21000,1737286273,61819072,map,0.38196428037717467,-0.5866031780649906,0.0,0.0,0.0,0.0
1737286273.289297,21001,1737286273,261814976,map,0.35333281115945325,-0.5336252660417778,0.0,0.0,0.0,0.0
1737286273.3989666,21002,1737286273,261811904,map,0.35333281115945325,-0.5336252660417778,0.0,0.0,0.0,0.0
1737286273.497917,21003,1737286273,461808832,map,0.364675026581487,-0.47645789424438306,0.0,0.0,0.0,0.0
1737286273.5902631,21004,1737286273,461802176,map,0.364675026581487,-0.47645789424438306,0.0,0.0,0.0,0.0
1737286273.694471,21005,1737286273,661799616,map,0.306702501370189,-0.382143396715512,0.0,0.0,0.0,0.0
1737286273.7927346,21006,1737286273,661797312,map,0.306702501370189,-0.382143396715512,0.0,0.0,0.0,0.0
1737286273.895417,21007,1737286273,861792960,map,0.3134843018426991,-0.33664163809338193,0.0,0.0,0.0,0.0
1737286273.9919083,21008,1737286273,861786816,map,0.3134843018426991,-0.33664163809338193,0.0,0.0,0.0,0.0
1737286274.0913572,21009,1737286273,861787840,map,0.3134843018426991,-0.33664163809338193,0.0,0.0,0.0,0.0
1737286274.19123,21010,1737286274,61782720,map,0.2864233299878905,-0.2792161815487204,0.0,0.0,0.0,0.0
1737286274.2959235,21011,1737286274,261779648,map,0.32759736049679455,-0.2628306857951202,0.0,0.0,0.0,0.0
1737286274.3895395,21012,1737286274,261774784,map,0.32759736049679455,-0.2628306857951202,0.0,0.0,0.0,0.0
1737286274.5010731,21013,1737286274,461769664,map,0.22054760111200597,-0.15575222516464898,0.0,0.0,0.0,0.0
1737286274.5904324,21014,1737286274,461763776,map,0.22054760111200597,-0.15575222516464898,0.0,0.0,0.0,0.0
1737286274.6915011,21015,1737286274,661760960,map,0.22715870532966287,-0.12648684750973677,0.0,0.0,0.0,0.0
1737286274.7904315,21016,1737286274,661755584,map,0.22715870532966287,-0.12648684750973677,0.0,0.0,0.0,0.0
1737286274.8924263,21017,1737286274,861748672,map,0.19473605769365107,-0.07859941369968988,0.0,0.0,0.0,0.0
1737286274.9916217,21018,1737286274,861742784,map,0.19473605769365107,-0.07859941369968988,0.0,0.0,0.0,0.0
1737286275.0931056,21019,1737286274,861740224,map,0.19473605769365107,-0.07859941369968988,0.0,0.0,0.0,0.0
1737286275.192166,21020,1737286275,61735104,map,0.17618976648473192,-0.07111375525210037,0.0,0.0,0.0,0.0
1737286275.2960215,21021,1737286275,261732800,map,0.1112777472535149,-0.04491395068553707,0.0,0.0,0.0,0.0
1737286275.3900723,21022,1737286275,261730240,map,0.1112777472535149,-0.04491395068553707,0.0,0.0,0.0,0.0
1737286275.4983723,21023,1737286275,461724864,map,0.04636572802229788,-0.018714146118973783,0.0,0.0,0.0,0.0
1737286275.5899553,21024,1737286275,461718976,map,0.04636572802229788,-0.018714146118973783,0.0,0.0,0.0,0.0
1737286275.69955,21025,1737286275,661714112,map,0.13909718406689361,-0.05614243835692134,0.0,0.0,0.0,0.0
1737286275.7901247,21026,1737286275,661710272,map,0.13909718406689361,-0.05614243835692134,0.0,0.0,0.0,0.0
1737286275.9000483,21027,1737286275,861704128,map,0.24110178571594895,-0.09731355981866367,0.0,0.0,0.0,0.0
1737286275.989792,21028,1737286275,861699264,map,0.24110178571594895,-0.09731355981866367,0.0,0.0,0.0,0.0
1737286276.093316,21029,1737286276,61690048,map,0.0370925824178383,-0.014971316895179027,0.0,0.0,0.0,0.0
1737286276.1911416,21030,1737286276,61685696,map,0.0370925824178383,-0.014971316895179027,0.0,0.0,0.0,0.0
1737286276.2985618,21031,1737286276,261682112,map,0.23827175946472418,-0.1983092752283277,0.0,0.0,0.0,0.0
1737286276.3927207,21032,1737286276,261676224,map,0.23827175946472418,-0.1983092752283277,0.0,0.0,0.0,0.0
1737286276.4968355,21033,1737286276,461671360,map,0.13835134420532372,-0.1151473211003193,0.0,0.0,0.0,0.0
1737286276.5917459,21034,1737286276,461669824,map,0.13835134420532372,-0.1151473211003193,0.0,0.0,0.0,0.0
1737286276.7008193,21035,1737286276,661663936,map,0.12297897262695441,-0.10235317431139494,0.0,0.0,0.0,0.0
1737286276.7916477,21036,1737286276,661650624,map,0.12297897262695441,-0.10235317431139494,0.0,0.0,0.0,0.0
1737286276.8917415,21037,1737286276,861638336,map,0.13066515841613907,-0.10875024770585713,0.0,0.0,0.0,0.0
1737286276.9878857,21038,1737286276,861650624,map,0.13066515841613907,-0.10875024770585713,0.0,0.0,0.0,0.0
1737286277.0920131,21039,1737286276,861643456,map,0.13066515841613907,-0.10875024770585713,0.0,0.0,0.0,0.0
1737286277.18909,21040,1737286277,61635008,map,0.16909608736206233,-0.14073561467816806,0.0,0.0,0.0,0.0
1737286277.2937956,21041,1737286277,261630912,map,0.14603752999450836,-0.1215443944947815,0.0,0.0,0.0,0.0
1737286277.3898678,21042,1737286277,261626304,map,0.14603752999450836,-0.1215443944947815,0.0,0.0,0.0,0.0
1737286277.498446,21043,1737286277,461620416,map,0.11529278683776975,-0.09595610091693275,0.0,0.0,0.0,0.0
1737286277.5929072,21044,1737286277,461612736,map,0.11529278683776975,-0.09595610091693275,0.0,0.0,0.0,0.0
1737286277.6969726,21045,1737286277,661607104,map,0.13835134420532372,-0.1151473211003193,0.0,0.0,0.0,0.0
1737286277.7936792,21046,1737286277,661598656,map,0.13835134420532372,-0.1151473211003193,0.0,0.0,0.0,0.0
1737286277.8961475,21047,1737286277,861597120,map,0.13066515841613907,-0.10875024770585713,0.0,0.0,0.0,0.0
1737286277.9899635,21048,1737286277,861588416,map,0.13066515841613907,-0.10875024770585713,0.0,0.0,0.0,0.0
1737286278.095867,21049,1737286278,61583040,map,0.06917567210266186,-0.05757366055015965,0.0,0.0,0.0,0.0
1737286278.1933596,21050,1737286278,61578176,map,0.06917567210266186,-0.05757366055015965,0.0,0.0,0.0,0.0
1737286278.2971601,21051,1737286278,261574336,map,0.08454804368103117,-0.07036780733908403,0.0,0.0,0.0,0.0
1737286278.3987365,21052,1737286278,261570752,map,0.08454804368103117,-0.07036780733908403,0.0,0.0,0.0,0.0
1737286278.503415,21053,1737286278,461568960,map,0.12297897262695441,-0.10235317431139494,0.0,0.0,0.0,0.0
1737286278.5926316,21054,1737286278,461566656,map,0.12297897262695441,-0.10235317431139494,0.0,0.0,0.0,0.0
1737286278.6966743,21055,1737286278,661562816,map,0.13066515841613907,-0.10875024770585713,0.0,0.0,0.0,0.0
1737286278.7960813,21056,1737286278,661558208,map,0.13066515841613907,-0.10875024770585713,0.0,0.0,0.0,0.0
1737286278.8971624,21057,1737286278,861554880,map,0.09992041525940046,-0.08316195412800839,0.0,0.0,0.0,0.0
1737286278.9905515,21058,1737286278,861551808,map,0.09992041525940046,-0.08316195412800839,0.0,0.0,0.0,0.0
1737286279.091636,21059,1737286278,861547200,map,0.09992041525940046,-0.08316195412800839,0.0,0.0,0.0,0.0
1737286279.1889236,21060,1737286279,61540544,map,0.12297897262695441,-0.10235317431139494,0.0,0.0,0.0,0.0
1737286279.2880082,21061,1737286279,261537728,map,0.08454804368103117,-0.07036780733908403,0.0,0.0,0.0,0.0
1737286279.3913956,21062,1737286279,261532864,map,0.08454804368103117,-0.07036780733908403,0.0,0.0,0.0,0.0
1737286279.490022,21063,1737286279,261527488,map,0.08454804368103117,-0.07036780733908403,0.0,0.0,0.0,0.0
1737286279.5923014,21064,1737286279,461528256,map,0.16140990157287766,-0.13433854128370584,0.0,0.0,0.0,0.0
1737286279.6947465,21065,1737286279,661525952,map,0.06917567210266186,-0.05757366055015965,0.0,0.0,0.0,0.0
1737286279.8001719,21066,1737286279,661519808,map,0.06917567210266186,-0.05757366055015965,0.0,0.0,0.0,0.0
1737286279.9018996,21067,1737286279,861515712,map,0.03843092894592326,-0.03198536697231092,0.0,0.0,0.0,0.0
1737286279.9892945,21068,1737286279,861510848,map,0.03843092894592326,-0.03198536697231092,0.0,0.0,0.0,0.0
1737286280.0962937,21069,1737286280,61505216,map,0.05380330052429256,-0.04477951376123529,0.0,0.0,0.0,0.0
1737286280.192613,21070,1737286280,61501632,map,0.05380330052429256,-0.04477951376123529,0.0,0.0,0.0,0.0
1737286280.2913506,21071,1737286280,261494208,map,0.07686185789184652,-0.06397073394462184,0.0,0.0,0.0,0.0
1737286280.3907967,21072,1737286280,261489856,map,0.07686185789184652,-0.06397073394462184,0.0,0.0,0.0,0.0
1737286280.4925065,21073,1737286280,261483712,map,0.07686185789184652,-0.06397073394462184,0.0,0.0,0.0,0.0
1737286280.5916197,21074,1737286280,461479872,map,0.22628983260182817,-0.07995568560794526,0.0,0.0,0.0,0.0
1737286280.6969395,21075,1737286280,661476800,map,0.560963887057067,0.14737543017011395,0.0,0.0,0.0,0.0
1737286280.7908685,21076,1737286280,661473728,map,0.560963887057067,0.14737543017011395,0.0,0.0,0.0,0.0
1737286280.901159,21077,1737286280,861467328,map,0.8228116605014011,0.43345238647736983,0.0,0.0,0.0,0.0
1737286280.9884634,21078,1737286280,861456064,map,0.8228116605014011,0.43345238647736983,0.0,0.0,0.0,0.0
1737286281.1005816,21079,1737286281,61451200,map,0.9029606324284813,0.4297232787322058,0.0,0.0,0.0,0.0
1737286281.1899722,21080,1737286281,61445824,map,0.9029606324284813,0.4297232787322058,0.0,0.0,0.0,0.0
1737286281.2905736,21081,1737286281,61437888,map,0.9029606324284813,0.4297232787322058,0.0,0.0,0.0,0.0
1737286281.3905146,21082,1737286281,261432256,map,1.1245529229885687,0.5901531355486188,0.0,0.0,0.0,0.0
1737286281.4947634,21083,1737286281,461427648,map,1.1218633237456006,0.595250101078928,0.0,0.0,0.0,0.0
1737286281.592932,21084,1737286281,461420224,map,1.1218633237456006,0.595250101078928,0.0,0.0,0.0,0.0
1737286281.69687,21085,1737286281,661417152,map,1.0536518055602786,0.6346005614869601,0.0,0.0,0.0,0.0
1737286281.7898476,21086,1737286281,661409216,map,1.0536518055602786,0.6346005614869601,0.0,0.0,0.0,0.0
1737286281.9000807,21087,1737286281,861402816,map,0.9719350049020875,0.5764046722971448,0.0,0.0,0.0,0.0
1737286281.9921448,21088,1737286281,861395904,map,0.9719350049020875,0.5764046722971448,0.0,0.0,0.0,0.0
1737286282.0897048,21089,1737286282,61390528,map,0.9839503045980758,0.614362920496797,0.0,0.0,0.0,0.0
1737286282.1887467,21090,1737286282,61389504,map,0.9839503045980758,0.614362920496797,0.0,0.0,0.0,0.0
1737286282.2912223,21091,1737286282,61389504,map,0.9839503045980758,0.614362920496797,0.0,0.0,0.0,0.0
1737286282.3897135,21092,1737286282,264380800,map,1.0472675999516148,0.7184222811770142,0.0,0.0,0.0,0.0
1737286282.4928434,21093,1737286282,264370816,map,1.0472675999516148,0.7184222811770142,0.0,0.0,0.0,0.0
1737286282.589949,21094,1737286282,464363648,map,1.0975488512019795,0.7860575800952594,0.0,0.0,0.0,0.0
1737286282.6948652,21095,1737286282,664358016,map,1.2654751912228155,0.9626383227357921,0.0,0.0,0.0,0.0
1737286282.7934134,21096,1737286282,664352128,map,1.2654751912228155,0.9626383227357921,0.0,0.0,0.0,0.0
1737286282.8993835,21097,1737286282,864344960,map,1.455306744585377,1.0592838520266004,0.0,0.0,0.0,0.0
1737286282.9913216,21098,1737286282,864341376,map,1.455306744585377,1.0592838520266004,0.0,0.0,0.0,0.0
1737286283.0964284,21099,1737286283,64334464,map,1.528397890081952,1.1454692879309498,0.0,0.0,0.0,0.0
1737286283.1901731,21100,1737286283,64329344,map,1.528397890081952,1.1454692879309498,0.0,0.0,0.0,0.0
1737286283.289948,21101,1737286283,264323456,map,1.4401552578989933,1.161229018387796,0.0,0.0,0.0,0.0
1737286283.3957586,21102,1737286283,264316800,map,1.4401552578989933,1.161229018387796,0.0,0.0,0.0,0.0
1737286283.4997835,21103,1737286283,464309888,map,1.6065232354119903,1.2079665119867318,0.0,0.0,0.0,0.0
1737286283.596717,21104,1737286283,464302720,map,1.6065232354119903,1.2079665119867318,0.0,0.0,0.0,0.0
1737286283.6949592,21105,1737286283,464297088,map,1.6065232354119903,1.2079665119867318,0.0,0.0,0.0,0.0
1737286283.799018,21106,1737286283,664294016,map,1.4461794102264662,1.1213675193428023,0.0,0.0,0.0,0.0
1737286283.9037304,21107,1737286283,864291712,map,1.3955394625663269,1.0887468063880084,0.0,0.0,0.0,0.0
1737286283.9920816,21108,1737286283,864287616,map,1.3955394625663269,1.0887468063880084,0.0,0.0,0.0,0.0
1737286284.0900307,21109,1737286284,64282496,map,1.3125884515771773,1.048575966149438,0.0,0.0,0.0,0.0
1737286284.1978161,21110,1737286284,64279168,map,1.3125884515771773,1.048575966149438,0.0,0.0,0.0,0.0
1737286284.2880352,21111,1737286284,64272512,map,1.3125884515771773,1.048575966149438,0.0,0.0,0.0,0.0
1737286284.3919528,21112,1737286284,264269184,map,1.2608172057707554,0.9850583605210533,0.0,0.0,0.0,0.0
1737286284.496919,21113,1737286284,464266112,map,1.0744291426765191,0.8660265685112667,0.0,0.0,0.0,0.0
1737286284.5888875,21114,1737286284,464260992,map,1.0744291426765191,0.8660265685112667,0.0,0.0,0.0,0.0
1737286284.7030752,21115,1737286284,664255616,map,0.8921898554025032,0.7568997700599864,0.0,0.0,0.0,0.0
1737286284.7918859,21116,1737286284,664253056,map,0.8921898554025032,0.7568997700599864,0.0,0.0,0.0,0.0
1737286284.8979285,21117,1737286284,864248704,map,0.6409188216553532,0.5583216492738872,0.0,0.0,0.0,0.0
1737286284.988521,21118,1737286284,864244864,map,0.6409188216553532,0.5583216492738872,0.0,0.0,0.0,0.0
1737286285.0952978,21119,1737286285,64238208,map,0.4342972814006432,0.39935682211276985,0.0,0.0,0.0,0.0
1737286285.1904685,21120,1737286285,64236160,map,0.4342972814006432,0.39935682211276985,0.0,0.0,0.0,0.0
1737286285.2960696,21121,1737286285,264231808,map,0.3727334361187997,0.37678878114810255,0.0,0.0,0.0,0.0
1737286285.3923037,21122,1737286285,264228224,map,0.3727334361187997,0.37678878114810255,0.0,0.0,0.0,0.0
1737286285.4912076,21123,1737286285,464220032,map,0.24094929389204767,0.19504727061131522,0.0,0.0,0.0,0.0
1737286285.5909715,21124,1737286285,464212864,map,0.24094929389204767,0.19504727061131522,0.0,0.0,0.0,0.0
1737286285.6976738,21125,1737286285,664209280,map,0.37791027309708325,0.18325890288793048,0.0,0.0,0.0,0.0
1737286285.7923563,21126,1737286285,664205184,map,0.37791027309708325,0.18325890288793048,0.0,0.0,0.0,0.0
1737286285.8941355,21127,1737286285,864203392,map,0.5993583616445379,0.027740842214598025,0.0,0.0,0.0,0.0
1737286285.9927397,21128,1737286285,864196224,map,0.5993583616445379,0.027740842214598025,0.0,0.0,0.0,0.0
1737286286.0954113,21129,1737286286,64193920,map,0.829596652625171,-0.26204845726146025,0.0,0.0,0.0,0.0
1737286286.1942954,21130,1737286286,64191360,map,0.829596652625171,-0.26204845726146025,0.0,0.0,0.0,0.0
1737286286.301321,21131,1737286286,264188288,map,0.9928579412375915,-0.49631956290423557,0.0,0.0,0.0,0.0
1737286286.3932478,21132,1737286286,264181120,map,0.9928579412375915,-0.49631956290423557,0.0,0.0,0.0,0.0
1737286286.4959207,21133,1737286286,464178816,map,1.0600528671321718,-0.7351108208187811,0.0,0.0,0.0,0.0
1737286286.5896385,21134,1737286286,464171136,map,1.0600528671321718,-0.7351108208187811,0.0,0.0,0.0,0.0
1737286286.6980865,21135,1737286286,664167040,map,1.0067221951983085,-0.8537625089538068,0.0,0.0,0.0,0.0
1737286286.7921407,21136,1737286286,664162944,map,1.0067221951983085,-0.8537625089538068,0.0,0.0,0.0,0.0
1737286286.894555,21137,1737286286,864155776,map,1.133437313196186,-0.9825069246853232,0.0,0.0,0.0,0.0
1737286286.9899144,21138,1737286286,864148352,map,1.133437313196186,-0.9825069246853232,0.0,0.0,0.0,0.0
1737286287.1001153,21139,1737286287,64139648,map,1.0950016438854746,-0.9956763529822871,0.0,0.0,0.0,0.0
1737286287.191875,21140,1737286287,64137344,map,1.0950016438854746,-0.9956763529822871,0.0,0.0,0.0,0.0
1737286287.300845,21141,1737286287,264136832,map,1.0829318283880052,-1.0087906894218504,0.0,0.0,0.0,0.0
1737286287.390272,21142,1737286287,264136832,map,1.0829318283880052,-1.0087906894218504,0.0,0.0,0.0,0.0
1737286287.492199,21143,1737286287,264144512,map,1.0829318283880052,-1.0087906894218504,0.0,0.0,0.0,0.0
1737286287.5910897,21144,1737286287,464131968,map,1.2053395809242649,-1.155879100363579,0.0,0.0,0.0,0.0
1737286287.7002845,21145,1737286287,664133248,map,1.2002376922969042,-1.2459251510382965,0.0,0.0,0.0,0.0
1737286287.7893655,21146,1737286287,664127104,map,1.2002376922969042,-1.2459251510382965,0.0,0.0,0.0,0.0
1737286287.8961983,21147,1737286287,864122496,map,1.3042610671709791,-1.3816305832826727,0.0,0.0,0.0,0.0
1737286287.990185,21148,1737286287,864118912,map,1.3042610671709791,-1.3816305832826727,0.0,0.0,0.0,0.0
1737286288.0972233,21149,1737286288,64112256,map,1.234017134797167,-1.3377599601673653,0.0,0.0,0.0,0.0
1737286288.1914098,21150,1737286288,64107392,map,1.234017134797167,-1.3377599601673653,0.0,0.0,0.0,0.0
1737286288.2982242,21151,1737286288,264104064,map,1.2010320564045225,-1.2031300841923636,0.0,0.0,0.0,0.0
1737286288.3923466,21152,1737286288,264100736,map,1.2010320564045225,-1.2031300841923636,0.0,0.0,0.0,0.0
1737286288.492369,21153,1737286288,464095616,map,1.284951305181445,-1.2605158243007113,0.0,0.0,0.0,0.0
1737286288.5966694,21154,1737286288,464092288,map,1.284951305181445,-1.2605158243007113,0.0,0.0,0.0,0.0
1737286288.7034333,21155,1737286288,664088704,map,1.2084745230589133,-1.2379375295698616,0.0,0.0,0.0,0.0
1737286288.7955832,21156,1737286288,664085632,map,1.2084745230589133,-1.2379375295698616,0.0,0.0,0.0,0.0
1737286288.8966491,21157,1737286288,864081536,map,1.0588956657278499,-1.1181860172184115,0.0,0.0,0.0,0.0
1737286288.9983294,21158,1737286288,864077184,map,1.0588956657278499,-1.1181860172184115,0.0,0.0,0.0,0.0
1737286289.0955684,21159,1737286289,64073344,map,1.0495278065925084,-1.0149341767765623,0.0,0.0,0.0,0.0
1737286289.1907363,21160,1737286289,64066432,map,1.0495278065925084,-1.0149341767765623,0.0,0.0,0.0,0.0
1737286289.3045654,21161,1737286289,264062080,map,0.9752269603407056,-0.8895686459316269,0.0,0.0,0.0,0.0
1737286289.3994968,21162,1737286289,264058496,map,0.9752269603407056,-0.8895686459316269,0.0,0.0,0.0,0.0
1737286289.4895813,21163,1737286289,464053376,map,0.9291373133187105,-0.8059800574449025,0.0,0.0,0.0,0.0
1737286289.5914285,21164,1737286289,464048768,map,0.9291373133187105,-0.8059800574449025,0.0,0.0,0.0,0.0
1737286289.7063787,21165,1737286289,464043136,map,0.9291373133187105,-0.8059800574449025,0.0,0.0,0.0,0.0
1737286289.792552,21166,1737286289,664039040,map,0.7825825086484408,-0.638486191829951,0.0,0.0,0.0,0.0
1737286289.9001272,21167,1737286289,864036992,map,0.6646277676926915,-0.5136827137560983,0.0,0.0,0.0,0.0
1737286289.9886026,21168,1737286289,864031104,map,0.6646277676926915,-0.5136827137560983,0.0,0.0,0.0,0.0
1737286290.0957427,21169,1737286290,64025216,map,0.5046234077786355,-0.3245846828207963,0.0,0.0,0.0,0.0
1737286290.1882885,21170,1737286290,64021632,map,0.5046234077786355,-0.3245846828207963,0.0,0.0,0.0,0.0
1737286290.294179,21171,1737286290,264018560,map,0.3935234604442955,-0.17331845279700311,0.0,0.0,0.0,0.0
1737286290.3918703,21172,1737286290,264016512,map,0.3935234604442955,-0.17331845279700311,0.0,0.0,0.0,0.0
1737286290.4908974,21173,1737286290,264011648,map,0.3935234604442955,-0.17331845279700311,0.0,0.0,0.0,0.0
1737286290.594806,21174,1737286290,464007552,map,0.2901271081822642,-0.07632994889161622,0.0,0.0,0.0,0.0
1737286290.6973248,21175,1737286290,664003712,map,0.22243078293973592,-0.058519627483572444,0.0,0.0,0.0,0.0
1737286290.789056,21176,1737286290,663999104,map,0.22243078293973592,-0.058519627483572444,0.0,0.0,0.0,0.0
1737286290.8987257,21177,1737286290,863991936,map,0.2321016865458114,-0.06106395911329298,0.0,0.0,0.0,0.0
1737286290.9962022,21178,1737286290,863986560,map,0.2321016865458114,-0.06106395911329298,0.0,0.0,0.0,0.0
1737286291.0888684,21179,1737286291,63980416,map,0.1547344576972076,-0.04070930607552865,0.0,0.0,0.0,0.0
1737286291.1908803,21180,1737286291,63977088,map,0.1547344576972076,-0.04070930607552865,0.0,0.0,0.0,0.0
1737286291.2976427,21181,1737286291,263972224,map,0.10637993966683022,-0.02798764792692595,0.0,0.0,0.0,0.0
1737286291.3917649,21182,1737286291,263968128,map,0.10637993966683022,-0.02798764792692595,0.0,0.0,0.0,0.0
1737286291.4937499,21183,1737286291,463965568,map,0.09670903606075476,-0.02544331629720541,0.0,0.0,0.0,0.0
1737286291.5910366,21184,1737286291,463959424,map,0.09670903606075476,-0.02544331629720541,0.0,0.0,0.0,0.0
1737286291.6969163,21185,1737286291,663953792,map,0.09670903606075476,-0.02544331629720541,0.0,0.0,0.0,0.0
1737286291.791397,21186,1737286291,663946624,map,0.09670903606075476,-0.02544331629720541,0.0,0.0,0.0,0.0
1737286291.8988357,21187,1737286291,863940480,map,0.09670903606075476,-0.02544331629720541,0.0,0.0,0.0,0.0
1737286291.9914942,21188,1737286291,863941504,map,0.09670903606075476,-0.02544331629720541,0.0,0.0,0.0,0.0
1737286292.0887349,21189,1737286292,63929984,map,0.1160508432729057,-0.03053197955664649,0.0,0.0,0.0,0.0
1737286292.1911683,21190,1737286292,63921792,map,0.1160508432729057,-0.03053197955664649,0.0,0.0,0.0,0.0
1737286292.290254,21191,1737286292,63914368,map,0.1160508432729057,-0.03053197955664649,0.0,0.0,0.0,0.0
1737286292.3906593,21192,1737286292,263905664,map,0.1450635540911321,-0.03816497444580811,0.0,0.0,0.0,0.0
1737286292.4919643,21193,1737286292,263899264,map,0.1450635540911321,-0.03816497444580811,0.0,0.0,0.0,0.0
1737286292.5910418,21194,1737286292,463893888,map,0.05802542163645285,-0.015265989778323245,0.0,0.0,0.0,0.0
1737286292.6955435,21195,1737286292,663889792,map,0.05802542163645285,-0.015265989778323245,0.0,0.0,0.0,0.0
1737286292.7939079,21196,1737286292,663889792,map,0.05802542163645285,-0.015265989778323245,0.0,0.0,0.0,0.0
1737286292.8973417,21197,1737286292,863887232,map,0.08703813245467927,-0.022898984667484867,0.0,0.0,0.0,0.0
1737286292.9895062,21198,1737286292,863883392,map,0.08703813245467927,-0.022898984667484867,0.0,0.0,0.0,0.0
1737286293.0920825,21199,1737286293,63879040,map,0.1257217468789812,-0.03307631118636703,0.0,0.0,0.0,0.0
1737286293.1941168,21200,1737286293,63872384,map,0.1257217468789812,-0.03307631118636703,0.0,0.0,0.0,0.0
1737286293.3010023,21201,1737286293,263870080,map,0.1257217468789812,-0.03307631118636703,0.0,0.0,0.0,0.0
1737286293.3911543,21202,1737286293,263868288,map,0.1257217468789812,-0.03307631118636703,0.0,0.0,0.0,0.0
1737286293.4945738,21203,1737286293,463860864,map,0.1160508432729057,-0.03053197955664649,0.0,0.0,0.0,0.0
1737286293.5963519,21204,1737286293,463857280,map,0.1160508432729057,-0.03053197955664649,0.0,0.0,0.0,0.0
1737286293.7038398,21205,1737286293,663854464,map,0.1644053613032831,-0.0432536377052492,0.0,0.0,0.0,0.0
1737286293.7949417,21206,1737286293,663850368,map,0.1644053613032831,-0.0432536377052492,0.0,0.0,0.0,0.0
1737286293.8941603,21207,1737286293,863845248,map,0.1160508432729057,-0.03053197955664649,0.0,0.0,0.0,0.0
1737286293.9903932,21208,1737286293,863837312,map,0.1160508432729057,-0.03053197955664649,0.0,0.0,0.0,0.0
1737286294.0873077,21209,1737286293,863833728,map,0.1160508432729057,-0.03053197955664649,0.0,0.0,0.0,0.0
1737286294.1890469,21210,1737286294,63829120,map,0.17407626490935854,-0.04579796933496973,0.0,0.0,0.0,0.0
1737286294.305732,21211,1737286294,263824768,map,0.0773672288486038,-0.020354653037764327,0.0,0.0,0.0,0.0
1737286294.3893692,21212,1737286294,263820672,map,0.0773672288486038,-0.020354653037764327,0.0,0.0,0.0,0.0
1737286294.4926112,21213,1737286294,463814784,map,0.1547344576972076,-0.04070930607552865,0.0,0.0,0.0,0.0
1737286294.5872252,21214,1737286294,463808384,map,0.1547344576972076,-0.04070930607552865,0.0,0.0,0.0,0.0
1737286294.6925163,21215,1737286294,663808640,map,0.0025656110233110868,-0.349990596502359,0.0,0.0,0.0,0.0
1737286294.788255,21216,1737286294,663804544,map,0.0025656110233110868,-0.349990596502359,0.0,0.0,0.0,0.0
1737286294.898931,21217,1737286294,863797376,map,-0.4244303440792106,-0.4381311253777833,0.0,0.0,0.0,0.0
1737286294.989538,21218,1737286294,863792768,map,-0.4244303440792106,-0.4381311253777833,0.0,0.0,0.0,0.0
1737286295.093403,21219,1737286295,63792000,map,-0.6610438076325795,-0.4325749465591151,0.0,0.0,0.0,0.0
1737286295.1921062,21220,1737286295,63788416,map,-0.6610438076325795,-0.4325749465591151,0.0,0.0,0.0,0.0
1737286295.2935274,21221,1737286295,263785600,map,-0.8206268924978071,-0.5171764721150728,0.0,0.0,0.0,0.0
1737286295.3885822,21222,1737286295,263782272,map,-0.8206268924978071,-0.5171764721150728,0.0,0.0,0.0,0.0
1737286295.4905705,21223,1737286295,463775104,map,-1.0955045090413071,-0.64247168861372,0.0,0.0,0.0,0.0
1737286295.5900729,21224,1737286295,463769472,map,-1.0955045090413071,-0.64247168861372,0.0,0.0,0.0,0.0
1737286295.6911008,21225,1737286295,463765120,map,-1.0955045090413071,-0.64247168861372,0.0,0.0,0.0,0.0
1737286295.7917562,21226,1737286295,663758208,map,-1.3378321904353516,-0.6559763945714425,0.0,0.0,0.0,0.0
1737286295.9000282,21227,1737286295,863752320,map,-1.5399071847732735,-0.6962656549648641,0.0,0.0,0.0,0.0
1737286295.9961395,21228,1737286295,863748224,map,-1.5399071847732735,-0.6962656549648641,0.0,0.0,0.0,0.0
1737286296.0914028,21229,1737286296,63741568,map,-1.5259763596879496,-0.6784512876202041,0.0,0.0,0.0,0.0
1737286296.1917043,21230,1737286296,63736960,map,-1.5259763596879496,-0.6784512876202041,0.0,0.0,0.0,0.0
1737286296.28851,21231,1737286296,263730304,map,-1.7334352633640626,-0.8020612119570193,0.0,0.0,0.0,0.0
1737286296.3916936,21232,1737286296,263724672,map,-1.7334352633640626,-0.8020612119570193,0.0,0.0,0.0,0.0
1737286296.4886723,21233,1737286296,263718528,map,-1.7334352633640626,-0.8020612119570193,0.0,0.0,0.0,0.0
1737286296.590899,21234,1737286296,463711616,map,-1.9785236345622823,-0.8912599101712448,0.0,0.0,0.0,0.0
1737286296.693284,21235,1737286296,663705984,map,-2.1576393343528624,-0.9561341448004754,0.0,0.0,0.0,0.0
1737286296.7919538,21236,1737286296,663700864,map,-2.1576393343528624,-0.9561341448004754,0.0,0.0,0.0,0.0
