Time,header.seq,header.stamp.secs,header.stamp.nsecs,header.frame_id,voltage,temperature,current,charge,capacity,design_capacity,percentage,power_supply_status,power_supply_health,power_supply_technology,present,cell_voltage_0,location,serial_number
1737286240.4007711,20673,1737286240,400529205,,0.734000027179718,0.0,-0.9200000166893005,nan,nan,nan,0.7099999785423279,2,0,0,True,0.734000027179718,id0,
1737286240.500851,20674,1737286240,500545482,,0.7260000109672546,0.0,-0.9200000166893005,nan,nan,nan,0.7099999785423279,2,0,0,True,0.7260000109672546,id0,
1737286240.5977771,20675,1737286240,596810816,,0.718999981880188,0.0,-0.9200000166893005,nan,nan,nan,0.7099999785423279,2,0,0,True,0.718999981880188,id0,
1737286240.701108,20676,1737286240,700615204,,0.7279999852180481,0.0,-0.9200000166893005,nan,nan,nan,0.7099999785423279,2,0,0,True,0.7279999852180481,id0,
1737286240.7992811,20677,1737286240,798672797,,0.7260000109672546,0.0,-0.9200000166893005,nan,nan,nan,0.7099999785423279,2,0,0,True,0.7260000109672546,id0,
1737286240.9025626,20678,1737286240,901109297,,0.7200000286102295,0.0,-0.9200000166893005,nan,nan,nan,0.7099999785423279,2,0,0,True,0.7200000286102295,id0,
1737286240.9973333,20679,1737286240,996719501,,0.7269999980926514,0.0,-0.9200000166893005,nan,nan,nan,0.7099999785423279,2,0,0,True,0.7269999980926514,id0,
1737286241.1024945,20680,1737286241,100797149,,0.7260000109672546,0.0,-0.9100000262260437,nan,nan,nan,0.7099999785423279,2,0,0,True,0.7260000109672546,id0,
1737286241.2013288,20681,1737286241,200730815,,0.7260000109672546,0.0,-0.9200000166893005,nan,nan,nan,0.7099999785423279,2,0,0,True,0.7260000109672546,id0,
1737286241.3013284,20682,1737286241,300755723,,0.7170000076293945,0.0,-0.9100000262260437,nan,nan,nan,0.7099999785423279,2,0,0,True,0.7170000076293945,id0,
1737286241.400513,20683,1737286241,398785482,,0.7239999771118164,0.0,-0.9200000166893005,nan,nan,nan,0.7099999785423279,2,0,0,True,0.7239999771118164,id0,
1737286241.5047994,20684,1737286241,503838871,,0.7239999771118164,0.0,-0.9200000166893005,nan,nan,nan,0.7099999785423279,2,0,0,True,0.7239999771118164,id0,
1737286241.6005602,20685,1737286241,599865537,,0.7269999980926514,0.0,-0.9200000166893005,nan,nan,nan,0.7099999785423279,2,0,0,True,0.7269999980926514,id0,
1737286241.702612,20686,1737286241,701773852,,0.7229999899864197,0.0,-0.9100000262260437,nan,nan,nan,0.7099999785423279,2,0,0,True,0.7229999899864197,id0,
1737286241.8001041,20687,1737286241,798591148,,0.7099999785423279,0.0,-0.9200000166893005,nan,nan,nan,0.7099999785423279,2,0,0,True,0.7099999785423279,id0,
1737286241.9054284,20688,1737286241,904799630,,0.7229999899864197,0.0,-0.9100000262260437,nan,nan,nan,0.7099999785423279,2,0,0,True,0.7229999899864197,id0,
1737286242.0010715,20689,1737286241,999501852,,0.7310000061988831,0.0,-0.9200000166893005,nan,nan,nan,0.7099999785423279,2,0,0,True,0.7310000061988831,id0,
1737286242.1042306,20690,1737286242,103085592,,0.7279999852180481,0.0,-0.9200000166893005,nan,nan,nan,0.7099999785423279,2,0,0,True,0.7279999852180481,id0,
1737286242.2001388,20691,1737286242,199097018,,0.7300000190734863,0.0,-0.9300000071525574,nan,nan,nan,0.7099999785423279,2,0,0,True,0.7300000190734863,id0,
1737286242.3026206,20692,1737286242,301836018,,0.7319999933242798,0.0,-0.9200000166893005,nan,nan,nan,0.7099999785423279,2,0,0,True,0.7319999933242798,id0,
1737286242.399268,20693,1737286242,398840259,,0.7319999933242798,0.0,-0.9300000071525574,nan,nan,nan,0.7099999785423279,2,0,0,True,0.7229999899864197,id0,
1737286242.5027595,20694,1737286242,501916166,,0.7229999899864197,0.0,-0.9200000166893005,nan,nan,nan,0.7099999785423279,2,0,0,True,0.7279999852180481,id0,
1737286242.602118,20695,1737286242,601089611,,0.7279999852180481,0.0,-0.9100000262260437,nan,nan,nan,0.7099999785423279,2,0,0,True,0.7170000076293945,id0,
1737286242.708386,20696,1737286242,707921870,,0.7170000076293945,0.0,-0.9100000262260437,nan,nan,nan,0.7099999785423279,2,0,0,True,0.7229999899864197,id0,
1737286242.7995195,20697,1737286242,798253944,,0.7229999899864197,0.0,-0.9100000262260437,nan,nan,nan,0.7099999785423279,2,0,0,True,0.7179999947547913,id0,
1737286242.9074736,20698,1737286242,906963944,,0.7179999947547913,0.0,-0.9100000262260437,nan,nan,nan,0.7099999785423279,2,0,0,True,0.7260000109672546,id0,
1737286243.0003302,20699,1737286242,999919185,,0.7260000109672546,0.0,-0.8999999761581421,nan,nan,nan,0.7099999785423279,2,0,0,True,0.7229999899864197,id0,
1737286243.1025481,20700,1737286243,101993018,,0.7229999899864197,0.0,-0.9200000166893005,nan,nan,nan,0.7099999785423279,2,0,0,True,0.7250000238418579,id0,
1737286243.202082,20701,1737286243,201062055,,0.7250000238418579,0.0,-0.9100000262260437,nan,nan,nan,0.7099999785423279,2,0,0,True,0.7319999933242798,id0,
1737286243.2975776,20702,1737286243,297012703,,0.7319999933242798,0.0,-0.9100000262260437,nan,nan,nan,0.7099999785423279,2,0,0,True,0.7319999933242798,id0,
1737286243.3994431,20703,1737286243,398981962,,0.7239999771118164,0.0,-0.9200000166893005,nan,nan,nan,0.7099999785423279,2,0,0,True,0.7239999771118164,id0,
1737286243.5024796,20704,1737286243,502036518,,0.7260000109672546,0.0,-0.9300000071525574,nan,nan,nan,0.7099999785423279,2,0,0,True,0.7260000109672546,id0,
1737286243.6015453,20705,1737286243,600998629,,0.7260000109672546,0.0,-0.9200000166893005,nan,nan,nan,0.7099999785423279,2,0,0,True,0.7260000109672546,id0,
1737286243.702554,20706,1737286243,702018980,,0.7300000190734863,0.0,-0.9200000166893005,nan,nan,nan,0.7099999785423279,2,0,0,True,0.7300000190734863,id0,
1737286243.8004415,20707,1737286243,800029554,,0.722000002861023,0.0,-0.9200000166893005,nan,nan,nan,0.7099999785423279,2,0,0,True,0.722000002861023,id0,
1737286243.9056864,20708,1737286243,905132832,,0.7179999947547913,0.0,-0.9100000262260437,nan,nan,nan,0.7099999785423279,2,0,0,True,0.7179999947547913,id0,
1737286243.9986327,20709,1737286243,998113721,,0.7269999980926514,0.0,-0.9100000262260437,nan,nan,nan,0.7099999785423279,2,0,0,True,0.7269999980926514,id0,
1737286244.1037412,20710,1737286244,103156702,,0.7310000061988831,0.0,-0.9200000166893005,nan,nan,nan,0.7099999785423279,2,0,0,True,0.7310000061988831,id0,
1737286244.2015793,20711,1737286244,201110350,,0.7229999899864197,0.0,-0.9100000262260437,nan,nan,nan,0.7099999785423279,2,0,0,True,0.7229999899864197,id0,
1737286244.3057344,20712,1737286244,305185499,,0.7239999771118164,0.0,-0.9200000166893005,nan,nan,nan,0.7099999785423279,2,0,0,True,0.7239999771118164,id0,
1737286244.4015346,20713,1737286244,401125350,,0.7289999723434448,0.0,-0.9200000166893005,nan,nan,nan,0.7099999785423279,2,0,0,True,0.7289999723434448,id0,
1737286244.5042398,20714,1737286244,503305443,,0.7279999852180481,0.0,-0.9200000166893005,nan,nan,nan,0.7099999785423279,2,0,0,True,0.7279999852180481,id0,
1737286244.596525,20715,1737286244,596159110,,0.7269999980926514,0.0,-0.9200000166893005,nan,nan,nan,0.7099999785423279,2,0,0,True,0.7269999980926514,id0,
1737286244.7065773,20716,1737286244,706166609,,0.7260000109672546,0.0,-0.9200000166893005,nan,nan,nan,0.7099999785423279,2,0,0,True,0.7260000109672546,id0,
1737286244.7976592,20717,1737286244,797226665,,0.7269999980926514,0.0,-0.9200000166893005,nan,nan,nan,0.7099999785423279,2,0,0,True,0.7269999980926514,id0,
1737286244.9001174,20718,1737286244,899359887,,0.7210000157356262,0.0,-0.9200000166893005,nan,nan,nan,0.7099999785423279,2,0,0,True,0.7210000157356262,id0,
1737286244.997543,20719,1737286244,997203146,,0.7229999899864197,0.0,-0.9200000166893005,nan,nan,nan,0.7099999785423279,2,0,0,True,0.7229999899864197,id0,
1737286245.1034214,20720,1737286245,102512146,,0.722000002861023,0.0,-0.9200000166893005,nan,nan,nan,0.7099999785423279,2,0,0,True,0.722000002861023,id0,
1737286245.2006233,20721,1737286245,200232702,,0.7239999771118164,0.0,-0.9100000262260437,nan,nan,nan,0.7099999785423279,2,0,0,True,0.7239999771118164,id0,
1737286245.3027127,20722,1737286245,302296535,,0.7260000109672546,0.0,-0.9200000166893005,nan,nan,nan,0.7099999785423279,2,0,0,True,0.7260000109672546,id0,
1737286245.3978097,20723,1737286245,397338016,,0.7239999771118164,0.0,-0.9300000071525574,nan,nan,nan,0.7099999785423279,2,0,0,True,0.7239999771118164,id0,
1737286245.5069132,20724,1737286245,506348868,,0.7239999771118164,0.0,-0.9200000166893005,nan,nan,nan,0.7099999785423279,2,0,0,True,0.7239999771118164,id0,
1737286245.6016066,20725,1737286245,599120516,,0.7250000238418579,0.0,-0.9100000262260437,nan,nan,nan,0.7099999785423279,2,0,0,True,0.7250000238418579,id0,
1737286245.702462,20726,1737286245,701647313,,0.7229999899864197,0.0,-0.9100000262260437,nan,nan,nan,0.7099999785423279,2,0,0,True,0.7229999899864197,id0,
1737286245.8009593,20727,1737286245,800390905,,0.7200000286102295,0.0,-0.9100000262260437,nan,nan,nan,0.7099999785423279,2,0,0,True,0.7200000286102295,id0,
1737286245.9098222,20728,1737286245,908753275,,0.7300000190734863,0.0,-0.9200000166893005,nan,nan,nan,0.7099999785423279,2,0,0,True,0.7300000190734863,id0,
1737286246.0020382,20729,1737286246,1387331,,0.7269999980926514,0.0,-0.9200000166893005,nan,nan,nan,0.7099999785423279,2,0,0,True,0.7269999980926514,id0,
1737286246.1124623,20730,1737286246,111504590,,0.7239999771118164,0.0,-0.9200000166893005,nan,nan,nan,0.7099999785423279,2,0,0,True,0.7239999771118164,id0,
1737286246.207082,20731,1737286246,206444516,,0.7360000014305115,0.0,-0.9200000166893005,nan,nan,nan,0.7099999785423279,2,0,0,True,0.7360000014305115,id0,
1737286246.309759,20732,1737286246,309391405,,0.7239999771118164,0.0,-0.9200000166893005,nan,nan,nan,0.7099999785423279,2,0,0,True,0.7239999771118164,id0,
1737286246.4057603,20733,1737286246,405410831,,0.7319999933242798,0.0,-0.9300000071525574,nan,nan,nan,0.7099999785423279,2,0,0,True,0.7319999933242798,id0,
1737286246.5137112,20734,1737286246,513095664,,0.7229999899864197,0.0,-0.9200000166893005,nan,nan,nan,0.7099999785423279,2,0,0,True,0.7229999899864197,id0,
1737286246.6044343,20735,1737286246,603756868,,0.7239999771118164,0.0,-0.9200000166893005,nan,nan,nan,0.7099999785423279,2,0,0,True,0.7239999771118164,id0,
1737286246.703761,20736,1737286246,703372312,,0.7239999771118164,0.0,-0.9300000071525574,nan,nan,nan,0.7099999785423279,2,0,0,True,0.7239999771118164,id0,
1737286246.8058634,20737,1737286246,805465108,,0.7229999899864197,0.0,-0.9100000262260437,nan,nan,nan,0.7099999785423279,2,0,0,True,0.7229999899864197,id0,
1737286246.9076664,20738,1737286246,906806479,,0.7170000076293945,0.0,-0.9100000262260437,nan,nan,nan,0.7099999785423279,2,0,0,True,0.7170000076293945,id0,
1737286246.9968617,20739,1737286246,996505904,,0.7170000076293945,0.0,-0.9200000166893005,nan,nan,nan,0.7099999785423279,2,0,0,True,0.7170000076293945,id0,
1737286247.1158907,20740,1737286247,115508515,,0.7229999899864197,0.0,-0.9200000166893005,nan,nan,nan,0.7099999785423279,2,0,0,True,0.7229999899864197,id0,
1737286247.2069077,20741,1737286247,206506775,,0.7229999899864197,0.0,-0.9100000262260437,nan,nan,nan,0.7099999785423279,2,0,0,True,0.7229999899864197,id0,
1737286247.3031142,20742,1737286247,302588349,,0.7329999804496765,0.0,-0.9200000166893005,nan,nan,nan,0.7099999785423279,2,0,0,True,0.7329999804496765,id0,
1737286247.4008422,20743,1737286247,399741200,,0.7229999899864197,0.0,-0.9200000166893005,nan,nan,nan,0.7099999785423279,2,0,0,True,0.7229999899864197,id0,
1737286247.5012298,20744,1737286247,500688793,,0.7300000190734863,0.0,-0.9200000166893005,nan,nan,nan,0.7099999785423279,2,0,0,True,0.7300000190734863,id0,
1737286247.6009638,20745,1737286247,600576219,,0.7229999899864197,0.0,-0.9200000166893005,nan,nan,nan,0.7099999785423279,2,0,0,True,0.7229999899864197,id0,
1737286247.700438,20746,1737286247,699651200,,0.722000002861023,0.0,-0.9100000262260437,nan,nan,nan,0.7099999785423279,2,0,0,True,0.722000002861023,id0,
1737286247.798333,20747,1737286247,797648293,,0.718999981880188,0.0,-0.9100000262260437,nan,nan,nan,0.7099999785423279,2,0,0,True,0.718999981880188,id0,
1737286247.904518,20748,1737286247,902800737,,0.7160000205039978,0.0,-0.9200000166893005,nan,nan,nan,0.7099999785423279,2,0,0,True,0.7160000205039978,id0,
1737286248.000764,20749,1737286247,999675145,,0.722000002861023,0.0,-0.9200000166893005,nan,nan,nan,0.7099999785423279,2,0,0,True,0.722000002861023,id0,
1737286248.1063623,20750,1737286248,105706385,,0.7200000286102295,0.0,-0.9200000166893005,nan,nan,nan,0.7099999785423279,2,0,0,True,0.7200000286102295,id0,
1737286248.2032962,20751,1737286248,202708311,,0.722000002861023,0.0,-0.9200000166893005,nan,nan,nan,0.7099999785423279,2,0,0,True,0.722000002861023,id0,
1737286248.3043187,20752,1737286248,301893255,,0.7260000109672546,0.0,-0.9200000166893005,nan,nan,nan,0.7099999785423279,2,0,0,True,0.7260000109672546,id0,
1737286248.3993263,20753,1737286248,396967626,,0.7300000190734863,0.0,-0.9100000262260437,nan,nan,nan,0.7099999785423279,2,0,0,True,0.7300000190734863,id0,
1737286248.5022109,20754,1737286248,501378589,,0.7279999852180481,0.0,-0.9300000071525574,nan,nan,nan,0.7099999785423279,2,0,0,True,0.7279999852180481,id0,
1737286248.6020193,20755,1737286248,598527866,,0.7229999899864197,0.0,-0.9200000166893005,nan,nan,nan,0.7099999785423279,2,0,0,True,0.7229999899864197,id0,
1737286248.7038918,20756,1737286248,702977607,,0.718999981880188,0.0,-0.9200000166893005,nan,nan,nan,0.7099999785423279,2,0,0,True,0.718999981880188,id0,
1737286248.8023436,20757,1737286248,801405051,,0.718999981880188,0.0,-0.9200000166893005,nan,nan,nan,0.7099999785423279,2,0,0,True,0.7250000238418579,id0,
1737286248.9066906,20758,1737286248,903033774,,0.7250000238418579,0.0,-0.9100000262260437,nan,nan,nan,0.7099999785423279,2,0,0,True,0.7329999804496765,id0,
1737286248.9963255,20759,1737286248,995074755,,0.7329999804496765,0.0,-0.9300000071525574,nan,nan,nan,0.7099999785423279,2,0,0,True,0.7350000143051147,id0,
1737286249.1055834,20760,1737286249,103920459,,0.7350000143051147,0.0,-0.9100000262260437,nan,nan,nan,0.7099999785423279,2,0,0,True,0.7250000238418579,id0,
1737286249.2012,20761,1737286249,198021755,,0.7250000238418579,0.0,-0.9200000166893005,nan,nan,nan,0.7099999785423279,2,0,0,True,0.7239999771118164,id0,
1737286249.3085074,20762,1737286249,307936329,,0.7239999771118164,0.0,-0.9200000166893005,nan,nan,nan,0.7099999785423279,2,0,0,True,0.7260000109672546,id0,
1737286249.3974736,20763,1737286249,396892236,,0.7260000109672546,0.0,-0.9200000166893005,nan,nan,nan,0.7099999785423279,2,0,0,True,0.7260000109672546,id0,
1737286249.4992454,20764,1737286249,497751958,,0.7300000190734863,0.0,-0.9200000166893005,nan,nan,nan,0.7099999785423279,2,0,0,True,0.7300000190734863,id0,
1737286249.5988946,20765,1737286249,598072329,,0.7179999947547913,0.0,-0.9100000262260437,nan,nan,nan,0.7099999785423279,2,0,0,True,0.7179999947547913,id0,
1737286249.7023885,20766,1737286249,701924847,,0.7239999771118164,0.0,-0.9100000262260437,nan,nan,nan,0.7099999785423279,2,0,0,True,0.7239999771118164,id0,
1737286249.8013635,20767,1737286249,800883032,,0.7250000238418579,0.0,-0.9200000166893005,nan,nan,nan,0.7099999785423279,2,0,0,True,0.7250000238418579,id0,
1737286249.9083266,20768,1737286249,907918551,,0.7310000061988831,0.0,-0.9200000166893005,nan,nan,nan,0.7099999785423279,2,0,0,True,0.7310000061988831,id0,
1737286249.9992087,20769,1737286249,997948458,,0.7210000157356262,0.0,-0.9100000262260437,nan,nan,nan,0.7099999785423279,2,0,0,True,0.7210000157356262,id0,
1737286250.1057525,20770,1737286250,104793865,,0.718999981880188,0.0,-0.9200000166893005,nan,nan,nan,0.7099999785423279,2,0,0,True,0.718999981880188,id0,
1737286250.1986775,20771,1737286250,198011180,,0.7300000190734863,0.0,-0.9300000071525574,nan,nan,nan,0.7099999785423279,2,0,0,True,0.7300000190734863,id0,
1737286250.3054671,20772,1737286250,304947995,,0.7289999723434448,0.0,-0.9200000166893005,nan,nan,nan,0.7099999785423279,2,0,0,True,0.7289999723434448,id0,
1737286250.3995097,20773,1737286250,399147513,,0.7210000157356262,0.0,-0.9200000166893005,nan,nan,nan,0.7099999785423279,2,0,0,True,0.7210000157356262,id0,
1737286250.504571,20774,1737286250,501057125,,0.7210000157356262,0.0,-0.9200000166893005,nan,nan,nan,0.7099999785423279,2,0,0,True,0.7210000157356262,id0,
1737286250.6008458,20775,1737286250,600048939,,0.7250000238418579,0.0,-0.9100000262260437,nan,nan,nan,0.7099999785423279,2,0,0,True,0.7250000238418579,id0,
1737286250.7001717,20776,1737286250,699186532,,0.7289999723434448,0.0,-0.9200000166893005,nan,nan,nan,0.7099999785423279,2,0,0,True,0.7289999723434448,id0,
1737286250.8004584,20777,1737286250,800039717,,0.7260000109672546,0.0,-0.9200000166893005,nan,nan,nan,0.7099999785423279,2,0,0,True,0.7260000109672546,id0,
1737286250.905421,20778,1737286250,905028143,,0.7229999899864197,0.0,-0.9200000166893005,nan,nan,nan,0.7099999785423279,2,0,0,True,0.7229999899864197,id0,
1737286250.9998078,20779,1737286250,999070587,,0.7200000286102295,0.0,-0.9200000166893005,nan,nan,nan,0.7099999785423279,2,0,0,True,0.7200000286102295,id0,
1737286251.107511,20780,1737286251,106235235,,0.7269999980926514,0.0,-0.9100000262260437,nan,nan,nan,0.7099999785423279,2,0,0,True,0.7269999980926514,id0,
1737286251.2004282,20781,1737286251,200086087,,0.7360000014305115,0.0,-0.9100000262260437,nan,nan,nan,0.7099999785423279,2,0,0,True,0.7360000014305115,id0,
1737286251.3094823,20782,1737286251,309097013,,0.7269999980926514,0.0,-0.9100000262260437,nan,nan,nan,0.7099999785423279,2,0,0,True,0.7269999980926514,id0,
1737286251.4004946,20783,1737286251,400143272,,0.7239999771118164,0.0,-0.9200000166893005,nan,nan,nan,0.7099999785423279,2,0,0,True,0.7239999771118164,id0,
1737286251.5084872,20784,1737286251,507836883,,0.7300000190734863,0.0,-0.9200000166893005,nan,nan,nan,0.7099999785423279,2,0,0,True,0.7300000190734863,id0,
1737286251.6016688,20785,1737286251,601182272,,0.7310000061988831,0.0,-0.9200000166893005,nan,nan,nan,0.7099999785423279,2,0,0,True,0.7310000061988831,id0,
1737286251.71158,20786,1737286251,711154290,,0.7229999899864197,0.0,-0.9200000166893005,nan,nan,nan,0.7099999785423279,2,0,0,True,0.7229999899864197,id0,
1737286251.8057528,20787,1737286251,805200661,,0.7250000238418579,0.0,-0.9200000166893005,nan,nan,nan,0.7099999785423279,2,0,0,True,0.7250000238418579,id0,
1737286251.9127796,20788,1737286251,912235383,,0.7310000061988831,0.0,-0.9200000166893005,nan,nan,nan,0.7099999785423279,2,0,0,True,0.7310000061988831,id0,
1737286252.0076294,20789,1737286252,7205846,,0.7279999852180481,0.0,-0.9200000166893005,nan,nan,nan,0.7099999785423279,2,0,0,True,0.7279999852180481,id0,
1737286252.1074505,20790,1737286252,106471105,,0.7269999980926514,0.0,-0.9200000166893005,nan,nan,nan,0.7099999785423279,2,0,0,True,0.7269999980926514,id0,
1737286252.2049801,20791,1737286252,203464475,,0.7279999852180481,0.0,-0.9200000166893005,nan,nan,nan,0.7099999785423279,2,0,0,True,0.7279999852180481,id0,
1737286252.3091087,20792,1737286252,308518605,,0.7269999980926514,0.0,-0.9200000166893005,nan,nan,nan,0.7099999785423279,2,0,0,True,0.7269999980926514,id0,
1737286252.404775,20793,1737286252,404323309,,0.734000027179718,0.0,-0.9300000071525574,nan,nan,nan,0.7099999785423279,2,0,0,True,0.734000027179718,id0,
1737286252.5133166,20794,1737286252,512585457,,0.7279999852180481,0.0,-0.9100000262260437,nan,nan,nan,0.7099999785423279,2,0,0,True,0.7279999852180481,id0,
1737286252.6002614,20795,1737286252,599545216,,0.7229999899864197,0.0,-0.9100000262260437,nan,nan,nan,0.7099999785423279,2,0,0,True,0.7229999899864197,id0,
1737286252.7106724,20796,1737286252,710306808,,0.7210000157356262,0.0,-0.9200000166893005,nan,nan,nan,0.7099999785423279,2,0,0,True,0.7210000157356262,id0,
1737286252.8006146,20797,1737286252,800292623,,0.7260000109672546,0.0,-0.9200000166893005,nan,nan,nan,0.7099999785423279,2,0,0,True,0.7260000109672546,id0,
1737286252.9136882,20798,1737286252,913329234,,0.7179999947547913,0.0,-0.9100000262260437,nan,nan,nan,0.7099999785423279,2,0,0,True,0.7179999947547913,id0,
1737286252.9987872,20799,1737286252,998382438,,0.7279999852180481,0.0,-0.9200000166893005,nan,nan,nan,0.7099999785423279,2,0,0,True,0.7279999852180481,id0,
1737286253.1066978,20800,1737286253,105368160,,0.7319999933242798,0.0,-0.9200000166893005,nan,nan,nan,0.7099999785423279,2,0,0,True,0.7319999933242798,id0,
1737286253.1974916,20801,1737286253,196621123,,0.7260000109672546,0.0,-0.9300000071525574,nan,nan,nan,0.7099999785423279,2,0,0,True,0.7260000109672546,id0,
1737286253.3042402,20802,1737286253,303660438,,0.7239999771118164,0.0,-0.9200000166893005,nan,nan,nan,0.7099999785423279,2,0,0,True,0.7239999771118164,id0,
1737286253.399827,20803,1737286253,399413993,,0.7279999852180481,0.0,-0.9200000166893005,nan,nan,nan,0.7099999785423279,2,0,0,True,0.7279999852180481,id0,
1737286253.5088482,20804,1737286253,508401086,,0.718999981880188,0.0,-0.9200000166893005,nan,nan,nan,0.7099999785423279,2,0,0,True,0.718999981880188,id0,
1737286253.6007578,20805,1737286253,600427271,,0.7360000014305115,0.0,-0.9300000071525574,nan,nan,nan,0.7099999785423279,2,0,0,True,0.7360000014305115,id0,
1737286253.7047868,20806,1737286253,704443808,,0.7160000205039978,0.0,-0.8999999761581421,nan,nan,nan,0.7099999785423279,2,0,0,True,0.7160000205039978,id0,
1737286253.8010347,20807,1737286253,800560382,,0.7229999899864197,0.0,-0.9300000071525574,nan,nan,nan,0.7099999785423279,2,0,0,True,0.7229999899864197,id0,
1737286253.906406,20808,1737286253,905763734,,0.7260000109672546,0.0,-0.9100000262260437,nan,nan,nan,0.7099999785423279,2,0,0,True,0.7260000109672546,id0,
1737286253.997385,20809,1737286253,996736159,,0.7289999723434448,0.0,-0.9200000166893005,nan,nan,nan,0.7099999785423279,2,0,0,True,0.7289999723434448,id0,
1737286254.104479,20810,1737286254,103793456,,0.7279999852180481,0.0,-0.9200000166893005,nan,nan,nan,0.7099999785423279,2,0,0,True,0.7279999852180481,id0,
1737286254.1998136,20811,1737286254,199491345,,0.7279999852180481,0.0,-0.9200000166893005,nan,nan,nan,0.7099999785423279,2,0,0,True,0.722000002861023,id0,
1737286254.3018281,20812,1737286254,301508067,,0.722000002861023,0.0,-0.9100000262260437,nan,nan,nan,0.7099999785423279,2,0,0,True,0.722000002861023,id0,
1737286254.399475,20813,1737286254,398888178,,0.722000002861023,0.0,-0.9300000071525574,nan,nan,nan,0.7099999785423279,2,0,0,True,0.7239999771118164,id0,
1737286254.5078645,20814,1737286254,507533437,,0.7239999771118164,0.0,-0.9200000166893005,nan,nan,nan,0.7099999785423279,2,0,0,True,0.7310000061988831,id0,
1737286254.6029162,20815,1737286254,602549252,,0.7310000061988831,0.0,-0.9200000166893005,nan,nan,nan,0.7099999785423279,2,0,0,True,0.7170000076293945,id0,
1737286254.703497,20816,1737286254,702845122,,0.7170000076293945,0.0,-0.9200000166893005,nan,nan,nan,0.7099999785423279,2,0,0,True,0.7129999995231628,id0,
1737286254.79745,20817,1737286254,796850066,,0.7129999995231628,0.0,-0.9200000166893005,nan,nan,nan,0.7099999785423279,2,0,0,True,0.7129999995231628,id0,
1737286254.899999,20818,1737286254,899648233,,0.7210000157356262,0.0,-0.9200000166893005,nan,nan,nan,0.7099999785423279,2,0,0,True,0.7210000157356262,id0,
1737286254.9970322,20819,1737286254,996660789,,0.7289999723434448,0.0,-0.9200000166893005,nan,nan,nan,0.7099999785423279,2,0,0,True,0.7289999723434448,id0,
1737286255.111053,20820,1737286255,110675677,,0.7239999771118164,0.0,-0.9200000166893005,nan,nan,nan,0.7099999785423279,2,0,0,True,0.7250000238418579,id0,
1737286255.1965723,20821,1737286255,195952381,,0.7250000238418579,0.0,-0.9200000166893005,nan,nan,nan,0.7099999785423279,2,0,0,True,0.7250000238418579,id0,
1737286255.3021133,20822,1737286255,301707362,,0.7260000109672546,0.0,-0.9200000166893005,nan,nan,nan,0.7099999785423279,2,0,0,True,0.7260000109672546,id0,
1737286255.4030151,20823,1737286255,402659177,,0.7260000109672546,0.0,-0.9100000262260437,nan,nan,nan,0.7099999785423279,2,0,0,True,0.7260000109672546,id0,
1737286255.5081441,20824,1737286255,507734196,,0.7210000157356262,0.0,-0.9200000166893005,nan,nan,nan,0.7099999785423279,2,0,0,True,0.7210000157356262,id0,
1737286255.5960424,20825,1737286255,595688899,,0.7300000190734863,0.0,-0.9200000166893005,nan,nan,nan,0.7099999785423279,2,0,0,True,0.7300000190734863,id0,
1737286255.703609,20826,1737286255,703006844,,0.722000002861023,0.0,-0.9200000166893005,nan,nan,nan,0.7099999785423279,2,0,0,True,0.722000002861023,id0,
1737286255.7981505,20827,1737286255,797777899,,0.722000002861023,0.0,-0.9200000166893005,nan,nan,nan,0.7099999785423279,2,0,0,True,0.722000002861023,id0,
1737286255.8998284,20828,1737286255,895908936,,0.722000002861023,0.0,-0.9100000262260437,nan,nan,nan,0.7099999785423279,2,0,0,True,0.722000002861023,id0,
1737286256.00321,20829,1737286256,2751343,,0.7260000109672546,0.0,-0.9200000166893005,nan,nan,nan,0.7099999785423279,2,0,0,True,0.7260000109672546,id0,
1737286256.101285,20830,1737286256,100822492,,0.7250000238418579,0.0,-0.9200000166893005,nan,nan,nan,0.7099999785423279,2,0,0,True,0.7250000238418579,id0,
1737286256.2001746,20831,1737286256,199781695,,0.7300000190734863,0.0,-0.9100000262260437,nan,nan,nan,0.7099999785423279,2,0,0,True,0.7300000190734863,id0,
1737286256.3022473,20832,1737286256,301831528,,0.7250000238418579,0.0,-0.9300000071525574,nan,nan,nan,0.7099999785423279,2,0,0,True,0.7250000238418579,id0,
1737286256.3959155,20833,1737286256,395021102,,0.7300000190734863,0.0,-0.9200000166893005,nan,nan,nan,0.7099999785423279,2,0,0,True,0.7300000190734863,id0,
1737286256.5082877,20834,1737286256,507862899,,0.7229999899864197,0.0,-0.9100000262260437,nan,nan,nan,0.7099999785423279,2,0,0,True,0.7229999899864197,id0,
1737286256.600212,20835,1737286256,599823954,,0.7260000109672546,0.0,-0.9200000166893005,nan,nan,nan,0.7099999785423279,2,0,0,True,0.7260000109672546,id0,
1737286256.705854,20836,1737286256,705002954,,0.7279999852180481,0.0,-0.9200000166893005,nan,nan,nan,0.7099999785423279,2,0,0,True,0.7279999852180481,id0,
1737286256.8043263,20837,1737286256,803861010,,0.7300000190734863,0.0,-0.9200000166893005,nan,nan,nan,0.7099999785423279,2,0,0,True,0.7300000190734863,id0,
1737286256.9099436,20838,1737286256,909046954,,0.7289999723434448,0.0,-0.9200000166893005,nan,nan,nan,0.7099999785423279,2,0,0,True,0.7289999723434448,id0,
1737286257.0058413,20839,1737286257,5037010,,0.7229999899864197,0.0,-0.9200000166893005,nan,nan,nan,0.7099999785423279,2,0,0,True,0.7229999899864197,id0,
1737286257.1018481,20840,1737286257,101054121,,0.718999981880188,0.0,-0.9200000166893005,nan,nan,nan,0.7099999785423279,2,0,0,True,0.718999981880188,id0,
1737286257.2033873,20841,1737286257,202960158,,0.722000002861023,0.0,-0.9200000166893005,nan,nan,nan,0.7099999785423279,2,0,0,True,0.722000002861023,id0,
1737286257.3082783,20842,1737286257,307916954,,0.722000002861023,0.0,-0.9200000166893005,nan,nan,nan,0.7099999785423279,2,0,0,True,0.722000002861023,id0,
1737286257.403834,20843,1737286257,403119269,,0.7300000190734863,0.0,-0.9100000262260437,nan,nan,nan,0.7099999785423279,2,0,0,True,0.7300000190734863,id0,
1737286257.5123272,20844,1737286257,511950028,,0.7279999852180481,0.0,-0.9100000262260437,nan,nan,nan,0.7099999785423279,2,0,0,True,0.7279999852180481,id0,
1737286257.607918,20845,1737286257,607162009,,0.7260000109672546,0.0,-0.9200000166893005,nan,nan,nan,0.7099999785423279,2,0,0,True,0.7260000109672546,id0,
1737286257.7139235,20846,1737286257,713145324,,0.7229999899864197,0.0,-0.9200000166893005,nan,nan,nan,0.7099999785423279,2,0,0,True,0.7229999899864197,id0,
1737286257.8045344,20847,1737286257,804044305,,0.7210000157356262,0.0,-0.9200000166893005,nan,nan,nan,0.7099999785423279,2,0,0,True,0.7210000157356262,id0,
1737286257.9174929,20848,1737286257,917016231,,0.7300000190734863,0.0,-0.9200000166893005,nan,nan,nan,0.7099999785423279,2,0,0,True,0.7300000190734863,id0,
1737286257.9954085,20849,1737286257,994224064,,0.7200000286102295,0.0,-0.9200000166893005,nan,nan,nan,0.7099999785423279,2,0,0,True,0.7200000286102295,id0,
1737286258.1063702,20850,1737286258,105390287,,0.7269999980926514,0.0,-0.9200000166893005,nan,nan,nan,0.7099999785423279,2,0,0,True,0.7269999980926514,id0,
1737286258.1987557,20851,1737286258,198266694,,0.7120000123977661,0.0,-0.9100000262260437,nan,nan,nan,0.7099999785423279,2,0,0,True,0.7120000123977661,id0,
1737286258.3031907,20852,1737286258,302241083,,0.718999981880188,0.0,-0.9200000166893005,nan,nan,nan,0.7099999785423279,2,0,0,True,0.718999981880188,id0,
1737286258.397177,20853,1737286258,396260898,,0.7179999947547913,0.0,-0.9100000262260437,nan,nan,nan,0.7099999785423279,2,0,0,True,0.7179999947547913,id0,
1737286258.5012698,20854,1737286258,500293675,,0.7260000109672546,0.0,-0.9200000166893005,nan,nan,nan,0.7099999785423279,2,0,0,True,0.7260000109672546,id0,
1737286258.5972703,20855,1737286258,596298583,,0.7300000190734863,0.0,-0.9200000166893005,nan,nan,nan,0.7099999785423279,2,0,0,True,0.7300000190734863,id0,
1737286258.7023182,20856,1737286258,701321101,,0.7250000238418579,0.0,-0.9100000262260437,nan,nan,nan,0.7099999785423279,2,0,0,True,0.7250000238418579,id0,
1737286258.7984262,20857,1737286258,797377583,,0.7279999852180481,0.0,-0.9300000071525574,nan,nan,nan,0.7099999785423279,2,0,0,True,0.7279999852180481,id0,
1737286258.9053957,20858,1737286258,904350490,,0.7300000190734863,0.0,-0.9200000166893005,nan,nan,nan,0.7099999785423279,2,0,0,True,0.7300000190734863,id0,
1737286258.9987779,20859,1737286258,998217156,,0.7250000238418579,0.0,-0.9200000166893005,nan,nan,nan,0.7099999785423279,2,0,0,True,0.7250000238418579,id0,
1737286259.1075194,20860,1737286259,107170212,,0.7260000109672546,0.0,-0.9200000166893005,nan,nan,nan,0.7099999785423279,2,0,0,True,0.7260000109672546,id0,
1737286259.199582,20861,1737286259,199192379,,0.7279999852180481,0.0,-0.9100000262260437,nan,nan,nan,0.7099999785423279,2,0,0,True,0.7279999852180481,id0,
1737286259.3045382,20862,1737286259,303474175,,0.7229999899864197,0.0,-0.9300000071525574,nan,nan,nan,0.7099999785423279,2,0,0,True,0.7229999899864197,id0,
1737286259.3976276,20863,1737286259,397217490,,0.7260000109672546,0.0,-0.9300000071525574,nan,nan,nan,0.7099999785423279,2,0,0,True,0.7260000109672546,id0,
1737286259.5015936,20864,1737286259,501230564,,0.7229999899864197,0.0,-0.9200000166893005,nan,nan,nan,0.7099999785423279,2,0,0,True,0.7229999899864197,id0,
1737286259.597685,20865,1737286259,596527026,,0.7229999899864197,0.0,-0.9200000166893005,nan,nan,nan,0.7099999785423279,2,0,0,True,0.7310000061988831,id0,
1737286259.7063172,20866,1737286259,705661675,,0.7279999852180481,0.0,-0.9100000262260437,nan,nan,nan,0.7099999785423279,2,0,0,True,0.7279999852180481,id0,
1737286259.7996483,20867,1737286259,799280212,,0.7279999852180481,0.0,-0.9100000262260437,nan,nan,nan,0.7099999785423279,2,0,0,True,0.718999981880188,id0,
1737286259.9023752,20868,1737286259,901547471,,0.718999981880188,0.0,-0.9100000262260437,nan,nan,nan,0.7099999785423279,2,0,0,True,0.7200000286102295,id0,
1737286260.0007515,20869,1737286260,354915,,0.7200000286102295,0.0,-0.9200000166893005,nan,nan,nan,0.7099999785423279,2,0,0,True,0.7300000190734863,id0,
1737286260.1076894,20870,1737286260,107320248,,0.7300000190734863,0.0,-0.9100000262260437,nan,nan,nan,0.7099999785423279,2,0,0,True,0.7229999899864197,id0,
1737286260.1966956,20871,1737286260,196331304,,0.7229999899864197,0.0,-0.9100000262260437,nan,nan,nan,0.7099999785423279,2,0,0,True,0.7229999899864197,id0,
1737286260.3067124,20872,1737286260,306344174,,0.7229999899864197,0.0,-0.9100000262260437,nan,nan,nan,0.7099999785423279,2,0,0,True,0.7170000076293945,id0,
1737286260.4057958,20873,1737286260,405353045,,0.7170000076293945,0.0,-0.9200000166893005,nan,nan,nan,0.7099999785423279,2,0,0,True,0.7250000238418579,id0,
1737286260.4976635,20874,1737286260,496707267,,0.7250000238418579,0.0,-0.9200000166893005,nan,nan,nan,0.7099999785423279,2,0,0,True,0.7250000238418579,id0,
1737286260.5998485,20875,1737286260,599377285,,0.7279999852180481,0.0,-0.9200000166893005,nan,nan,nan,0.7099999785423279,2,0,0,True,0.7279999852180481,id0,
1737286260.7069745,20876,1737286260,706436007,,0.718999981880188,0.0,-0.9200000166893005,nan,nan,nan,0.7099999785423279,2,0,0,True,0.718999981880188,id0,
1737286260.8008409,20877,1737286260,800413174,,0.7379999756813049,0.0,-0.9200000166893005,nan,nan,nan,0.7099999785423279,2,0,0,True,0.7379999756813049,id0,
1737286260.9080117,20878,1737286260,907484266,,0.7239999771118164,0.0,-0.9200000166893005,nan,nan,nan,0.7099999785423279,2,0,0,True,0.7239999771118164,id0,
1737286260.997584,20879,1737286260,996701896,,0.7289999723434448,0.0,-0.9200000166893005,nan,nan,nan,0.7099999785423279,2,0,0,True,0.7289999723434448,id0,
1737286261.0989335,20880,1737286261,98503044,,0.7269999980926514,0.0,-0.9300000071525574,nan,nan,nan,0.7099999785423279,2,0,0,True,0.7269999980926514,id0,
1737286261.1983454,20881,1737286261,197829711,,0.722000002861023,0.0,-0.9200000166893005,nan,nan,nan,0.7099999785423279,2,0,0,True,0.722000002861023,id0,
1737286261.299992,20882,1737286261,299547025,,0.7170000076293945,0.0,-0.9200000166893005,nan,nan,nan,0.7099999785423279,2,0,0,True,0.7170000076293945,id0,
1737286261.3963888,20883,1737286261,395753174,,0.7250000238418579,0.0,-0.9200000166893005,nan,nan,nan,0.7099999785423279,2,0,0,True,0.7250000238418579,id0,
1737286261.5058508,20884,1737286261,505510211,,0.7200000286102295,0.0,-0.9200000166893005,nan,nan,nan,0.7099999785423279,2,0,0,True,0.7200000286102295,id0,
1737286261.598862,20885,1737286261,598527970,,0.722000002861023,0.0,-0.9100000262260437,nan,nan,nan,0.7099999785423279,2,0,0,True,0.722000002861023,id0,
1737286261.7034466,20886,1737286261,702854562,,0.7239999771118164,0.0,-0.9200000166893005,nan,nan,nan,0.7099999785423279,2,0,0,True,0.7239999771118164,id0,
1737286261.7998812,20887,1737286261,799554433,,0.7200000286102295,0.0,-0.9200000166893005,nan,nan,nan,0.7099999785423279,2,0,0,True,0.7200000286102295,id0,
1737286261.9070573,20888,1737286261,906689951,,0.7210000157356262,0.0,-0.9100000262260437,nan,nan,nan,0.7099999785423279,2,0,0,True,0.7210000157356262,id0,
1737286261.9965112,20889,1737286261,995832525,,0.7210000157356262,0.0,-0.9200000166893005,nan,nan,nan,0.7099999785423279,2,0,0,True,0.7210000157356262,id0,
1737286262.1099918,20890,1737286262,109643988,,0.722000002861023,0.0,-0.8999999761581421,nan,nan,nan,0.7099999785423279,2,0,0,True,0.722000002861023,id0,
1737286262.199928,20891,1737286262,199608469,,0.7269999980926514,0.0,-0.9200000166893005,nan,nan,nan,0.7099999785423279,2,0,0,True,0.7269999980926514,id0,
1737286262.3089578,20892,1737286262,308622766,,0.7229999899864197,0.0,-0.9200000166893005,nan,nan,nan,0.7099999785423279,2,0,0,True,0.7229999899864197,id0,
1737286262.397547,20893,1737286262,396885654,,0.7260000109672546,0.0,-0.9100000262260437,nan,nan,nan,0.7099999785423279,2,0,0,True,0.7260000109672546,id0,
1737286262.5045023,20894,1737286262,503912136,,0.7229999899864197,0.0,-0.9100000262260437,nan,nan,nan,0.7099999785423279,2,0,0,True,0.7229999899864197,id0,
1737286262.6060107,20895,1737286262,605670840,,0.718999981880188,0.0,-0.9200000166893005,nan,nan,nan,0.699999988079071,2,0,0,True,0.718999981880188,id0,
1737286262.7110138,20896,1737286262,710679543,,0.7279999852180481,0.0,-0.9200000166893005,nan,nan,nan,0.699999988079071,2,0,0,True,0.7279999852180481,id0,
1737286262.805266,20897,1737286262,804738765,,0.722000002861023,0.0,-0.9200000166893005,nan,nan,nan,0.699999988079071,2,0,0,True,0.722000002861023,id0,
1737286262.920027,20898,1737286262,919703710,,0.7120000123977661,0.0,-0.9200000166893005,nan,nan,nan,0.699999988079071,2,0,0,True,0.7120000123977661,id0,
1737286263.0084093,20899,1737286263,6058654,,0.7300000190734863,0.0,-0.9200000166893005,nan,nan,nan,0.699999988079071,2,0,0,True,0.7300000190734863,id0,
1737286263.1116927,20900,1737286263,110725432,,0.7250000238418579,0.0,-0.9200000166893005,nan,nan,nan,0.699999988079071,2,0,0,True,0.7250000238418579,id0,
1737286263.2021565,20901,1737286263,201748043,,0.7229999899864197,0.0,-0.9200000166893005,nan,nan,nan,0.699999988079071,2,0,0,True,0.7229999899864197,id0,
1737286263.3143756,20902,1737286263,313814913,,0.7229999899864197,0.0,-0.9100000262260437,nan,nan,nan,0.699999988079071,2,0,0,True,0.7229999899864197,id0,
1737286263.397352,20903,1737286263,396772191,,0.7269999980926514,0.0,-0.9100000262260437,nan,nan,nan,0.699999988079071,2,0,0,True,0.7269999980926514,id0,
1737286263.5024521,20904,1737286263,501022654,,0.7260000109672546,0.0,-0.9200000166893005,nan,nan,nan,0.699999988079071,2,0,0,True,0.7260000109672546,id0,
1737286263.600249,20905,1737286263,599797006,,0.7279999852180481,0.0,-0.9100000262260437,nan,nan,nan,0.699999988079071,2,0,0,True,0.7279999852180481,id0,
1737286263.7004297,20906,1737286263,699812135,,0.7229999899864197,0.0,-0.9100000262260437,nan,nan,nan,0.699999988079071,2,0,0,True,0.7229999899864197,id0,
1737286263.8017576,20907,1737286263,800015783,,0.718999981880188,0.0,-0.9100000262260437,nan,nan,nan,0.699999988079071,2,0,0,True,0.718999981880188,id0,
1737286263.9044046,20908,1737286263,903845654,,0.7229999899864197,0.0,-0.9100000262260437,nan,nan,nan,0.699999988079071,2,0,0,True,0.7229999899864197,id0,
1737286263.9994118,20909,1737286263,998127357,,0.722000002861023,0.0,-0.9100000262260437,nan,nan,nan,0.699999988079071,2,0,0,True,0.722000002861023,id0,
1737286264.1067495,20910,1737286264,105181728,,0.7229999899864197,0.0,-0.9100000262260437,nan,nan,nan,0.699999988079071,2,0,0,True,0.7229999899864197,id0,
1737286264.2015297,20911,1737286264,199163783,,0.7329999804496765,0.0,-0.9200000166893005,nan,nan,nan,0.699999988079071,2,0,0,True,0.7329999804496765,id0,
1737286264.3045313,20912,1737286264,303153968,,0.7289999723434448,0.0,-0.9300000071525574,nan,nan,nan,0.699999988079071,2,0,0,True,0.7289999723434448,id0,
1737286264.4005625,20913,1737286264,399962672,,0.7310000061988831,0.0,-0.9100000262260437,nan,nan,nan,0.699999988079071,2,0,0,True,0.7310000061988831,id0,
1737286264.5073698,20914,1737286264,506921505,,0.7310000061988831,0.0,-0.9100000262260437,nan,nan,nan,0.699999988079071,2,0,0,True,0.7310000061988831,id0,
1737286264.5974376,20915,1737286264,596977301,,0.7289999723434448,0.0,-0.9200000166893005,nan,nan,nan,0.699999988079071,2,0,0,True,0.7289999723434448,id0,
1737286264.697389,20916,1737286264,696943301,,0.7260000109672546,0.0,-0.9200000166893005,nan,nan,nan,0.699999988079071,2,0,0,True,0.7260000109672546,id0,
1737286264.800041,20917,1737286264,799034523,,0.7229999899864197,0.0,-0.9200000166893005,nan,nan,nan,0.699999988079071,2,0,0,True,0.7229999899864197,id0,
1737286264.9063811,20918,1737286264,905975968,,0.7229999899864197,0.0,-0.9200000166893005,nan,nan,nan,0.699999988079071,2,0,0,True,0.7279999852180481,id0,
1737286264.9990723,20919,1737286264,997918857,,0.7279999852180481,0.0,-0.8999999761581421,nan,nan,nan,0.699999988079071,2,0,0,True,0.7229999899864197,id0,
1737286265.103375,20920,1737286265,102281301,,0.7229999899864197,0.0,-0.9399999976158142,nan,nan,nan,0.699999988079071,2,0,0,True,0.734000027179718,id0,
1737286265.1991153,20921,1737286265,197286690,,0.734000027179718,0.0,-0.9100000262260437,nan,nan,nan,0.699999988079071,2,0,0,True,0.7200000286102295,id0,
1737286265.3048325,20922,1737286265,303360097,,0.7200000286102295,0.0,-0.9200000166893005,nan,nan,nan,0.699999988079071,2,0,0,True,0.7310000061988831,id0,
1737286265.399695,20923,1737286265,399108005,,0.7310000061988831,0.0,-0.9300000071525574,nan,nan,nan,0.699999988079071,2,0,0,True,0.7229999899864197,id0,
1737286265.5096622,20924,1737286265,508331171,,0.7229999899864197,0.0,-0.9200000166893005,nan,nan,nan,0.699999988079071,2,0,0,True,0.7300000190734863,id0,
1737286265.600501,20925,1737286265,600073060,,0.7300000190734863,0.0,-0.9200000166893005,nan,nan,nan,0.699999988079071,2,0,0,True,0.7300000190734863,id0,
1737286265.7036712,20926,1737286265,702335727,,0.7200000286102295,0.0,-0.9200000166893005,nan,nan,nan,0.699999988079071,2,0,0,True,0.7200000286102295,id0,
1737286265.7967482,20927,1737286265,796159912,,0.7279999852180481,0.0,-0.9100000262260437,nan,nan,nan,0.699999988079071,2,0,0,True,0.7279999852180481,id0,
1737286265.9085522,20928,1737286265,908121541,,0.7120000123977661,0.0,-0.9200000166893005,nan,nan,nan,0.699999988079071,2,0,0,True,0.7120000123977661,id0,
1737286265.9966846,20929,1737286265,995422393,,0.7229999899864197,0.0,-0.9200000166893005,nan,nan,nan,0.699999988079071,2,0,0,True,0.7229999899864197,id0,
1737286266.1039696,20930,1737286266,102409412,,0.718999981880188,0.0,-0.9200000166893005,nan,nan,nan,0.699999988079071,2,0,0,True,0.718999981880188,id0,
1737286266.1967354,20931,1737286266,196207782,,0.7229999899864197,0.0,-0.9200000166893005,nan,nan,nan,0.699999988079071,2,0,0,True,0.7229999899864197,id0,
1737286266.3066204,20932,1737286266,305457041,,0.7260000109672546,0.0,-0.9100000262260437,nan,nan,nan,0.699999988079071,2,0,0,True,0.7260000109672546,id0,
1737286266.400612,20933,1737286266,400181134,,0.722000002861023,0.0,-0.9200000166893005,nan,nan,nan,0.699999988079071,2,0,0,True,0.722000002861023,id0,
1737286266.500764,20934,1737286266,499484245,,0.7300000190734863,0.0,-0.9100000262260437,nan,nan,nan,0.699999988079071,2,0,0,True,0.7300000190734863,id0,
1737286266.598641,20935,1737286266,598212541,,0.7250000238418579,0.0,-0.9300000071525574,nan,nan,nan,0.699999988079071,2,0,0,True,0.7250000238418579,id0,
1737286266.7057118,20936,1737286266,702240041,,0.7239999771118164,0.0,-0.9100000262260437,nan,nan,nan,0.699999988079071,2,0,0,True,0.7239999771118164,id0,
1737286266.8016613,20937,1737286266,801243633,,0.7229999899864197,0.0,-0.9100000262260437,nan,nan,nan,0.699999988079071,2,0,0,True,0.7229999899864197,id0,
1737286266.903687,20938,1737286266,903265430,,0.7279999852180481,0.0,-0.9200000166893005,nan,nan,nan,0.699999988079071,2,0,0,True,0.7279999852180481,id0,
1737286266.998444,20939,1737286266,997557633,,0.7269999980926514,0.0,-0.9200000166893005,nan,nan,nan,0.699999988079071,2,0,0,True,0.7269999980926514,id0,
1737286267.105927,20940,1737286267,105344559,,0.7250000238418579,0.0,-0.9200000166893005,nan,nan,nan,0.699999988079071,2,0,0,True,0.7250000238418579,id0,
1737286267.1969187,20941,1737286267,196367392,,0.7229999899864197,0.0,-0.9300000071525574,nan,nan,nan,0.699999988079071,2,0,0,True,0.7229999899864197,id0,
1737286267.3068738,20942,1737286267,306367466,,0.7210000157356262,0.0,-0.9100000262260437,nan,nan,nan,0.699999988079071,2,0,0,True,0.7210000157356262,id0,
1737286267.4037552,20943,1737286267,403324503,,0.7300000190734863,0.0,-0.9200000166893005,nan,nan,nan,0.699999988079071,2,0,0,True,0.7300000190734863,id0,
1737286267.5127463,20944,1737286267,512354966,,0.7239999771118164,0.0,-0.9200000166893005,nan,nan,nan,0.699999988079071,2,0,0,True,0.7239999771118164,id0,
1737286267.603952,20945,1737286267,603394225,,0.7289999723434448,0.0,-0.9200000166893005,nan,nan,nan,0.699999988079071,2,0,0,True,0.7289999723434448,id0,
1737286267.7115936,20946,1737286267,710408429,,0.7229999899864197,0.0,-0.9200000166893005,nan,nan,nan,0.699999988079071,2,0,0,True,0.7229999899864197,id0,
1737286267.8064806,20947,1737286267,805587133,,0.7269999980926514,0.0,-0.9100000262260437,nan,nan,nan,0.699999988079071,2,0,0,True,0.7269999980926514,id0,
1737286267.908276,20948,1737286267,907673447,,0.7310000061988831,0.0,-0.9200000166893005,nan,nan,nan,0.699999988079071,2,0,0,True,0.7310000061988831,id0,
1737286268.0054822,20949,1737286268,4772299,,0.7279999852180481,0.0,-0.9100000262260437,nan,nan,nan,0.699999988079071,2,0,0,True,0.7279999852180481,id0,
1737286268.109366,20950,1737286268,108734558,,0.7229999899864197,0.0,-0.9200000166893005,nan,nan,nan,0.699999988079071,2,0,0,True,0.7229999899864197,id0,
1737286268.1944199,20951,1737286268,193756003,,0.7289999723434448,0.0,-0.9200000166893005,nan,nan,nan,0.699999988079071,2,0,0,True,0.7289999723434448,id0,
1737286268.3068132,20952,1737286268,306459799,,0.7310000061988831,0.0,-0.9200000166893005,nan,nan,nan,0.699999988079071,2,0,0,True,0.7310000061988831,id0,
1737286268.4035032,20953,1737286268,402722781,,0.7210000157356262,0.0,-0.9100000262260437,nan,nan,nan,0.699999988079071,2,0,0,True,0.7210000157356262,id0,
1737286268.5025885,20954,1737286268,501876762,,0.7329999804496765,0.0,-0.9300000071525574,nan,nan,nan,0.699999988079071,2,0,0,True,0.7329999804496765,id0,
1737286268.594708,20955,1737286268,593895780,,0.7210000157356262,0.0,-0.9200000166893005,nan,nan,nan,0.699999988079071,2,0,0,True,0.7210000157356262,id0,
1737286268.7099128,20956,1737286268,709514836,,0.7319999933242798,0.0,-0.9200000166893005,nan,nan,nan,0.699999988079071,2,0,0,True,0.7319999933242798,id0,
1737286268.7999725,20957,1737286268,799523854,,0.7239999771118164,0.0,-0.9100000262260437,nan,nan,nan,0.699999988079071,2,0,0,True,0.7239999771118164,id0,
1737286268.902794,20958,1737286268,901925114,,0.7310000061988831,0.0,-0.9300000071525574,nan,nan,nan,0.699999988079071,2,0,0,True,0.7310000061988831,id0,
1737286268.9990833,20959,1737286268,998611076,,0.7260000109672546,0.0,-0.9300000071525574,nan,nan,nan,0.699999988079071,2,0,0,True,0.7260000109672546,id0,
1737286269.1059144,20960,1737286269,104969799,,0.7289999723434448,0.0,-0.9100000262260437,nan,nan,nan,0.699999988079071,2,0,0,True,0.7289999723434448,id0,
1737286269.1960828,20961,1737286269,195632354,,0.7210000157356262,0.0,-0.9100000262260437,nan,nan,nan,0.699999988079071,2,0,0,True,0.7210000157356262,id0,
1737286269.310187,20962,1737286269,309648873,,0.7350000143051147,0.0,-0.9100000262260437,nan,nan,nan,0.699999988079071,2,0,0,True,0.7350000143051147,id0,
1737286269.3977406,20963,1737286269,396991206,,0.722000002861023,0.0,-0.9200000166893005,nan,nan,nan,0.699999988079071,2,0,0,True,0.722000002861023,id0,
1737286269.506268,20964,1737286269,505678409,,0.7260000109672546,0.0,-0.9200000166893005,nan,nan,nan,0.699999988079071,2,0,0,True,0.7260000109672546,id0,
1737286269.5981112,20965,1737286269,597642058,,0.7279999852180481,0.0,-0.9200000166893005,nan,nan,nan,0.699999988079071,2,0,0,True,0.7279999852180481,id0,
1737286269.6991205,20966,1737286269,698645187,,0.7300000190734863,0.0,-0.9200000166893005,nan,nan,nan,0.699999988079071,2,0,0,True,0.7300000190734863,id0,
1737286269.8011239,20967,1737286269,800661891,,0.7279999852180481,0.0,-0.9200000166893005,nan,nan,nan,0.699999988079071,2,0,0,True,0.7279999852180481,id0,
1737286269.9059012,20968,1737286269,905062354,,0.7239999771118164,0.0,-0.9200000166893005,nan,nan,nan,0.699999988079071,2,0,0,True,0.7239999771118164,id0,
1737286269.9969308,20969,1737286269,996173817,,0.7300000190734863,0.0,-0.9200000166893005,nan,nan,nan,0.699999988079071,2,0,0,True,0.7300000190734863,id0,
1737286270.1022696,20970,1737286270,101753965,,0.7229999899864197,0.0,-0.9100000262260437,nan,nan,nan,0.699999988079071,2,0,0,True,0.7229999899864197,id0,
1737286270.1990454,20971,1737286270,198716113,,0.7229999899864197,0.0,-0.9300000071525574,nan,nan,nan,0.699999988079071,2,0,0,True,0.7300000190734863,id0,
1737286270.3012066,20972,1737286270,300732890,,0.7300000190734863,0.0,-0.9200000166893005,nan,nan,nan,0.699999988079071,2,0,0,True,0.7200000286102295,id0,
1737286270.401315,20973,1737286270,400802261,,0.7200000286102295,0.0,-0.9200000166893005,nan,nan,nan,0.699999988079071,2,0,0,True,0.7310000061988831,id0,
1737286270.506012,20974,1737286270,505062039,,0.7310000061988831,0.0,-0.9200000166893005,nan,nan,nan,0.699999988079071,2,0,0,True,0.7250000238418579,id0,
1737286270.5991518,20975,1737286270,598767890,,0.7250000238418579,0.0,-0.9200000166893005,nan,nan,nan,0.699999988079071,2,0,0,True,0.7260000109672546,id0,
1737286270.701234,20976,1737286270,700840909,,0.7260000109672546,0.0,-0.8999999761581421,nan,nan,nan,0.699999988079071,2,0,0,True,0.7279999852180481,id0,
1737286270.7963681,20977,1737286270,795445464,,0.7279999852180481,0.0,-0.8999999761581421,nan,nan,nan,0.699999988079071,2,0,0,True,0.7279999852180481,id0,
1737286270.8992453,20978,1737286270,898808316,,0.7300000190734863,0.0,-0.9300000071525574,nan,nan,nan,0.699999988079071,2,0,0,True,0.7300000190734863,id0,
1737286270.9958951,20979,1737286270,995237909,,0.7269999980926514,0.0,-0.9200000166893005,nan,nan,nan,0.699999988079071,2,0,0,True,0.7269999980926514,id0,
1737286271.1053126,20980,1737286271,104842742,,0.7229999899864197,0.0,-0.9200000166893005,nan,nan,nan,0.699999988079071,2,0,0,True,0.7229999899864197,id0,
1737286271.195275,20981,1737286271,194248390,,0.7279999852180481,0.0,-0.9300000071525574,nan,nan,nan,0.699999988079071,2,0,0,True,0.7279999852180481,id0,
1737286271.3082983,20982,1737286271,307868445,,0.7300000190734863,0.0,-0.9200000166893005,nan,nan,nan,0.699999988079071,2,0,0,True,0.7300000190734863,id0,
1737286271.3974485,20983,1737286271,396966501,,0.7229999899864197,0.0,-0.9200000166893005,nan,nan,nan,0.699999988079071,2,0,0,True,0.7229999899864197,id0,
1737286271.4998376,20984,1737286271,499240353,,0.7300000190734863,0.0,-0.9200000166893005,nan,nan,nan,0.699999988079071,2,0,0,True,0.7300000190734863,id0,
1737286271.5992692,20985,1737286271,598921890,,0.7210000157356262,0.0,-0.9200000166893005,nan,nan,nan,0.699999988079071,2,0,0,True,0.7210000157356262,id0,
1737286271.6982918,20986,1737286271,697940704,,0.7229999899864197,0.0,-0.9100000262260437,nan,nan,nan,0.699999988079071,2,0,0,True,0.7229999899864197,id0,
1737286271.7993107,20987,1737286271,798951704,,0.7250000238418579,0.0,-0.9100000262260437,nan,nan,nan,0.699999988079071,2,0,0,True,0.7250000238418579,id0,
1737286271.902399,20988,1737286271,902007871,,0.7269999980926514,0.0,-0.9200000166893005,nan,nan,nan,0.699999988079071,2,0,0,True,0.7269999980926514,id0,
1737286272.0013363,20989,1737286272,973482,,0.7250000238418579,0.0,-0.9200000166893005,nan,nan,nan,0.699999988079071,2,0,0,True,0.7250000238418579,id0,
1737286272.1073825,20990,1737286272,106975315,,0.7239999771118164,0.0,-0.9200000166893005,nan,nan,nan,0.699999988079071,2,0,0,True,0.7239999771118164,id0,
1737286272.1983256,20991,1737286272,197990852,,0.7329999804496765,0.0,-0.9200000166893005,nan,nan,nan,0.699999988079071,2,0,0,True,0.7329999804496765,id0,
1737286272.3005807,20992,1737286272,300074723,,0.7250000238418579,0.0,-0.9200000166893005,nan,nan,nan,0.699999988079071,2,0,0,True,0.7250000238418579,id0,
1737286272.4024706,20993,1737286272,402015371,,0.7289999723434448,0.0,-0.9300000071525574,nan,nan,nan,0.699999988079071,2,0,0,True,0.7289999723434448,id0,
1737286272.5044947,20994,1737286272,504042185,,0.7260000109672546,0.0,-0.9200000166893005,nan,nan,nan,0.699999988079071,2,0,0,True,0.7260000109672546,id0,
1737286272.596077,20995,1737286272,595454297,,0.718999981880188,0.0,-0.9200000166893005,nan,nan,nan,0.699999988079071,2,0,0,True,0.718999981880188,id0,
1737286272.707392,20996,1737286272,707068222,,0.7289999723434448,0.0,-0.9200000166893005,nan,nan,nan,0.699999988079071,2,0,0,True,0.7289999723434448,id0,
1737286272.8022616,20997,1737286272,801396704,,0.7300000190734863,0.0,-0.9300000071525574,nan,nan,nan,0.699999988079071,2,0,0,True,0.7300000190734863,id0,
1737286272.911255,20998,1737286272,910375667,,0.7229999899864197,0.0,-0.9200000166893005,nan,nan,nan,0.699999988079071,2,0,0,True,0.7229999899864197,id0,
1737286273.0014615,20999,1737286273,1126278,,0.7239999771118164,0.0,-0.8999999761581421,nan,nan,nan,0.699999988079071,2,0,0,True,0.7239999771118164,id0,
1737286273.1114957,21000,1737286273,111121185,,0.7260000109672546,0.0,-0.9200000166893005,nan,nan,nan,0.699999988079071,2,0,0,True,0.7260000109672546,id0,
1737286273.203399,21001,1737286273,202398463,,0.7329999804496765,0.0,-0.9100000262260437,nan,nan,nan,0.699999988079071,2,0,0,True,0.7329999804496765,id0,
1737286273.3047569,21002,1737286273,304207685,,0.718999981880188,0.0,-0.9200000166893005,nan,nan,nan,0.699999988079071,2,0,0,True,0.718999981880188,id0,
1737286273.404352,21003,1737286273,403425611,,0.7229999899864197,0.0,-0.9100000262260437,nan,nan,nan,0.699999988079071,2,0,0,True,0.7229999899864197,id0,
1737286273.5114918,21004,1737286273,511177333,,0.7289999723434448,0.0,-0.9200000166893005,nan,nan,nan,0.699999988079071,2,0,0,True,0.7289999723434448,id0,
1737286273.5967143,21005,1737286273,596250592,,0.7229999899864197,0.0,-0.9200000166893005,nan,nan,nan,0.699999988079071,2,0,0,True,0.7229999899864197,id0,
1737286273.7056584,21006,1737286273,704488833,,0.7239999771118164,0.0,-0.9100000262260437,nan,nan,nan,0.699999988079071,2,0,0,True,0.7239999771118164,id0,
1737286273.8071902,21007,1737286273,806225648,,0.7239999771118164,0.0,-0.9200000166893005,nan,nan,nan,0.699999988079071,2,0,0,True,0.7239999771118164,id0,
1737286273.9066305,21008,1737286273,905494907,,0.734000027179718,0.0,-0.9200000166893005,nan,nan,nan,0.699999988079071,2,0,0,True,0.734000027179718,id0,
1737286274.0015767,21009,1737286274,489999,,0.7229999899864197,0.0,-0.9200000166893005,nan,nan,nan,0.699999988079071,2,0,0,True,0.7229999899864197,id0,
1737286274.0975876,21010,1737286274,96606629,,0.7200000286102295,0.0,-0.9100000262260437,nan,nan,nan,0.699999988079071,2,0,0,True,0.7200000286102295,id0,
1737286274.1978047,21011,1737286274,197279407,,0.7250000238418579,0.0,-0.9100000262260437,nan,nan,nan,0.699999988079071,2,0,0,True,0.7250000238418579,id0,
1737286274.302855,21012,1737286274,302346870,,0.7239999771118164,0.0,-0.9200000166893005,nan,nan,nan,0.699999988079071,2,0,0,True,0.7239999771118164,id0,
1737286274.3986263,21013,1737286274,398300462,,0.7300000190734863,0.0,-0.9100000262260437,nan,nan,nan,0.699999988079071,2,0,0,True,0.7300000190734863,id0,
1737286274.513778,21014,1737286274,513318277,,0.7289999723434448,0.0,-0.9200000166893005,nan,nan,nan,0.699999988079071,2,0,0,True,0.7289999723434448,id0,
1737286274.598612,21015,1737286274,597595740,,0.7250000238418579,0.0,-0.9200000166893005,nan,nan,nan,0.699999988079071,2,0,0,True,0.7250000238418579,id0,
1737286274.7037864,21016,1737286274,703345221,,0.7210000157356262,0.0,-0.9100000262260437,nan,nan,nan,0.699999988079071,2,0,0,True,0.7210000157356262,id0,
1737286274.797684,21017,1737286274,797361629,,0.7269999980926514,0.0,-0.9200000166893005,nan,nan,nan,0.699999988079071,2,0,0,True,0.7269999980926514,id0,
1737286274.9079332,21018,1737286274,907385962,,0.7229999899864197,0.0,-0.9200000166893005,nan,nan,nan,0.699999988079071,2,0,0,True,0.7229999899864197,id0,
1737286274.9988256,21019,1737286274,998382314,,0.7260000109672546,0.0,-0.9100000262260437,nan,nan,nan,0.699999988079071,2,0,0,True,0.7260000109672546,id0,
1737286275.099851,21020,1737286275,99406258,,0.718999981880188,0.0,-0.9300000071525574,nan,nan,nan,0.699999988079071,2,0,0,True,0.718999981880188,id0,
1737286275.1998634,21021,1737286275,199415184,,0.7239999771118164,0.0,-0.9200000166893005,nan,nan,nan,0.699999988079071,2,0,0,True,0.7239999771118164,id0,
1737286275.3046207,21022,1737286275,303682536,,0.7310000061988831,0.0,-0.9200000166893005,nan,nan,nan,0.699999988079071,2,0,0,True,0.7310000061988831,id0,
1737286275.399759,21023,1737286275,399444313,,0.7289999723434448,0.0,-0.9100000262260437,nan,nan,nan,0.699999988079071,2,0,0,True,0.7289999723434448,id0,
1737286275.5048661,21024,1737286275,504508850,,0.7229999899864197,0.0,-0.9200000166893005,nan,nan,nan,0.699999988079071,2,0,0,True,0.7229999899864197,id0,
1737286275.5960464,21025,1737286275,595530573,,0.7229999899864197,0.0,-0.9100000262260437,nan,nan,nan,0.699999988079071,2,0,0,True,0.7229999899864197,id0,
1737286275.7043293,21026,1737286275,703434647,,0.7229999899864197,0.0,-0.9100000262260437,nan,nan,nan,0.699999988079071,2,0,0,True,0.7229999899864197,id0,
1737286275.7968454,21027,1737286275,796493517,,0.7229999899864197,0.0,-0.9200000166893005,nan,nan,nan,0.699999988079071,2,0,0,True,0.7269999980926514,id0,
1737286275.9078677,21028,1737286275,906800276,,0.7269999980926514,0.0,-0.9200000166893005,nan,nan,nan,0.699999988079071,2,0,0,True,0.7239999771118164,id0,
1737286275.9948313,21029,1737286275,994519257,,0.7239999771118164,0.0,-0.9200000166893005,nan,nan,nan,0.699999988079071,2,0,0,True,0.7239999771118164,id0,
1737286276.0971048,21030,1737286276,96590980,,0.7229999899864197,0.0,-0.9100000262260437,nan,nan,nan,0.699999988079071,2,0,0,True,0.7229999899864197,id0,
1737286276.196556,21031,1737286276,195874924,,0.7200000286102295,0.0,-0.9200000166893005,nan,nan,nan,0.699999988079071,2,0,0,True,0.7200000286102295,id0,
1737286276.3050218,21032,1737286276,304556109,,0.718999981880188,0.0,-0.8999999761581421,nan,nan,nan,0.699999988079071,2,0,0,True,0.718999981880188,id0,
1737286276.4000754,21033,1737286276,399579998,,0.7260000109672546,0.0,-0.9200000166893005,nan,nan,nan,0.699999988079071,2,0,0,True,0.7260000109672546,id0,
1737286276.5028265,21034,1737286276,501946794,,0.7160000205039978,0.0,-0.8999999761581421,nan,nan,nan,0.699999988079071,2,0,0,True,0.7160000205039978,id0,
1737286276.5980804,21035,1737286276,597661276,,0.7250000238418579,0.0,-0.9100000262260437,nan,nan,nan,0.699999988079071,2,0,0,True,0.7250000238418579,id0,
1737286276.7089102,21036,1737286276,707925127,,0.7210000157356262,0.0,-0.9200000166893005,nan,nan,nan,0.699999988079071,2,0,0,True,0.7210000157356262,id0,
1737286276.7968812,21037,1737286276,795925276,,0.7260000109672546,0.0,-0.9200000166893005,nan,nan,nan,0.699999988079071,2,0,0,True,0.7260000109672546,id0,
1737286276.901886,21038,1737286276,900978072,,0.7250000238418579,0.0,-0.9100000262260437,nan,nan,nan,0.699999988079071,2,0,0,True,0.7250000238418579,id0,
1737286276.9957986,21039,1737286276,994907387,,0.7300000190734863,0.0,-0.9200000166893005,nan,nan,nan,0.699999988079071,2,0,0,True,0.7300000190734863,id0,
1737286277.0968022,21040,1737286277,95938942,,0.7269999980926514,0.0,-0.9100000262260437,nan,nan,nan,0.699999988079071,2,0,0,True,0.7269999980926514,id0,
1737286277.198182,21041,1737286277,197726183,,0.7300000190734863,0.0,-0.9200000166893005,nan,nan,nan,0.699999988079071,2,0,0,True,0.7300000190734863,id0,
1737286277.3195417,21042,1737286277,299663905,,0.7239999771118164,0.0,-0.9300000071525574,nan,nan,nan,0.699999988079071,2,0,0,True,0.7239999771118164,id0,
1737286277.397185,21043,1737286277,396774849,,0.7160000205039978,0.0,-0.9100000262260437,nan,nan,nan,0.699999988079071,2,0,0,True,0.7160000205039978,id0,
1737286277.505883,21044,1737286277,505015942,,0.722000002861023,0.0,-0.9200000166893005,nan,nan,nan,0.699999988079071,2,0,0,True,0.722000002861023,id0,
1737286277.5969641,21045,1737286277,596038460,,0.718999981880188,0.0,-0.9200000166893005,nan,nan,nan,0.699999988079071,2,0,0,True,0.718999981880188,id0,
1737286277.7045033,21046,1737286277,703937682,,0.7269999980926514,0.0,-0.9200000166893005,nan,nan,nan,0.699999988079071,2,0,0,True,0.7269999980926514,id0,
1737286277.809592,21047,1737286277,798041034,,0.7250000238418579,0.0,-0.9200000166893005,nan,nan,nan,0.699999988079071,2,0,0,True,0.7250000238418579,id0,
1737286277.9072883,21048,1737286277,906804423,,0.7229999899864197,0.0,-0.9100000262260437,nan,nan,nan,0.699999988079071,2,0,0,True,0.7229999899864197,id0,
1737286277.9973524,21049,1737286277,996859941,,0.7200000286102295,0.0,-0.9200000166893005,nan,nan,nan,0.699999988079071,2,0,0,True,0.7200000286102295,id0,
1737286278.1063662,21050,1737286278,105869904,,0.722000002861023,0.0,-0.9100000262260437,nan,nan,nan,0.699999988079071,2,0,0,True,0.722000002861023,id0,
1737286278.200327,21051,1737286278,199890460,,0.7269999980926514,0.0,-0.9100000262260437,nan,nan,nan,0.699999988079071,2,0,0,True,0.7269999980926514,id0,
1737286278.3070114,21052,1737286278,306125793,,0.7229999899864197,0.0,-0.9100000262260437,nan,nan,nan,0.699999988079071,2,0,0,True,0.7229999899864197,id0,
1737286278.4053655,21053,1737286278,404859645,,0.7269999980926514,0.0,-0.9200000166893005,nan,nan,nan,0.699999988079071,2,0,0,True,0.7269999980926514,id0,
1737286278.5090823,21054,1737286278,508199219,,0.7279999852180481,0.0,-0.9200000166893005,nan,nan,nan,0.699999988079071,2,0,0,True,0.7279999852180481,id0,
1737286278.604354,21055,1737286278,603887163,,0.7300000190734863,0.0,-0.9100000262260437,nan,nan,nan,0.699999988079071,2,0,0,True,0.7300000190734863,id0,
1737286278.7069848,21056,1737286278,706240015,,0.7300000190734863,0.0,-0.9200000166893005,nan,nan,nan,0.699999988079071,2,0,0,True,0.7300000190734863,id0,
1737286278.803244,21057,1737286278,802919089,,0.7279999852180481,0.0,-0.9300000071525574,nan,nan,nan,0.699999988079071,2,0,0,True,0.7279999852180481,id0,
