Time,header.seq,header.stamp.secs,header.stamp.nsecs,header.frame_id,child_frame_id,pose.pose.position.x,pose.pose.position.y,pose.pose.position.z,pose.pose.orientation.x,pose.pose.orientation.y,pose.pose.orientation.z,pose.pose.orientation.w,pose.covariance,twist.twist.linear.x,twist.twist.linear.y,twist.twist.linear.z,twist.twist.angular.x,twist.twist.angular.y,twist.twist.angular.z,twist.covariance
1737286240.2856047,20669,1737286240,89343808,map,base_link,0.04639179394862869,-6.644422811984042,1.446,0.004163395327880345,0.0030176257620245198,-0.7002780120174189,-0.7138517114632672,"(1.0302249999999997, 0.0, 0.0, 0.0, 0.0, 0.0, 0.0, 1.0302249999999997, 0.0, 0.0, 0.0, 0.0, 0.0, 0.0, 1.868689, 0.0, 0.0, 0.0, 0.0, 0.0, 0.0, 99999.0, 0.0, 0.0, 0.0, 0.0, 0.0, 0.0, 99999.0, 0.0, 0.0, 0.0, 0.0, 0.0, 0.0, 99999.0)",0.0,-0.1,-1.18,0.0,0.0,0.0,"(-1.0, 0.0, 0.0, 0.0, 0.0, 0.0, 0.0, 0.0, 0.0, 0.0, 0.0, 0.0, 0.0, 0.0, 0.0, 0.0, 0.0, 0.0, 0.0, 0.0, 0.0, 0.0, 0.0, 0.0, 0.0, 0.0, 0.0, 0.0, 0.0, 0.0, 0.0, 0.0, 0.0, 0.0, 0.0, 0.0)"
1737286240.2858226,20670,1737286240,185340992,map,base_link,0.046391794683418475,-6.655515451839567,1.552,0.004144728426819776,0.0006951810356592063,-0.6939380306083667,-0.7200224632780406,"(1.032256, 0.0, 0.0, 0.0, 0.0, 0.0, 0.0, 1.032256, 0.0, 0.0, 0.0, 0.0, 0.0, 0.0, 1.8769000000000002, 0.0, 0.0, 0.0, 0.0, 0.0, 0.0, 99999.0, 0.0, 0.0, 0.0, 0.0, 0.0, 0.0, 99999.0, 0.0, 0.0, 0.0, 0.0, 0.0, 0.0, 99999.0)",0.05,-0.1,-1.1,0.0,0.0,0.0,"(-1.0, 0.0, 0.0, 0.0, 0.0, 0.0, 0.0, 0.0, 0.0, 0.0, 0.0, 0.0, 0.0, 0.0, 0.0, 0.0, 0.0, 0.0, 0.0, 0.0, 0.0, 0.0, 0.0, 0.0, 0.0, 0.0, 0.0, 0.0, 0.0, 0.0, 0.0, 0.0, 0.0, 0.0, 0.0, 0.0)"
1737286240.287626,20671,1737286240,285335872,map,base_link,0.04639179579470509,-6.677700620171061,1.66,0.007863200989033535,-0.0030317258518830843,-0.6881855827332238,-0.7254857561845707,"(1.032256, 0.0, 0.0, 0.0, 0.0, 0.0, 0.0, 1.032256, 0.0, 0.0, 0.0, 0.0, 0.0, 0.0, 1.8769000000000002, 0.0, 0.0, 0.0, 0.0, 0.0, 0.0, 99999.0, 0.0, 0.0, 0.0, 0.0, 0.0, 0.0, 99999.0, 0.0, 0.0, 0.0, 0.0, 0.0, 0.0, 99999.0)",0.01,-0.13,-1.0,0.0,0.0,0.0,"(-1.0, 0.0, 0.0, 0.0, 0.0, 0.0, 0.0, 0.0, 0.0, 0.0, 0.0, 0.0, 0.0, 0.0, 0.0, 0.0, 0.0, 0.0, 0.0, 0.0, 0.0, 0.0, 0.0, 0.0, 0.0, 0.0, 0.0, 0.0, 0.0, 0.0, 0.0, 0.0, 0.0, 0.0, 0.0, 0.0)"
1737286240.3870115,20672,1737286240,384330752,map,base_link,0.04639179652949488,-6.68879326157735,1.77,0.006557307530820901,-0.003867030555678818,-0.6837283422231119,-0.7296969246430074,"(1.0404, 0.0, 0.0, 0.0, 0.0, 0.0, 0.0, 1.0404, 0.0, 0.0, 0.0, 0.0, 0.0, 0.0, 1.885129, 0.0, 0.0, 0.0, 0.0, 0.0, 0.0, 99999.0, 0.0, 0.0, 0.0, 0.0, 0.0, 0.0, 99999.0, 0.0, 0.0, 0.0, 0.0, 0.0, 0.0, 99999.0)",0.02,-0.12,-1.01,0.0,0.0,0.0,"(-1.0, 0.0, 0.0, 0.0, 0.0, 0.0, 0.0, 0.0, 0.0, 0.0, 0.0, 0.0, 0.0, 0.0, 0.0, 0.0, 0.0, 0.0, 0.0, 0.0, 0.0, 0.0, 0.0, 0.0, 0.0, 0.0, 0.0, 0.0, 0.0, 0.0, 0.0, 0.0, 0.0, 0.0, 0.0, 0.0)"
1737286240.4881396,20673,1737286240,485325632,map,base_link,0.046391797583692274,-6.710978418629172,1.872,0.009027953316749259,-0.006088818349844838,-0.6828215438472863,-0.7305040462639625,"(1.0404, 0.0, 0.0, 0.0, 0.0, 0.0, 0.0, 1.0404, 0.0, 0.0, 0.0, 0.0, 0.0, 0.0, 1.885129, 0.0, 0.0, 0.0, 0.0, 0.0, 0.0, 99999.0, 0.0, 0.0, 0.0, 0.0, 0.0, 0.0, 99999.0, 0.0, 0.0, 0.0, 0.0, 0.0, 0.0, 99999.0)",-0.01,-0.14,-0.94,0.0,0.0,0.0,"(-1.0, 0.0, 0.0, 0.0, 0.0, 0.0, 0.0, 0.0, 0.0, 0.0, 0.0, 0.0, 0.0, 0.0, 0.0, 0.0, 0.0, 0.0, 0.0, 0.0, 0.0, 0.0, 0.0, 0.0, 0.0, 0.0, 0.0, 0.0, 0.0, 0.0, 0.0, 0.0, 0.0, 0.0, 0.0, 0.0)"
1737286240.5857153,20674,1737286240,583319744,map,base_link,0.04639179825859108,-6.73316356686617,1.968,0.00860896596552964,-0.007107218805410413,-0.6826436184706388,-0.7306661777495723,"(1.044484, 0.0, 0.0, 0.0, 0.0, 0.0, 0.0, 1.044484, 0.0, 0.0, 0.0, 0.0, 0.0, 0.0, 1.890625, 0.0, 0.0, 0.0, 0.0, 0.0, 0.0, 99999.0, 0.0, 0.0, 0.0, 0.0, 0.0, 0.0, 99999.0, 0.0, 0.0, 0.0, 0.0, 0.0, 0.0, 99999.0)",0.0,-0.13,-0.83,0.0,0.0,0.0,"(-1.0, 0.0, 0.0, 0.0, 0.0, 0.0, 0.0, 0.0, 0.0, 0.0, 0.0, 0.0, 0.0, 0.0, 0.0, 0.0, 0.0, 0.0, 0.0, 0.0, 0.0, 0.0, 0.0, 0.0, 0.0, 0.0, 0.0, 0.0, 0.0, 0.0, 0.0, 0.0, 0.0, 0.0, 0.0, 0.0)"
1737286240.6891308,20675,1737286240,685313856,map,base_link,0.046391798879202195,-6.744256189977725,2.059,0.012341244584286766,-0.007253233220148222,-0.6850769646213392,-0.7283300329075943,"(1.044484, 0.0, 0.0, 0.0, 0.0, 0.0, 0.0, 1.044484, 0.0, 0.0, 0.0, 0.0, 0.0, 0.0, 1.890625, 0.0, 0.0, 0.0, 0.0, 0.0, 0.0, 99999.0, 0.0, 0.0, 0.0, 0.0, 0.0, 0.0, 99999.0, 0.0, 0.0, 0.0, 0.0, 0.0, 0.0, 99999.0)",-0.01,-0.13,-0.77,0.0,0.0,0.0,"(-1.0, 0.0, 0.0, 0.0, 0.0, 0.0, 0.0, 0.0, 0.0, 0.0, 0.0, 0.0, 0.0, 0.0, 0.0, 0.0, 0.0, 0.0, 0.0, 0.0, 0.0, 0.0, 0.0, 0.0, 0.0, 0.0, 0.0, 0.0, 0.0, 0.0, 0.0, 0.0, 0.0, 0.0, 0.0, 0.0)"
1737286240.7883,20676,1737286240,785308224,map,base_link,0.06494851983073469,-6.766441338802689,2.144,0.013500346233699086,-0.007739588553904812,-0.6895924845649897,-0.7240304169384536,"(1.048576, 0.0, 0.0, 0.0, 0.0, 0.0, 0.0, 1.048576, 0.0, 0.0, 0.0, 0.0, 0.0, 0.0, 1.901641, 0.0, 0.0, 0.0, 0.0, 0.0, 0.0, 99999.0, 0.0, 0.0, 0.0, 0.0, 0.0, 0.0, 99999.0, 0.0, 0.0, 0.0, 0.0, 0.0, 0.0, 99999.0)",-0.01,-0.13,-0.76,0.0,0.0,0.0,"(-1.0, 0.0, 0.0, 0.0, 0.0, 0.0, 0.0, 0.0, 0.0, 0.0, 0.0, 0.0, 0.0, 0.0, 0.0, 0.0, 0.0, 0.0, 0.0, 0.0, 0.0, 0.0, 0.0, 0.0, 0.0, 0.0, 0.0, 0.0, 0.0, 0.0, 0.0, 0.0, 0.0, 0.0, 0.0, 0.0)"
1737286240.8896291,20677,1737286240,885302336,map,base_link,0.06494852068289791,-6.777533939380419,2.219,0.013877496733065734,-0.0061429612017695765,-0.6905332784381603,-0.7231413903805697,"(1.048576, 0.0, 0.0, 0.0, 0.0, 0.0, 0.0, 1.048576, 0.0, 0.0, 0.0, 0.0, 0.0, 0.0, 1.901641, 0.0, 0.0, 0.0, 0.0, 0.0, 0.0, 99999.0, 0.0, 0.0, 0.0, 0.0, 0.0, 0.0, 99999.0, 0.0, 0.0, 0.0, 0.0, 0.0, 0.0, 99999.0)",0.02,-0.11,-0.67,0.0,0.0,0.0,"(-1.0, 0.0, 0.0, 0.0, 0.0, 0.0, 0.0, 0.0, 0.0, 0.0, 0.0, 0.0, 0.0, 0.0, 0.0, 0.0, 0.0, 0.0, 0.0, 0.0, 0.0, 0.0, 0.0, 0.0, 0.0, 0.0, 0.0, 0.0, 0.0, 0.0, 0.0, 0.0, 0.0, 0.0, 0.0, 0.0)"
1737286240.9856982,20678,1737286240,983296960,map,base_link,0.0649485211966383,-6.788626551844324,2.292,0.018066059503453684,-0.006897283692453594,-0.6933306853207349,-0.7203600528654843,"(1.0547289999999998, 0.0, 0.0, 0.0, 0.0, 0.0, 0.0, 1.0547289999999998, 0.0, 0.0, 0.0, 0.0, 0.0, 0.0, 1.9099239999999997, 0.0, 0.0, 0.0, 0.0, 0.0, 0.0, 99999.0, 0.0, 0.0, 0.0, 0.0, 0.0, 0.0, 99999.0, 0.0, 0.0, 0.0, 0.0, 0.0, 0.0, 99999.0)",-0.03,-0.11,-0.56,0.0,0.0,0.0,"(-1.0, 0.0, 0.0, 0.0, 0.0, 0.0, 0.0, 0.0, 0.0, 0.0, 0.0, 0.0, 0.0, 0.0, 0.0, 0.0, 0.0, 0.0, 0.0, 0.0, 0.0, 0.0, 0.0, 0.0, 0.0, 0.0, 0.0, 0.0, 0.0, 0.0, 0.0, 0.0, 0.0, 0.0, 0.0, 0.0)"
1737286241.089644,20679,1737286241,85291840,map,base_link,0.055670161324471,-6.788626627168623,2.367,0.014822688730014652,-0.0077248355829138285,-0.6929223720644156,-0.7208184245055429,"(1.0547289999999998, 0.0, 0.0, 0.0, 0.0, 0.0, 0.0, 1.0547289999999998, 0.0, 0.0, 0.0, 0.0, 0.0, 0.0, 1.9099239999999997, 0.0, 0.0, 0.0, 0.0, 0.0, 0.0, 99999.0, 0.0, 0.0, 0.0, 0.0, 0.0, 0.0, 99999.0, 0.0, 0.0, 0.0, 0.0, 0.0, 0.0, 99999.0)",-0.02,-0.09,-0.54,0.0,0.0,0.0,"(-1.0, 0.0, 0.0, 0.0, 0.0, 0.0, 0.0, 0.0, 0.0, 0.0, 0.0, 0.0, 0.0, 0.0, 0.0, 0.0, 0.0, 0.0, 0.0, 0.0, 0.0, 0.0, 0.0, 0.0, 0.0, 0.0, 0.0, 0.0, 0.0, 0.0, 0.0, 0.0, 0.0, 0.0, 0.0, 0.0)"
1737286241.188526,20680,1737286241,185286208,map,base_link,0.05567016179733564,-6.799719218156143,2.427,0.013644192532174696,-0.008490429799664335,-0.6886672986464459,-0.7248993725938578,"(1.056784, 0.0, 0.0, 0.0, 0.0, 0.0, 0.0, 1.056784, 0.0, 0.0, 0.0, 0.0, 0.0, 0.0, 1.9099239999999997, 0.0, 0.0, 0.0, 0.0, 0.0, 0.0, 99999.0, 0.0, 0.0, 0.0, 0.0, 0.0, 0.0, 99999.0, 0.0, 0.0, 0.0, 0.0, 0.0, 0.0, 99999.0)",-0.03,-0.09,-0.4,0.0,0.0,0.0,"(-1.0, 0.0, 0.0, 0.0, 0.0, 0.0, 0.0, 0.0, 0.0, 0.0, 0.0, 0.0, 0.0, 0.0, 0.0, 0.0, 0.0, 0.0, 0.0, 0.0, 0.0, 0.0, 0.0, 0.0, 0.0, 0.0, 0.0, 0.0, 0.0, 0.0, 0.0, 0.0, 0.0, 0.0, 0.0, 0.0)"
1737286241.289729,20681,1737286241,285280832,map,base_link,0.05567016226569388,-6.799719282223124,2.485,0.00981424969583099,-0.008193388678816341,-0.6851323802038077,-0.7283063713034035,"(1.056784, 0.0, 0.0, 0.0, 0.0, 0.0, 0.0, 1.056784, 0.0, 0.0, 0.0, 0.0, 0.0, 0.0, 1.9099239999999997, 0.0, 0.0, 0.0, 0.0, 0.0, 0.0, 99999.0, 0.0, 0.0, 0.0, 0.0, 0.0, 0.0, 99999.0, 0.0, 0.0, 0.0, 0.0, 0.0, 0.0, 99999.0)",-0.02,-0.07,-0.35,0.0,0.0,0.0,"(-1.0, 0.0, 0.0, 0.0, 0.0, 0.0, 0.0, 0.0, 0.0, 0.0, 0.0, 0.0, 0.0, 0.0, 0.0, 0.0, 0.0, 0.0, 0.0, 0.0, 0.0, 0.0, 0.0, 0.0, 0.0, 0.0, 0.0, 0.0, 0.0, 0.0, 0.0, 0.0, 0.0, 0.0, 0.0, 0.0)"
1737286241.3874261,20682,1737286241,385275456,map,base_link,0.05567016268146929,-6.8108118634817405,2.53,0.011922275865178694,-0.009892929234796802,-0.6838619799139238,-0.7294469012324051,"(1.058841, 0.0, 0.0, 0.0, 0.0, 0.0, 0.0, 1.058841, 0.0, 0.0, 0.0, 0.0, 0.0, 0.0, 1.912689, 0.0, 0.0, 0.0, 0.0, 0.0, 0.0, 99999.0, 0.0, 0.0, 0.0, 0.0, 0.0, 0.0, 99999.0, 0.0, 0.0, 0.0, 0.0, 0.0, 0.0, 99999.0)",-0.03,-0.07,-0.27,0.0,0.0,0.0,"(-1.0, 0.0, 0.0, 0.0, 0.0, 0.0, 0.0, 0.0, 0.0, 0.0, 0.0, 0.0, 0.0, 0.0, 0.0, 0.0, 0.0, 0.0, 0.0, 0.0, 0.0, 0.0, 0.0, 0.0, 0.0, 0.0, 0.0, 0.0, 0.0, 0.0, 0.0, 0.0, 0.0, 0.0, 0.0, 0.0)"
1737286241.488541,20683,1737286241,485270080,map,base_link,0.05567016310615003,-6.821904422244256,2.564,0.011250815840980382,-0.009426917549515867,-0.6872049560713677,-0.7263152901594296,"(1.058841, 0.0, 0.0, 0.0, 0.0, 0.0, 0.0, 1.058841, 0.0, 0.0, 0.0, 0.0, 0.0, 0.0, 1.912689, 0.0, 0.0, 0.0, 0.0, 0.0, 0.0, 99999.0, 0.0, 0.0, 0.0, 0.0, 0.0, 0.0, 99999.0, 0.0, 0.0, 0.0, 0.0, 0.0, 0.0, 99999.0)",-0.01,-0.06,-0.19,0.0,0.0,0.0,"(-1.0, 0.0, 0.0, 0.0, 0.0, 0.0, 0.0, 0.0, 0.0, 0.0, 0.0, 0.0, 0.0, 0.0, 0.0, 0.0, 0.0, 0.0, 0.0, 0.0, 0.0, 0.0, 0.0, 0.0, 0.0, 0.0, 0.0, 0.0, 0.0, 0.0, 0.0, 0.0, 0.0, 0.0, 0.0, 0.0)"
1737286241.5859797,20684,1737286241,584265984,map,base_link,0.04639180298827128,-6.821904432688466,2.578,0.010742004469953489,-0.009569768898243883,-0.7199700038568431,-0.6938560530899612,"(1.058841, 0.0, 0.0, 0.0, 0.0, 0.0, 0.0, 1.058841, 0.0, 0.0, 0.0, 0.0, 0.0, 0.0, 1.912689, 0.0, 0.0, 0.0, 0.0, 0.0, 0.0, 99999.0, 0.0, 0.0, 0.0, 0.0, 0.0, 0.0, 99999.0, 0.0, 0.0, 0.0, 0.0, 0.0, 0.0, 99999.0)",0.0,-0.05,-0.08,0.0,0.0,0.0,"(-1.0, 0.0, 0.0, 0.0, 0.0, 0.0, 0.0, 0.0, 0.0, 0.0, 0.0, 0.0, 0.0, 0.0, 0.0, 0.0, 0.0, 0.0, 0.0, 0.0, 0.0, 0.0, 0.0, 0.0, 0.0, 0.0, 0.0, 0.0, 0.0, 0.0, 0.0, 0.0, 0.0, 0.0, 0.0, 0.0)"
1737286241.6866772,20685,1737286241,683259328,map,base_link,0.03711344254087501,-6.821904432522752,2.578,0.007252540210753839,-0.00989229313197095,-0.7570992166121686,-0.6531847513547168,"(1.058841, 0.0, 0.0, 0.0, 0.0, 0.0, 0.0, 1.058841, 0.0, 0.0, 0.0, 0.0, 0.0, 0.0, 1.912689, 0.0, 0.0, 0.0, 0.0, 0.0, 0.0, 99999.0, 0.0, 0.0, 0.0, 0.0, 0.0, 0.0, 99999.0, 0.0, 0.0, 0.0, 0.0, 0.0, 0.0, 99999.0)",-0.01,-0.03,0.0,0.0,0.0,0.0,"(-1.0, 0.0, 0.0, 0.0, 0.0, 0.0, 0.0, 0.0, 0.0, 0.0, 0.0, 0.0, 0.0, 0.0, 0.0, 0.0, 0.0, 0.0, 0.0, 0.0, 0.0, 0.0, 0.0, 0.0, 0.0, 0.0, 0.0, 0.0, 0.0, 0.0, 0.0, 0.0, 0.0, 0.0, 0.0, 0.0)"
1737286241.787325,20686,1737286241,784253440,map,base_link,0.027835081321469834,-6.810811906426032,2.572,0.008239595037918329,-0.011829690198845668,-0.7650728065974917,-0.6437823918906508,"(1.058841, 0.0, 0.0, 0.0, 0.0, 0.0, 0.0, 1.058841, 0.0, 0.0, 0.0, 0.0, 0.0, 0.0, 1.9154559999999998, 0.0, 0.0, 0.0, 0.0, 0.0, 0.0, 99999.0, 0.0, 0.0, 0.0, 0.0, 0.0, 0.0, 99999.0, 0.0, 0.0, 0.0, 0.0, 0.0, 0.0, 99999.0)",-0.01,-0.03,0.07,0.0,0.0,0.0,"(-1.0, 0.0, 0.0, 0.0, 0.0, 0.0, 0.0, 0.0, 0.0, 0.0, 0.0, 0.0, 0.0, 0.0, 0.0, 0.0, 0.0, 0.0, 0.0, 0.0, 0.0, 0.0, 0.0, 0.0, 0.0, 0.0, 0.0, 0.0, 0.0, 0.0, 0.0, 0.0, 0.0, 0.0, 0.0, 0.0)"
1737286241.886864,20687,1737286241,883249344,map,base_link,0.027835081380156668,-6.810811885236367,2.555,0.0074489665033012735,-0.010624755303007263,-0.7517271936326575,-0.6593465354621596,"(1.058841, 0.0, 0.0, 0.0, 0.0, 0.0, 0.0, 1.058841, 0.0, 0.0, 0.0, 0.0, 0.0, 0.0, 1.9154559999999998, 0.0, 0.0, 0.0, 0.0, 0.0, 0.0, 99999.0, 0.0, 0.0, 0.0, 0.0, 0.0, 0.0, 99999.0, 0.0, 0.0, 0.0, 0.0, 0.0, 0.0, 99999.0)",0.01,-0.02,0.04,0.0,0.0,0.0,"(-1.0, 0.0, 0.0, 0.0, 0.0, 0.0, 0.0, 0.0, 0.0, 0.0, 0.0, 0.0, 0.0, 0.0, 0.0, 0.0, 0.0, 0.0, 0.0, 0.0, 0.0, 0.0, 0.0, 0.0, 0.0, 0.0, 0.0, 0.0, 0.0, 0.0, 0.0, 0.0, 0.0, 0.0, 0.0, 0.0)"
1737286241.988036,20688,1737286241,985245504,map,base_link,0.018556721398666154,-6.799719325769539,2.526,0.007931646199114312,-0.007903451167701041,-0.7267405777919936,-0.6868207604890604,"(1.0609, 0.0, 0.0, 0.0, 0.0, 0.0, 0.0, 1.0609, 0.0, 0.0, 0.0, 0.0, 0.0, 0.0, 1.918225, 0.0, 0.0, 0.0, 0.0, 0.0, 0.0, 99999.0, 0.0, 0.0, 0.0, 0.0, 0.0, 0.0, 99999.0, 0.0, 0.0, 0.0, 0.0, 0.0, 0.0, 99999.0)",0.0,-0.01,0.08,0.0,0.0,0.0,"(-1.0, 0.0, 0.0, 0.0, 0.0, 0.0, 0.0, 0.0, 0.0, 0.0, 0.0, 0.0, 0.0, 0.0, 0.0, 0.0, 0.0, 0.0, 0.0, 0.0, 0.0, 0.0, 0.0, 0.0, 0.0, 0.0, 0.0, 0.0, 0.0, 0.0, 0.0, 0.0, 0.0, 0.0, 0.0, 0.0)"
1737286242.0891867,20689,1737286242,84243712,map,base_link,0.018556721308009116,-6.799719303374412,2.5,0.01041024855648928,-0.010196692781063926,-0.7003653726010561,-0.7136357607650449,"(1.0609, 0.0, 0.0, 0.0, 0.0, 0.0, 0.0, 1.0609, 0.0, 0.0, 0.0, 0.0, 0.0, 0.0, 1.918225, 0.0, 0.0, 0.0, 0.0, 0.0, 0.0, 99999.0, 0.0, 0.0, 0.0, 0.0, 0.0, 0.0, 99999.0, 0.0, 0.0, 0.0, 0.0, 0.0, 0.0, 99999.0)",0.0,-0.01,0.11,0.0,0.0,0.0,"(-1.0, 0.0, 0.0, 0.0, 0.0, 0.0, 0.0, 0.0, 0.0, 0.0, 0.0, 0.0, 0.0, 0.0, 0.0, 0.0, 0.0, 0.0, 0.0, 0.0, 0.0, 0.0, 0.0, 0.0, 0.0, 0.0, 0.0, 0.0, 0.0, 0.0, 0.0, 0.0, 0.0, 0.0, 0.0, 0.0)"
1737286242.1858804,20690,1737286242,183239872,map,base_link,3.6783442958210344e-10,-6.788626755033751,2.482,0.00909060930715501,-0.010450929092290033,-0.6803578696523347,-0.7327491440497692,"(1.0609, 0.0, 0.0, 0.0, 0.0, 0.0, 0.0, 1.0609, 0.0, 0.0, 0.0, 0.0, 0.0, 0.0, 1.9209959999999997, 0.0, 0.0, 0.0, 0.0, 0.0, 0.0, 99999.0, 0.0, 0.0, 0.0, 0.0, 0.0, 0.0, 99999.0, 0.0, 0.0, 0.0, 0.0, 0.0, 0.0, 99999.0)",-0.03,-0.01,0.14,0.0,0.0,0.0,"(-1.0, 0.0, 0.0, 0.0, 0.0, 0.0, 0.0, 0.0, 0.0, 0.0, 0.0, 0.0, 0.0, 0.0, 0.0, 0.0, 0.0, 0.0, 0.0, 0.0, 0.0, 0.0, 0.0, 0.0, 0.0, 0.0, 0.0, 0.0, 0.0, 0.0, 0.0, 0.0, 0.0, 0.0, 0.0, 0.0)"
1737286242.2900183,20691,1737286242,286237056,map,base_link,-0.009278361183889583,-6.788626734111339,2.466,0.0028483507966262315,-0.010398714686756943,-0.6707186578587357,-0.7416334914435696,"(1.0609, 0.0, 0.0, 0.0, 0.0, 0.0, 0.0, 1.0609, 0.0, 0.0, 0.0, 0.0, 0.0, 0.0, 1.9209959999999997, 0.0, 0.0, 0.0, 0.0, 0.0, 0.0, 99999.0, 0.0, 0.0, 0.0, 0.0, 0.0, 0.0, 99999.0, 0.0, 0.0, 0.0, 0.0, 0.0, 0.0, 99999.0)",0.0,0.0,0.11,0.0,0.0,0.0,"(-1.0, 0.0, 0.0, 0.0, 0.0, 0.0, 0.0, 0.0, 0.0, 0.0, 0.0, 0.0, 0.0, 0.0, 0.0, 0.0, 0.0, 0.0, 0.0, 0.0, 0.0, 0.0, 0.0, 0.0, 0.0, 0.0, 0.0, 0.0, 0.0, 0.0, 0.0, 0.0, 0.0, 0.0, 0.0, 0.0)"
1737286242.3873389,20692,1737286242,385231936,map,base_link,-0.018556721070216442,-6.788626722797105,2.455,0.00032432349528317597,-0.010176378122973395,-0.6726939776976512,-0.7398507609726983,"(1.0609, 0.0, 0.0, 0.0, 0.0, 0.0, 0.0, 1.0609, 0.0, 0.0, 0.0, 0.0, 0.0, 0.0, 1.9209959999999997, 0.0, 0.0, 0.0, 0.0, 0.0, 0.0, 99999.0, 0.0, 0.0, 0.0, 0.0, 0.0, 0.0, 99999.0, 0.0, 0.0, 0.0, 0.0, 0.0, 0.0, 99999.0)",0.0,0.0,0.02,0.0,0.0,0.0,"(-1.0, 0.0, 0.0, 0.0, 0.0, 0.0, 0.0, 0.0, 0.0, 0.0, 0.0, 0.0, 0.0, 0.0, 0.0, 0.0, 0.0, 0.0, 0.0, 0.0, 0.0, 0.0, 0.0, 0.0, 0.0, 0.0, 0.0, 0.0, 0.0, 0.0, 0.0, 0.0, 0.0, 0.0, 0.0, 0.0)"
1737286242.4893918,20693,1737286242,486229120,map,base_link,-0.027835080837965487,-6.777534185013265,2.448,0.0011013427395944846,-0.010707998906885124,-0.6802209264896801,-0.7329281117334094,"(1.0609, 0.0, 0.0, 0.0, 0.0, 0.0, 0.0, 1.0609, 0.0, 0.0, 0.0, 0.0, 0.0, 0.0, 1.9209959999999997, 0.0, 0.0, 0.0, 0.0, 0.0, 0.0, 99999.0, 0.0, 0.0, 0.0, 0.0, 0.0, 0.0, 99999.0, 0.0, 0.0, 0.0, 0.0, 0.0, 0.0, 99999.0)",0.01,-0.02,-0.01,0.0,0.0,0.0,"(-1.0, 0.0, 0.0, 0.0, 0.0, 0.0, 0.0, 0.0, 0.0, 0.0, 0.0, 0.0, 0.0, 0.0, 0.0, 0.0, 0.0, 0.0, 0.0, 0.0, 0.0, 0.0, 0.0, 0.0, 0.0, 0.0, 0.0, 0.0, 0.0, 0.0, 0.0, 0.0, 0.0, 0.0, 0.0, 0.0)"
1737286242.5873404,20694,1737286242,585224000,map,base_link,-0.037113441884505605,-6.766441657960075,2.443,0.001008811930885923,-0.010738405423921321,-0.6899682749401249,-0.7237592476256092,"(1.0629609999999998, 0.0, 0.0, 0.0, 0.0, 0.0, 0.0, 1.0629609999999998, 0.0, 0.0, 0.0, 0.0, 0.0, 0.0, 1.923769, 0.0, 0.0, 0.0, 0.0, 0.0, 0.0, 99999.0, 0.0, 0.0, 0.0, 0.0, 0.0, 0.0, 99999.0, 0.0, 0.0, 0.0, 0.0, 0.0, 0.0, 99999.0)",0.0,0.0,-0.01,0.0,0.0,0.0,"(-1.0, 0.0, 0.0, 0.0, 0.0, 0.0, 0.0, 0.0, 0.0, 0.0, 0.0, 0.0, 0.0, 0.0, 0.0, 0.0, 0.0, 0.0, 0.0, 0.0, 0.0, 0.0, 0.0, 0.0, 0.0, 0.0, 0.0, 0.0, 0.0, 0.0, 0.0, 0.0, 0.0, 0.0, 0.0, 0.0)"
1737286242.6864688,20695,1737286242,684220160,map,base_link,-0.04639180181781177,-6.755349129942869,2.441,0.0009508612720693009,-0.00947893534408158,-0.6980350184713011,-0.7160002504436392,"(1.0629609999999998, 0.0, 0.0, 0.0, 0.0, 0.0, 0.0, 1.0629609999999998, 0.0, 0.0, 0.0, 0.0, 0.0, 0.0, 1.923769, 0.0, 0.0, 0.0, 0.0, 0.0, 0.0, 99999.0, 0.0, 0.0, 0.0, 0.0, 0.0, 0.0, 99999.0, 0.0, 0.0, 0.0, 0.0, 0.0, 0.0, 99999.0)",0.01,-0.01,-0.02,0.0,0.0,0.0,"(-1.0, 0.0, 0.0, 0.0, 0.0, 0.0, 0.0, 0.0, 0.0, 0.0, 0.0, 0.0, 0.0, 0.0, 0.0, 0.0, 0.0, 0.0, 0.0, 0.0, 0.0, 0.0, 0.0, 0.0, 0.0, 0.0, 0.0, 0.0, 0.0, 0.0, 0.0, 0.0, 0.0, 0.0, 0.0, 0.0)"
1737286242.7863808,20696,1737286242,784215552,map,base_link,-0.07422688191368088,-6.7220715487229326,2.442,-0.002664045755063865,-0.00928028753439124,-0.7033105568236014,-0.7108171633999629,"(1.065024, 0.0, 0.0, 0.0, 0.0, 0.0, 0.0, 1.065024, 0.0, 0.0, 0.0, 0.0, 0.0, 0.0, 1.9265439999999998, 0.0, 0.0, 0.0, 0.0, 0.0, 0.0, 99999.0, 0.0, 0.0, 0.0, 0.0, 0.0, 0.0, 99999.0, 0.0, 0.0, 0.0, 0.0, 0.0, 0.0, 99999.0)",0.04,0.0,-0.06,0.0,0.0,0.0,"(-1.0, 0.0, 0.0, 0.0, 0.0, 0.0, 0.0, 0.0, 0.0, 0.0, 0.0, 0.0, 0.0, 0.0, 0.0, 0.0, 0.0, 0.0, 0.0, 0.0, 0.0, 0.0, 0.0, 0.0, 0.0, 0.0, 0.0, 0.0, 0.0, 0.0, 0.0, 0.0, 0.0, 0.0, 0.0, 0.0)"
1737286242.8857243,20697,1737286242,883209920,map,base_link,-0.07422688224039664,-6.710979020390321,2.446,0.004356196354110789,-0.007966957621285409,-0.7045998376286133,-0.7095467708004292,"(1.065024, 0.0, 0.0, 0.0, 0.0, 0.0, 0.0, 1.065024, 0.0, 0.0, 0.0, 0.0, 0.0, 0.0, 1.9265439999999998, 0.0, 0.0, 0.0, 0.0, 0.0, 0.0, 99999.0, 0.0, 0.0, 0.0, 0.0, 0.0, 0.0, 99999.0, 0.0, 0.0, 0.0, 0.0, 0.0, 0.0, 99999.0)",0.02,-0.01,-0.04,0.0,0.0,0.0,"(-1.0, 0.0, 0.0, 0.0, 0.0, 0.0, 0.0, 0.0, 0.0, 0.0, 0.0, 0.0, 0.0, 0.0, 0.0, 0.0, 0.0, 0.0, 0.0, 0.0, 0.0, 0.0, 0.0, 0.0, 0.0, 0.0, 0.0, 0.0, 0.0, 0.0, 0.0, 0.0, 0.0, 0.0, 0.0, 0.0)"
1737286242.9872344,20698,1737286242,984207104,map,base_link,-0.08350524313028451,-6.699886504903524,2.45,0.002309605132545387,-0.007609418860758359,-0.6983826620563789,-0.715680389425181,"(1.0670889999999997, 0.0, 0.0, 0.0, 0.0, 0.0, 0.0, 1.0670889999999997, 0.0, 0.0, 0.0, 0.0, 0.0, 0.0, 1.929321, 0.0, 0.0, 0.0, 0.0, 0.0, 0.0, 99999.0, 0.0, 0.0, 0.0, 0.0, 0.0, 0.0, 99999.0, 0.0, 0.0, 0.0, 0.0, 0.0, 0.0, 99999.0)",0.02,0.0,-0.05,0.0,0.0,0.0,"(-1.0, 0.0, 0.0, 0.0, 0.0, 0.0, 0.0, 0.0, 0.0, 0.0, 0.0, 0.0, 0.0, 0.0, 0.0, 0.0, 0.0, 0.0, 0.0, 0.0, 0.0, 0.0, 0.0, 0.0, 0.0, 0.0, 0.0, 0.0, 0.0, 0.0, 0.0, 0.0, 0.0, 0.0, 0.0, 0.0)"
1737286243.0884502,20699,1737286243,86199680,map,base_link,-0.08350524306148821,-6.688793977515176,2.452,0.002990543632855849,-0.007023565808645161,-0.6895505047723509,-0.7241973678081878,"(1.0670889999999997, 0.0, 0.0, 0.0, 0.0, 0.0, 0.0, 1.0670889999999997, 0.0, 0.0, 0.0, 0.0, 0.0, 0.0, 1.929321, 0.0, 0.0, 0.0, 0.0, 0.0, 0.0, 99999.0, 0.0, 0.0, 0.0, 0.0, 0.0, 0.0, 99999.0, 0.0, 0.0, 0.0, 0.0, 0.0, 0.0, 99999.0)",0.02,-0.01,0.02,0.0,0.0,0.0,"(-1.0, 0.0, 0.0, 0.0, 0.0, 0.0, 0.0, 0.0, 0.0, 0.0, 0.0, 0.0, 0.0, 0.0, 0.0, 0.0, 0.0, 0.0, 0.0, 0.0, 0.0, 0.0, 0.0, 0.0, 0.0, 0.0, 0.0, 0.0, 0.0, 0.0, 0.0, 0.0, 0.0, 0.0, 0.0, 0.0)"
1737286243.1876001,20700,1737286243,185195840,map,base_link,-0.08350524299269191,-6.677701450126828,2.456,-0.0017619127773220093,-0.0074825142321871315,-0.6845537561852051,-0.7289218494028403,"(1.069156, 0.0, 0.0, 0.0, 0.0, 0.0, 0.0, 1.069156, 0.0, 0.0, 0.0, 0.0, 0.0, 0.0, 1.9320999999999997, 0.0, 0.0, 0.0, 0.0, 0.0, 0.0, 99999.0, 0.0, 0.0, 0.0, 0.0, 0.0, 0.0, 99999.0, 0.0, 0.0, 0.0, 0.0, 0.0, 0.0, 99999.0)",0.07,-0.02,-0.04,0.0,0.0,0.0,"(-1.0, 0.0, 0.0, 0.0, 0.0, 0.0, 0.0, 0.0, 0.0, 0.0, 0.0, 0.0, 0.0, 0.0, 0.0, 0.0, 0.0, 0.0, 0.0, 0.0, 0.0, 0.0, 0.0, 0.0, 0.0, 0.0, 0.0, 0.0, 0.0, 0.0, 0.0, 0.0, 0.0, 0.0, 0.0, 0.0)"
1737286243.286447,20701,1737286243,283188160,map,base_link,-0.08350524287411432,-6.666608922494147,2.459,-0.0018479275547216077,-0.004869193580132126,-0.6849398383784193,-0.7285810139715257,"(1.069156, 0.0, 0.0, 0.0, 0.0, 0.0, 0.0, 1.069156, 0.0, 0.0, 0.0, 0.0, 0.0, 0.0, 1.9320999999999997, 0.0, 0.0, 0.0, 0.0, 0.0, 0.0, 99999.0, 0.0, 0.0, 0.0, 0.0, 0.0, 0.0, 99999.0, 0.0, 0.0, 0.0, 0.0, 0.0, 0.0, 99999.0)",0.03,-0.02,-0.01,0.0,0.0,0.0,"(-1.0, 0.0, 0.0, 0.0, 0.0, 0.0, 0.0, 0.0, 0.0, 0.0, 0.0, 0.0, 0.0, 0.0, 0.0, 0.0, 0.0, 0.0, 0.0, 0.0, 0.0, 0.0, 0.0, 0.0, 0.0, 0.0, 0.0, 0.0, 0.0, 0.0, 0.0, 0.0, 0.0, 0.0, 0.0, 0.0)"
1737286243.387371,20702,1737286243,385184320,map,base_link,-0.08350524273652171,-6.644423867717451,2.459,-0.002290051245097649,-0.004308412763620009,-0.6868910416355283,-0.726744033457181,"(1.073296, 0.0, 0.0, 0.0, 0.0, 0.0, 0.0, 1.073296, 0.0, 0.0, 0.0, 0.0, 0.0, 0.0, 1.9320999999999997, 0.0, 0.0, 0.0, 0.0, 0.0, 0.0, 99999.0, 0.0, 0.0, 0.0, 0.0, 0.0, 0.0, 99999.0, 0.0, 0.0, 0.0, 0.0, 0.0, 0.0, 99999.0)",0.07,-0.04,-0.07,0.0,0.0,0.0,"(-1.0, 0.0, 0.0, 0.0, 0.0, 0.0, 0.0, 0.0, 0.0, 0.0, 0.0, 0.0, 0.0, 0.0, 0.0, 0.0, 0.0, 0.0, 0.0, 0.0, 0.0, 0.0, 0.0, 0.0, 0.0, 0.0, 0.0, 0.0, 0.0, 0.0, 0.0, 0.0, 0.0, 0.0, 0.0, 0.0)"
1737286243.4937565,20703,1737286243,488177664,map,base_link,-0.09278360246339501,-6.633331351797688,2.461,-0.006313661446401783,-0.0031582349993407657,-0.6898452644642898,-0.7239224228652011,"(1.073296, 0.0, 0.0, 0.0, 0.0, 0.0, 0.0, 1.073296, 0.0, 0.0, 0.0, 0.0, 0.0, 0.0, 1.9320999999999997, 0.0, 0.0, 0.0, 0.0, 0.0, 0.0, 99999.0, 0.0, 0.0, 0.0, 0.0, 0.0, 0.0, 99999.0, 0.0, 0.0, 0.0, 0.0, 0.0, 0.0, 99999.0)",0.09,-0.04,-0.03,0.0,0.0,0.0,"(-1.0, 0.0, 0.0, 0.0, 0.0, 0.0, 0.0, 0.0, 0.0, 0.0, 0.0, 0.0, 0.0, 0.0, 0.0, 0.0, 0.0, 0.0, 0.0, 0.0, 0.0, 0.0, 0.0, 0.0, 0.0, 0.0, 0.0, 0.0, 0.0, 0.0, 0.0, 0.0, 0.0, 0.0, 0.0, 0.0)"
1737286243.5862753,20704,1737286243,584172800,map,base_link,-0.09278360232580218,-6.611146295857917,2.462,-0.004445566251050513,-0.005076156986671885,-0.6894356946576967,-0.7243154647685034,"(1.0753689999999998, 0.0, 0.0, 0.0, 0.0, 0.0, 0.0, 1.0753689999999998, 0.0, 0.0, 0.0, 0.0, 0.0, 0.0, 1.934881, 0.0, 0.0, 0.0, 0.0, 0.0, 0.0, 99999.0, 0.0, 0.0, 0.0, 0.0, 0.0, 0.0, 99999.0, 0.0, 0.0, 0.0, 0.0, 0.0, 0.0, 99999.0)",0.07,-0.03,-0.01,0.0,0.0,0.0,"(-1.0, 0.0, 0.0, 0.0, 0.0, 0.0, 0.0, 0.0, 0.0, 0.0, 0.0, 0.0, 0.0, 0.0, 0.0, 0.0, 0.0, 0.0, 0.0, 0.0, 0.0, 0.0, 0.0, 0.0, 0.0, 0.0, 0.0, 0.0, 0.0, 0.0, 0.0, 0.0, 0.0, 0.0, 0.0, 0.0)"
1737286243.6884358,20705,1737286243,686165632,map,base_link,-0.1020619633723423,-6.6000537688047265,2.46,-0.003512193022533299,-0.0043314522795493094,-0.6896976571326251,-0.7240759937790302,"(1.0753689999999998, 0.0, 0.0, 0.0, 0.0, 0.0, 0.0, 1.0753689999999998, 0.0, 0.0, 0.0, 0.0, 0.0, 0.0, 1.934881, 0.0, 0.0, 0.0, 0.0, 0.0, 0.0, 99999.0, 0.0, 0.0, 0.0, 0.0, 0.0, 0.0, 99999.0, 0.0, 0.0, 0.0, 0.0, 0.0, 0.0, 99999.0)",0.07,-0.05,-0.03,0.0,0.0,0.0,"(-1.0, 0.0, 0.0, 0.0, 0.0, 0.0, 0.0, 0.0, 0.0, 0.0, 0.0, 0.0, 0.0, 0.0, 0.0, 0.0, 0.0, 0.0, 0.0, 0.0, 0.0, 0.0, 0.0, 0.0, 0.0, 0.0, 0.0, 0.0, 0.0, 0.0, 0.0, 0.0, 0.0, 0.0, 0.0, 0.0)"
1737286243.7875896,20706,1737286243,785161792,map,base_link,-0.10206196279676405,-6.577868704367031,2.456,-0.008403316785129775,-0.0044089312058894796,-0.6924991873572068,-0.7213562373073646,"(1.0795209999999997, 0.0, 0.0, 0.0, 0.0, 0.0, 0.0, 1.0795209999999997, 0.0, 0.0, 0.0, 0.0, 0.0, 0.0, 1.9376639999999998, 0.0, 0.0, 0.0, 0.0, 0.0, 0.0, 99999.0, 0.0, 0.0, 0.0, 0.0, 0.0, 0.0, 99999.0, 0.0, 0.0, 0.0, 0.0, 0.0, 0.0, 99999.0)",0.1,-0.06,-0.11,0.0,0.0,0.0,"(-1.0, 0.0, 0.0, 0.0, 0.0, 0.0, 0.0, 0.0, 0.0, 0.0, 0.0, 0.0, 0.0, 0.0, 0.0, 0.0, 0.0, 0.0, 0.0, 0.0, 0.0, 0.0, 0.0, 0.0, 0.0, 0.0, 0.0, 0.0, 0.0, 0.0, 0.0, 0.0, 0.0, 0.0, 0.0, 0.0)"
1737286243.888369,20707,1737286243,885154112,map,base_link,-0.11134032216619971,-6.555683649417074,2.457,-0.008666605331157895,-0.0015272788302246876,-0.6955324080074431,-0.7184408303978669,"(1.0795209999999997, 0.0, 0.0, 0.0, 0.0, 0.0, 0.0, 1.0795209999999997, 0.0, 0.0, 0.0, 0.0, 0.0, 0.0, 1.9376639999999998, 0.0, 0.0, 0.0, 0.0, 0.0, 0.0, 99999.0, 0.0, 0.0, 0.0, 0.0, 0.0, 0.0, 99999.0, 0.0, 0.0, 0.0, 0.0, 0.0, 0.0, 99999.0)",0.11,-0.06,-0.05,0.0,0.0,0.0,"(-1.0, 0.0, 0.0, 0.0, 0.0, 0.0, 0.0, 0.0, 0.0, 0.0, 0.0, 0.0, 0.0, 0.0, 0.0, 0.0, 0.0, 0.0, 0.0, 0.0, 0.0, 0.0, 0.0, 0.0, 0.0, 0.0, 0.0, 0.0, 0.0, 0.0, 0.0, 0.0, 0.0, 0.0, 0.0, 0.0)"
1737286243.987583,20708,1737286243,985145152,map,base_link,-0.10206196287901648,-6.544591133068447,2.459,-0.00866449943501456,-0.0006483759547768785,-0.6975631961074759,-0.7164705810390857,"(1.083681, 0.0, 0.0, 0.0, 0.0, 0.0, 0.0, 1.083681, 0.0, 0.0, 0.0, 0.0, 0.0, 0.0, 1.9376639999999998, 0.0, 0.0, 0.0, 0.0, 0.0, 0.0, 99999.0, 0.0, 0.0, 0.0, 0.0, 0.0, 0.0, 99999.0, 0.0, 0.0, 0.0, 0.0, 0.0, 0.0, 99999.0)",0.09,-0.09,-0.09,0.0,0.0,0.0,"(-1.0, 0.0, 0.0, 0.0, 0.0, 0.0, 0.0, 0.0, 0.0, 0.0, 0.0, 0.0, 0.0, 0.0, 0.0, 0.0, 0.0, 0.0, 0.0, 0.0, 0.0, 0.0, 0.0, 0.0, 0.0, 0.0, 0.0, 0.0, 0.0, 0.0, 0.0, 0.0, 0.0, 0.0, 0.0, 0.0)"
1737286244.0864854,20709,1737286244,84142336,map,base_link,-0.10206196287901648,-6.544591133068447,2.461,-0.00013586499828242,-0.0015907988323911593,-0.6991939198182461,-0.7149302856845368,"(1.083681, 0.0, 0.0, 0.0, 0.0, 0.0, 0.0, 1.083681, 0.0, 0.0, 0.0, 0.0, 0.0, 0.0, 1.9376639999999998, 0.0, 0.0, 0.0, 0.0, 0.0, 0.0, 99999.0, 0.0, 0.0, 0.0, 0.0, 0.0, 0.0, 99999.0, 0.0, 0.0, 0.0, 0.0, 0.0, 0.0, 99999.0)",0.11,-0.11,-0.04,0.0,0.0,0.0,"(-1.0, 0.0, 0.0, 0.0, 0.0, 0.0, 0.0, 0.0, 0.0, 0.0, 0.0, 0.0, 0.0, 0.0, 0.0, 0.0, 0.0, 0.0, 0.0, 0.0, 0.0, 0.0, 0.0, 0.0, 0.0, 0.0, 0.0, 0.0, 0.0, 0.0, 0.0, 0.0, 0.0, 0.0, 0.0, 0.0)"
1737286244.1878474,20710,1737286244,185142336,map,base_link,-0.09278360142245612,-6.5334986058382665,2.465,-0.003275604467142627,-0.0003503109440422147,-0.6990064725688149,-0.7151077534221819,"(1.0878489999999998, 0.0, 0.0, 0.0, 0.0, 0.0, 0.0, 1.0878489999999998, 0.0, 0.0, 0.0, 0.0, 0.0, 0.0, 1.940449, 0.0, 0.0, 0.0, 0.0, 0.0, 0.0, 99999.0, 0.0, 0.0, 0.0, 0.0, 0.0, 0.0, 99999.0, 0.0, 0.0, 0.0, 0.0, 0.0, 0.0, 99999.0)",0.15,-0.11,-0.07,0.0,0.0,0.0,"(-1.0, 0.0, 0.0, 0.0, 0.0, 0.0, 0.0, 0.0, 0.0, 0.0, 0.0, 0.0, 0.0, 0.0, 0.0, 0.0, 0.0, 0.0, 0.0, 0.0, 0.0, 0.0, 0.0, 0.0, 0.0, 0.0, 0.0, 0.0, 0.0, 0.0, 0.0, 0.0, 0.0, 0.0, 0.0, 0.0)"
1737286244.2867248,20711,1737286244,283132352,map,base_link,-0.09278360142245612,-6.5334986058382665,2.464,0.0011237665581987964,0.0007023447415375858,-0.6954398725898878,-0.7185830692917466,"(1.0878489999999998, 0.0, 0.0, 0.0, 0.0, 0.0, 0.0, 1.0878489999999998, 0.0, 0.0, 0.0, 0.0, 0.0, 0.0, 1.940449, 0.0, 0.0, 0.0, 0.0, 0.0, 0.0, 99999.0, 0.0, 0.0, 0.0, 0.0, 0.0, 0.0, 99999.0, 0.0, 0.0, 0.0, 0.0, 0.0, 0.0, 99999.0)",0.11,-0.12,0.05,0.0,0.0,0.0,"(-1.0, 0.0, 0.0, 0.0, 0.0, 0.0, 0.0, 0.0, 0.0, 0.0, 0.0, 0.0, 0.0, 0.0, 0.0, 0.0, 0.0, 0.0, 0.0, 0.0, 0.0, 0.0, 0.0, 0.0, 0.0, 0.0, 0.0, 0.0, 0.0, 0.0, 0.0, 0.0, 0.0, 0.0, 0.0, 0.0)"
1737286244.3874023,20712,1737286244,385132352,map,base_link,-0.08350524163129291,-6.522406068224522,2.458,0.0011515976186187138,0.0001419664776886963,-0.6923787763690592,-0.7215332866210181,"(1.0920249999999998, 0.0, 0.0, 0.0, 0.0, 0.0, 0.0, 1.0920249999999998, 0.0, 0.0, 0.0, 0.0, 0.0, 0.0, 1.940449, 0.0, 0.0, 0.0, 0.0, 0.0, 0.0, 99999.0, 0.0, 0.0, 0.0, 0.0, 0.0, 0.0, 99999.0, 0.0, 0.0, 0.0, 0.0, 0.0, 0.0, 99999.0)",0.11,-0.13,0.0,0.0,0.0,0.0,"(-1.0, 0.0, 0.0, 0.0, 0.0, 0.0, 0.0, 0.0, 0.0, 0.0, 0.0, 0.0, 0.0, 0.0, 0.0, 0.0, 0.0, 0.0, 0.0, 0.0, 0.0, 0.0, 0.0, 0.0, 0.0, 0.0, 0.0, 0.0, 0.0, 0.0, 0.0, 0.0, 0.0, 0.0, 0.0, 0.0)"
1737286244.4864187,20713,1737286244,484132352,map,base_link,-0.07422688057304594,-6.522406057772765,2.447,0.0039011005787266133,0.0022295750865151784,-0.6891731940731373,-0.7245827205918163,"(1.0920249999999998, 0.0, 0.0, 0.0, 0.0, 0.0, 0.0, 1.0920249999999998, 0.0, 0.0, 0.0, 0.0, 0.0, 0.0, 1.940449, 0.0, 0.0, 0.0, 0.0, 0.0, 0.0, 99999.0, 0.0, 0.0, 0.0, 0.0, 0.0, 0.0, 99999.0, 0.0, 0.0, 0.0, 0.0, 0.0, 0.0, 99999.0)",0.09,-0.13,-0.02,0.0,0.0,0.0,"(-1.0, 0.0, 0.0, 0.0, 0.0, 0.0, 0.0, 0.0, 0.0, 0.0, 0.0, 0.0, 0.0, 0.0, 0.0, 0.0, 0.0, 0.0, 0.0, 0.0, 0.0, 0.0, 0.0, 0.0, 0.0, 0.0, 0.0, 0.0, 0.0, 0.0, 0.0, 0.0, 0.0, 0.0, 0.0, 0.0)"
1737286244.585073,20714,1737286244,583121344,map,base_link,-0.06494852067781376,-6.522406047753976,2.439,0.0056922001625369905,0.0014953484125083706,-0.6895756525191375,-0.7241897418793231,"(1.094116, 0.0, 0.0, 0.0, 0.0, 0.0, 0.0, 1.094116, 0.0, 0.0, 0.0, 0.0, 0.0, 0.0, 1.940449, 0.0, 0.0, 0.0, 0.0, 0.0, 0.0, 99999.0, 0.0, 0.0, 0.0, 0.0, 0.0, 0.0, 99999.0, 0.0, 0.0, 0.0, 0.0, 0.0, 0.0, 99999.0)",0.1,-0.15,0.01,0.0,0.0,0.0,"(-1.0, 0.0, 0.0, 0.0, 0.0, 0.0, 0.0, 0.0, 0.0, 0.0, 0.0, 0.0, 0.0, 0.0, 0.0, 0.0, 0.0, 0.0, 0.0, 0.0, 0.0, 0.0, 0.0, 0.0, 0.0, 0.0, 0.0, 0.0, 0.0, 0.0, 0.0, 0.0, 0.0, 0.0, 0.0, 0.0)"
1737286244.687298,20715,1737286244,685114432,map,base_link,-0.05567016161607885,-6.522406047614997,2.437,0.002950264811671728,0.003247742848344482,-0.6919230570895828,-0.7219579150973676,"(1.094116, 0.0, 0.0, 0.0, 0.0, 0.0, 0.0, 1.094116, 0.0, 0.0, 0.0, 0.0, 0.0, 0.0, 1.940449, 0.0, 0.0, 0.0, 0.0, 0.0, 0.0, 99999.0, 0.0, 0.0, 0.0, 0.0, 0.0, 0.0, 99999.0, 0.0, 0.0, 0.0, 0.0, 0.0, 0.0, 99999.0)",0.07,-0.15,0.01,0.0,0.0,0.0,"(-1.0, 0.0, 0.0, 0.0, 0.0, 0.0, 0.0, 0.0, 0.0, 0.0, 0.0, 0.0, 0.0, 0.0, 0.0, 0.0, 0.0, 0.0, 0.0, 0.0, 0.0, 0.0, 0.0, 0.0, 0.0, 0.0, 0.0, 0.0, 0.0, 0.0, 0.0, 0.0, 0.0, 0.0, 0.0, 0.0)"
1737286244.7881956,20716,1737286244,784103680,map,base_link,-0.05567016154728255,-6.511313520226649,2.435,-0.0010638655452242453,0.004258246399782087,-0.6919884237888271,-0.7218952533920384,"(1.0962089999999998, 0.0, 0.0, 0.0, 0.0, 0.0, 0.0, 1.0962089999999998, 0.0, 0.0, 0.0, 0.0, 0.0, 0.0, 1.940449, 0.0, 0.0, 0.0, 0.0, 0.0, 0.0, 99999.0, 0.0, 0.0, 0.0, 0.0, 0.0, 0.0, 99999.0, 0.0, 0.0, 0.0, 0.0, 0.0, 0.0, 99999.0)",0.08,-0.15,0.0,0.0,0.0,0.0,"(-1.0, 0.0, 0.0, 0.0, 0.0, 0.0, 0.0, 0.0, 0.0, 0.0, 0.0, 0.0, 0.0, 0.0, 0.0, 0.0, 0.0, 0.0, 0.0, 0.0, 0.0, 0.0, 0.0, 0.0, 0.0, 0.0, 0.0, 0.0, 0.0, 0.0, 0.0, 0.0, 0.0, 0.0, 0.0, 0.0)"
1737286244.8853316,20717,1737286244,883099584,map,base_link,-0.04639180048623426,-6.5002209939906646,2.433,-0.003526299091012579,0.0038724257720906185,-0.6919688015011399,-0.7219084064356338,"(1.0962089999999998, 0.0, 0.0, 0.0, 0.0, 0.0, 0.0, 1.0962089999999998, 0.0, 0.0, 0.0, 0.0, 0.0, 0.0, 1.940449, 0.0, 0.0, 0.0, 0.0, 0.0, 0.0, 99999.0, 0.0, 0.0, 0.0, 0.0, 0.0, 0.0, 99999.0, 0.0, 0.0, 0.0, 0.0, 0.0, 0.0, 99999.0)",0.1,-0.16,-0.08,0.0,0.0,0.0,"(-1.0, 0.0, 0.0, 0.0, 0.0, 0.0, 0.0, 0.0, 0.0, 0.0, 0.0, 0.0, 0.0, 0.0, 0.0, 0.0, 0.0, 0.0, 0.0, 0.0, 0.0, 0.0, 0.0, 0.0, 0.0, 0.0, 0.0, 0.0, 0.0, 0.0, 0.0, 0.0, 0.0, 0.0, 0.0, 0.0)"
1737286244.986084,20718,1737286244,984099584,map,base_link,-0.046391800194791166,-6.489128466564589,2.43,-0.00032628830539767963,0.001804606936942539,-0.6926353528991218,-0.7212855917346847,"(1.0983040000000002, 0.0, 0.0, 0.0, 0.0, 0.0, 0.0, 1.0983040000000002, 0.0, 0.0, 0.0, 0.0, 0.0, 0.0, 1.9432359999999997, 0.0, 0.0, 0.0, 0.0, 0.0, 0.0, 99999.0, 0.0, 0.0, 0.0, 0.0, 0.0, 0.0, 99999.0, 0.0, 0.0, 0.0, 0.0, 0.0, 0.0, 99999.0)",0.09,-0.16,-0.06,0.0,0.0,0.0,"(-1.0, 0.0, 0.0, 0.0, 0.0, 0.0, 0.0, 0.0, 0.0, 0.0, 0.0, 0.0, 0.0, 0.0, 0.0, 0.0, 0.0, 0.0, 0.0, 0.0, 0.0, 0.0, 0.0, 0.0, 0.0, 0.0, 0.0, 0.0, 0.0, 0.0, 0.0, 0.0, 0.0, 0.0, 0.0, 0.0)"
1737286245.0871742,20719,1737286245,85098304,map,base_link,-0.0463918003016619,-6.489128455916941,2.428,0.002212060768110043,-5.52945150789558e-05,-0.6946258230324956,-0.719367826432419,"(1.0983040000000002, 0.0, 0.0, 0.0, 0.0, 0.0, 0.0, 1.0983040000000002, 0.0, 0.0, 0.0, 0.0, 0.0, 0.0, 1.9432359999999997, 0.0, 0.0, 0.0, 0.0, 0.0, 0.0, 99999.0, 0.0, 0.0, 0.0, 0.0, 0.0, 0.0, 99999.0, 0.0, 0.0, 0.0, 0.0, 0.0, 0.0, 99999.0)",0.07,-0.17,-0.04,0.0,0.0,0.0,"(-1.0, 0.0, 0.0, 0.0, 0.0, 0.0, 0.0, 0.0, 0.0, 0.0, 0.0, 0.0, 0.0, 0.0, 0.0, 0.0, 0.0, 0.0, 0.0, 0.0, 0.0, 0.0, 0.0, 0.0, 0.0, 0.0, 0.0, 0.0, 0.0, 0.0, 0.0, 0.0, 0.0, 0.0, 0.0, 0.0)"
1737286245.1872373,20720,1737286245,184094208,map,base_link,-0.0463918003016619,-6.489128455916941,2.429,0.0009453061550822978,-0.0005170762798124793,-0.6956643522129884,-0.7183661657459081,"(1.100401, 0.0, 0.0, 0.0, 0.0, 0.0, 0.0, 1.100401, 0.0, 0.0, 0.0, 0.0, 0.0, 0.0, 1.9432359999999997, 0.0, 0.0, 0.0, 0.0, 0.0, 0.0, 99999.0, 0.0, 0.0, 0.0, 0.0, 0.0, 0.0, 99999.0, 0.0, 0.0, 0.0, 0.0, 0.0, 0.0, 99999.0)",0.05,-0.18,-0.1,0.0,0.0,0.0,"(-1.0, 0.0, 0.0, 0.0, 0.0, 0.0, 0.0, 0.0, 0.0, 0.0, 0.0, 0.0, 0.0, 0.0, 0.0, 0.0, 0.0, 0.0, 0.0, 0.0, 0.0, 0.0, 0.0, 0.0, 0.0, 0.0, 0.0, 0.0, 0.0, 0.0, 0.0, 0.0, 0.0, 0.0, 0.0, 0.0)"
1737286245.2913864,20721,1737286245,288090624,map,base_link,-0.046391800194791166,-6.489128466564589,2.433,0.000971740965814166,0.0007112535591934165,-0.6965226297315769,-0.7175338153074589,"(1.100401, 0.0, 0.0, 0.0, 0.0, 0.0, 0.0, 1.100401, 0.0, 0.0, 0.0, 0.0, 0.0, 0.0, 1.9432359999999997, 0.0, 0.0, 0.0, 0.0, 0.0, 0.0, 99999.0, 0.0, 0.0, 0.0, 0.0, 0.0, 0.0, 99999.0, 0.0, 0.0, 0.0, 0.0, 0.0, 0.0, 99999.0)",0.06,-0.18,-0.07,0.0,0.0,0.0,"(-1.0, 0.0, 0.0, 0.0, 0.0, 0.0, 0.0, 0.0, 0.0, 0.0, 0.0, 0.0, 0.0, 0.0, 0.0, 0.0, 0.0, 0.0, 0.0, 0.0, 0.0, 0.0, 0.0, 0.0, 0.0, 0.0, 0.0, 0.0, 0.0, 0.0, 0.0, 0.0, 0.0, 0.0, 0.0, 0.0)"
1737286245.3863177,20722,1737286245,384086784,map,base_link,-0.03711344063798183,-6.489128466493518,2.435,-0.0010360239985295794,0.0007369000310355641,-0.694816936174152,-0.7191855176782853,"(1.1025, 0.0, 0.0, 0.0, 0.0, 0.0, 0.0, 1.1025, 0.0, 0.0, 0.0, 0.0, 0.0, 0.0, 1.9432359999999997, 0.0, 0.0, 0.0, 0.0, 0.0, 0.0, 99999.0, 0.0, 0.0, 0.0, 0.0, 0.0, 0.0, 99999.0, 0.0, 0.0, 0.0, 0.0, 0.0, 0.0, 99999.0)",0.09,-0.19,-0.1,0.0,0.0,0.0,"(-1.0, 0.0, 0.0, 0.0, 0.0, 0.0, 0.0, 0.0, 0.0, 0.0, 0.0, 0.0, 0.0, 0.0, 0.0, 0.0, 0.0, 0.0, 0.0, 0.0, 0.0, 0.0, 0.0, 0.0, 0.0, 0.0, 0.0, 0.0, 0.0, 0.0, 0.0, 0.0, 0.0, 0.0, 0.0, 0.0)"
1737286245.487479,20723,1737286245,485083456,map,base_link,-0.02783508003673507,-6.500220994009852,2.438,-0.0031735932573485,0.0010674386598202466,-0.6943927090606169,-0.7195884618891564,"(1.1025, 0.0, 0.0, 0.0, 0.0, 0.0, 0.0, 1.1025, 0.0, 0.0, 0.0, 0.0, 0.0, 0.0, 1.9432359999999997, 0.0, 0.0, 0.0, 0.0, 0.0, 0.0, 99999.0, 0.0, 0.0, 0.0, 0.0, 0.0, 0.0, 99999.0, 0.0, 0.0, 0.0, 0.0, 0.0, 0.0, 99999.0)",0.09,-0.2,-0.11,0.0,0.0,0.0,"(-1.0, 0.0, 0.0, 0.0, 0.0, 0.0, 0.0, 0.0, 0.0, 0.0, 0.0, 0.0, 0.0, 0.0, 0.0, 0.0, 0.0, 0.0, 0.0, 0.0, 0.0, 0.0, 0.0, 0.0, 0.0, 0.0, 0.0, 0.0, 0.0, 0.0, 0.0, 0.0, 0.0, 0.0, 0.0, 0.0)"
1737286245.5861702,20724,1737286245,584077824,map,base_link,-0.02783508015251135,-6.500221004307535,2.44,0.003764856980398213,0.0004376995743002469,-0.6947389123599463,-0.7192520267082457,"(1.104601, 0.0, 0.0, 0.0, 0.0, 0.0, 0.0, 1.104601, 0.0, 0.0, 0.0, 0.0, 0.0, 0.0, 1.9460250000000001, 0.0, 0.0, 0.0, 0.0, 0.0, 0.0, 99999.0, 0.0, 0.0, 0.0, 0.0, 0.0, 0.0, 99999.0, 0.0, 0.0, 0.0, 0.0, 0.0, 0.0, 99999.0)",0.04,-0.22,0.0,0.0,0.0,0.0,"(-1.0, 0.0, 0.0, 0.0, 0.0, 0.0, 0.0, 0.0, 0.0, 0.0, 0.0, 0.0, 0.0, 0.0, 0.0, 0.0, 0.0, 0.0, 0.0, 0.0, 0.0, 0.0, 0.0, 0.0, 0.0, 0.0, 0.0, 0.0, 0.0, 0.0, 0.0, 0.0, 0.0, 0.0, 0.0, 0.0)"
1737286245.688752,20725,1737286245,686071424,map,base_link,-0.018556720373055224,-6.500221004198737,2.443,0.005402333783099331,-0.0006843473065585711,-0.6936006351308083,-0.7203391599827118,"(1.104601, 0.0, 0.0, 0.0, 0.0, 0.0, 0.0, 1.104601, 0.0, 0.0, 0.0, 0.0, 0.0, 0.0, 1.9460250000000001, 0.0, 0.0, 0.0, 0.0, 0.0, 0.0, 99999.0, 0.0, 0.0, 0.0, 0.0, 0.0, 0.0, 99999.0, 0.0, 0.0, 0.0, 0.0, 0.0, 0.0, 99999.0)",0.06,-0.21,0.02,0.0,0.0,0.0,"(-1.0, 0.0, 0.0, 0.0, 0.0, 0.0, 0.0, 0.0, 0.0, 0.0, 0.0, 0.0, 0.0, 0.0, 0.0, 0.0, 0.0, 0.0, 0.0, 0.0, 0.0, 0.0, 0.0, 0.0, 0.0, 0.0, 0.0, 0.0, 0.0, 0.0, 0.0, 0.0, 0.0, 0.0, 0.0, 0.0)"
1737286245.7874606,20726,1737286245,785067328,map,base_link,-0.018556720491632817,-6.5113135306683425,2.448,0.003182498317662365,0.0004400304785373165,-0.6914430427226383,-0.7224238345653441,"(1.1067040000000001, 0.0, 0.0, 0.0, 0.0, 0.0, 0.0, 1.1067040000000001, 0.0, 0.0, 0.0, 0.0, 0.0, 0.0, 1.9460250000000001, 0.0, 0.0, 0.0, 0.0, 0.0, 0.0, 99999.0, 0.0, 0.0, 0.0, 0.0, 0.0, 0.0, 99999.0, 0.0, 0.0, 0.0, 0.0, 0.0, 0.0, 99999.0)",0.06,-0.21,-0.05,0.0,0.0,0.0,"(-1.0, 0.0, 0.0, 0.0, 0.0, 0.0, 0.0, 0.0, 0.0, 0.0, 0.0, 0.0, 0.0, 0.0, 0.0, 0.0, 0.0, 0.0, 0.0, 0.0, 0.0, 0.0, 0.0, 0.0, 0.0, 0.0, 0.0, 0.0, 0.0, 0.0, 0.0, 0.0, 0.0, 0.0, 0.0, 0.0)"
1737286245.8864336,20727,1737286245,884061952,map,base_link,-0.00927836099631163,-6.5224060679588565,2.452,0.004593849406223359,-0.0011764666478937342,-0.6911142441257461,-0.722729973116072,"(1.1067040000000001, 0.0, 0.0, 0.0, 0.0, 0.0, 0.0, 1.1067040000000001, 0.0, 0.0, 0.0, 0.0, 0.0, 0.0, 1.9460250000000001, 0.0, 0.0, 0.0, 0.0, 0.0, 0.0, 99999.0, 0.0, 0.0, 0.0, 0.0, 0.0, 0.0, 99999.0, 0.0, 0.0, 0.0, 0.0, 0.0, 0.0, 99999.0)",0.06,-0.23,-0.09,0.0,0.0,0.0,"(-1.0, 0.0, 0.0, 0.0, 0.0, 0.0, 0.0, 0.0, 0.0, 0.0, 0.0, 0.0, 0.0, 0.0, 0.0, 0.0, 0.0, 0.0, 0.0, 0.0, 0.0, 0.0, 0.0, 0.0, 0.0, 0.0, 0.0, 0.0, 0.0, 0.0, 0.0, 0.0, 0.0, 0.0, 0.0, 0.0)"
1737286245.9863963,20728,1737286245,983057344,map,base_link,-0.00927836099631163,-6.5224060679588565,2.454,0.005031854564178262,-0.0014709601660346852,-0.6902345733001769,-0.723566687000554,"(1.1067040000000001, 0.0, 0.0, 0.0, 0.0, 0.0, 0.0, 1.1067040000000001, 0.0, 0.0, 0.0, 0.0, 0.0, 0.0, 1.9460250000000001, 0.0, 0.0, 0.0, 0.0, 0.0, 0.0, 99999.0, 0.0, 0.0, 0.0, 0.0, 0.0, 0.0, 99999.0, 0.0, 0.0, 0.0, 0.0, 0.0, 0.0, 99999.0)",0.03,-0.22,0.01,0.0,0.0,0.0,"(-1.0, 0.0, 0.0, 0.0, 0.0, 0.0, 0.0, 0.0, 0.0, 0.0, 0.0, 0.0, 0.0, 0.0, 0.0, 0.0, 0.0, 0.0, 0.0, 0.0, 0.0, 0.0, 0.0, 0.0, 0.0, 0.0, 0.0, 0.0, 0.0, 0.0, 0.0, 0.0, 0.0, 0.0, 0.0, 0.0)"
1737286246.0861,20729,1737286246,83051712,map,base_link,2.7287483383986455e-10,-6.533498595749703,2.457,0.0048817098814855275,-0.0014140823850266654,-0.6896945716810167,-0.7240825692373627,"(1.1067040000000001, 0.0, 0.0, 0.0, 0.0, 0.0, 0.0, 1.1067040000000001, 0.0, 0.0, 0.0, 0.0, 0.0, 0.0, 1.9460250000000001, 0.0, 0.0, 0.0, 0.0, 0.0, 0.0, 99999.0, 0.0, 0.0, 0.0, 0.0, 0.0, 0.0, 99999.0, 0.0, 0.0, 0.0, 0.0, 0.0, 0.0, 99999.0)",0.05,-0.21,-0.05,0.0,0.0,0.0,"(-1.0, 0.0, 0.0, 0.0, 0.0, 0.0, 0.0, 0.0, 0.0, 0.0, 0.0, 0.0, 0.0, 0.0, 0.0, 0.0, 0.0, 0.0, 0.0, 0.0, 0.0, 0.0, 0.0, 0.0, 0.0, 0.0, 0.0, 0.0, 0.0, 0.0, 0.0, 0.0, 0.0, 0.0, 0.0, 0.0)"
1737286246.1932588,20730,1737286246,191048640,map,base_link,2.0407853185133717e-10,-6.544591123138051,2.457,0.009526707069985721,-0.0035185667662688967,-0.6908335301782209,-0.722942525462302,"(1.108809, 0.0, 0.0, 0.0, 0.0, 0.0, 0.0, 1.108809, 0.0, 0.0, 0.0, 0.0, 0.0, 0.0, 1.9488159999999997, 0.0, 0.0, 0.0, 0.0, 0.0, 0.0, 99999.0, 0.0, 0.0, 0.0, 0.0, 0.0, 0.0, 99999.0, 0.0, 0.0, 0.0, 0.0, 0.0, 0.0, 99999.0)",0.03,-0.21,-0.06,0.0,0.0,0.0,"(-1.0, 0.0, 0.0, 0.0, 0.0, 0.0, 0.0, 0.0, 0.0, 0.0, 0.0, 0.0, 0.0, 0.0, 0.0, 0.0, 0.0, 0.0, 0.0, 0.0, 0.0, 0.0, 0.0, 0.0, 0.0, 0.0, 0.0, 0.0, 0.0, 0.0, 0.0, 0.0, 0.0, 0.0, 0.0, 0.0)"
1737286246.2920535,20731,1737286246,290040704,map,base_link,2.0407853185133717e-10,-6.544591123138051,2.458,0.010661286586689411,-0.0023514899653602926,-0.6917746840607756,-0.7220308815804719,"(1.108809, 0.0, 0.0, 0.0, 0.0, 0.0, 0.0, 1.108809, 0.0, 0.0, 0.0, 0.0, 0.0, 0.0, 1.9488159999999997, 0.0, 0.0, 0.0, 0.0, 0.0, 0.0, 99999.0, 0.0, 0.0, 0.0, 0.0, 0.0, 0.0, 99999.0, 0.0, 0.0, 0.0, 0.0, 0.0, 0.0, 99999.0)",0.01,-0.22,0.0,0.0,0.0,0.0,"(-1.0, 0.0, 0.0, 0.0, 0.0, 0.0, 0.0, 0.0, 0.0, 0.0, 0.0, 0.0, 0.0, 0.0, 0.0, 0.0, 0.0, 0.0, 0.0, 0.0, 0.0, 0.0, 0.0, 0.0, 0.0, 0.0, 0.0, 0.0, 0.0, 0.0, 0.0, 0.0, 0.0, 0.0, 0.0, 0.0)"
1737286246.388346,20732,1737286246,386034048,map,base_link,2.0407853185133717e-10,-6.544591123138051,2.456,0.0071520432728329805,-0.002588897175110262,-0.6928810444643734,-0.7210117919357487,"(1.108809, 0.0, 0.0, 0.0, 0.0, 0.0, 0.0, 1.108809, 0.0, 0.0, 0.0, 0.0, 0.0, 0.0, 1.9488159999999997, 0.0, 0.0, 0.0, 0.0, 0.0, 0.0, 99999.0, 0.0, 0.0, 0.0, 0.0, 0.0, 0.0, 99999.0, 0.0, 0.0, 0.0, 0.0, 0.0, 0.0, 99999.0)",0.03,-0.2,-0.06,0.0,0.0,0.0,"(-1.0, 0.0, 0.0, 0.0, 0.0, 0.0, 0.0, 0.0, 0.0, 0.0, 0.0, 0.0, 0.0, 0.0, 0.0, 0.0, 0.0, 0.0, 0.0, 0.0, 0.0, 0.0, 0.0, 0.0, 0.0, 0.0, 0.0, 0.0, 0.0, 0.0, 0.0, 0.0, 0.0, 0.0, 0.0, 0.0)"
1737286246.4893434,20733,1737286246,487030720,map,base_link,0.009278359488460008,-6.544591122573655,2.456,0.007662181098011145,-0.001482985287058712,-0.6925116809521634,-0.7213644456724139,"(1.108809, 0.0, 0.0, 0.0, 0.0, 0.0, 0.0, 1.108809, 0.0, 0.0, 0.0, 0.0, 0.0, 0.0, 1.9488159999999997, 0.0, 0.0, 0.0, 0.0, 0.0, 0.0, 99999.0, 0.0, 0.0, 0.0, 0.0, 0.0, 0.0, 99999.0, 0.0, 0.0, 0.0, 0.0, 0.0, 0.0, 99999.0)",0.01,-0.19,0.03,0.0,0.0,0.0,"(-1.0, 0.0, 0.0, 0.0, 0.0, 0.0, 0.0, 0.0, 0.0, 0.0, 0.0, 0.0, 0.0, 0.0, 0.0, 0.0, 0.0, 0.0, 0.0, 0.0, 0.0, 0.0, 0.0, 0.0, 0.0, 0.0, 0.0, 0.0, 0.0, 0.0, 0.0, 0.0, 0.0, 0.0, 0.0, 0.0)"
1737286246.585438,20734,1737286246,584023296,map,base_link,0.009278359488460008,-6.544591122573655,2.457,0.003925381358237664,-0.0013872628547173446,-0.6922624712235778,-0.7216337975859981,"(1.110916, 0.0, 0.0, 0.0, 0.0, 0.0, 0.0, 1.110916, 0.0, 0.0, 0.0, 0.0, 0.0, 0.0, 1.9488159999999997, 0.0, 0.0, 0.0, 0.0, 0.0, 0.0, 99999.0, 0.0, 0.0, 0.0, 0.0, 0.0, 0.0, 99999.0, 0.0, 0.0, 0.0, 0.0, 0.0, 0.0, 99999.0)",0.03,-0.19,-0.08,0.0,0.0,0.0,"(-1.0, 0.0, 0.0, 0.0, 0.0, 0.0, 0.0, 0.0, 0.0, 0.0, 0.0, 0.0, 0.0, 0.0, 0.0, 0.0, 0.0, 0.0, 0.0, 0.0, 0.0, 0.0, 0.0, 0.0, 0.0, 0.0, 0.0, 0.0, 0.0, 0.0, 0.0, 0.0, 0.0, 0.0, 0.0, 0.0)"
1737286246.6850123,20735,1737286246,683017408,map,base_link,0.009278359469445219,-6.555683650105362,2.453,0.009290488176770207,-0.006478890490704375,-0.6922072040950555,-0.7216099343872374,"(1.110916, 0.0, 0.0, 0.0, 0.0, 0.0, 0.0, 1.110916, 0.0, 0.0, 0.0, 0.0, 0.0, 0.0, 1.9488159999999997, 0.0, 0.0, 0.0, 0.0, 0.0, 0.0, 99999.0, 0.0, 0.0, 0.0, 0.0, 0.0, 0.0, 99999.0, 0.0, 0.0, 0.0, 0.0, 0.0, 0.0, 99999.0)",0.03,-0.18,-0.09,0.0,0.0,0.0,"(-1.0, 0.0, 0.0, 0.0, 0.0, 0.0, 0.0, 0.0, 0.0, 0.0, 0.0, 0.0, 0.0, 0.0, 0.0, 0.0, 0.0, 0.0, 0.0, 0.0, 0.0, 0.0, 0.0, 0.0, 0.0, 0.0, 0.0, 0.0, 0.0, 0.0, 0.0, 0.0, 0.0, 0.0, 0.0, 0.0)"
1737286246.7864366,20736,1737286246,785011264,map,base_link,0.009278359488460008,-6.544591122573655,2.456,0.010915019545514168,-0.005322579873398753,-0.6920205168509919,-0.7217756831239871,"(1.110916, 0.0, 0.0, 0.0, 0.0, 0.0, 0.0, 1.110916, 0.0, 0.0, 0.0, 0.0, 0.0, 0.0, 1.9460250000000001, 0.0, 0.0, 0.0, 0.0, 0.0, 0.0, 99999.0, 0.0, 0.0, 0.0, 0.0, 0.0, 0.0, 99999.0, 0.0, 0.0, 0.0, 0.0, 0.0, 0.0, 99999.0)",0.02,-0.17,-0.14,0.0,0.0,0.0,"(-1.0, 0.0, 0.0, 0.0, 0.0, 0.0, 0.0, 0.0, 0.0, 0.0, 0.0, 0.0, 0.0, 0.0, 0.0, 0.0, 0.0, 0.0, 0.0, 0.0, 0.0, 0.0, 0.0, 0.0, 0.0, 0.0, 0.0, 0.0, 0.0, 0.0, 0.0, 0.0, 0.0, 0.0, 0.0, 0.0)"
1737286246.8864815,20737,1737286246,884009216,map,base_link,0.027835080248461486,-6.55568366034678,2.46,0.009856079851859566,-0.0047371153514981085,-0.6925246274490388,-0.7213113459558711,"(1.110916, 0.0, 0.0, 0.0, 0.0, 0.0, 0.0, 1.110916, 0.0, 0.0, 0.0, 0.0, 0.0, 0.0, 1.9460250000000001, 0.0, 0.0, 0.0, 0.0, 0.0, 0.0, 99999.0, 0.0, 0.0, 0.0, 0.0, 0.0, 0.0, 99999.0, 0.0, 0.0, 0.0, 0.0, 0.0, 0.0, 99999.0)",0.02,-0.17,-0.18,0.0,0.0,0.0,"(-1.0, 0.0, 0.0, 0.0, 0.0, 0.0, 0.0, 0.0, 0.0, 0.0, 0.0, 0.0, 0.0, 0.0, 0.0, 0.0, 0.0, 0.0, 0.0, 0.0, 0.0, 0.0, 0.0, 0.0, 0.0, 0.0, 0.0, 0.0, 0.0, 0.0, 0.0, 0.0, 0.0, 0.0, 0.0, 0.0)"
1737286246.986301,20738,1737286246,983004096,map,base_link,0.027835080044829708,-6.544591133240492,2.461,0.010228317486774592,-0.003650109863735556,-0.6921360247908284,-0.7216853756354787,"(1.110916, 0.0, 0.0, 0.0, 0.0, 0.0, 0.0, 1.110916, 0.0, 0.0, 0.0, 0.0, 0.0, 0.0, 1.9460250000000001, 0.0, 0.0, 0.0, 0.0, 0.0, 0.0, 99999.0, 0.0, 0.0, 0.0, 0.0, 0.0, 0.0, 99999.0, 0.0, 0.0, 0.0, 0.0, 0.0, 0.0, 99999.0)",0.01,-0.16,-0.12,0.0,0.0,0.0,"(-1.0, 0.0, 0.0, 0.0, 0.0, 0.0, 0.0, 0.0, 0.0, 0.0, 0.0, 0.0, 0.0, 0.0, 0.0, 0.0, 0.0, 0.0, 0.0, 0.0, 0.0, 0.0, 0.0, 0.0, 0.0, 0.0, 0.0, 0.0, 0.0, 0.0, 0.0, 0.0, 0.0, 0.0, 0.0, 0.0)"
1737286247.0916183,20739,1737286247,89992576,map,base_link,0.027835080248461486,-6.55568366034678,2.465,0.007029184620300468,-0.0028206323038724272,-0.6895219228819582,-0.7242252083862776,"(1.110916, 0.0, 0.0, 0.0, 0.0, 0.0, 0.0, 1.110916, 0.0, 0.0, 0.0, 0.0, 0.0, 0.0, 1.9460250000000001, 0.0, 0.0, 0.0, 0.0, 0.0, 0.0, 99999.0, 0.0, 0.0, 0.0, 0.0, 0.0, 0.0, 99999.0, 0.0, 0.0, 0.0, 0.0, 0.0, 0.0, 99999.0)",0.0,-0.14,-0.17,0.0,0.0,0.0,"(-1.0, 0.0, 0.0, 0.0, 0.0, 0.0, 0.0, 0.0, 0.0, 0.0, 0.0, 0.0, 0.0, 0.0, 0.0, 0.0, 0.0, 0.0, 0.0, 0.0, 0.0, 0.0, 0.0, 0.0, 0.0, 0.0, 0.0, 0.0, 0.0, 0.0, 0.0, 0.0, 0.0, 0.0, 0.0, 0.0)"
1737286247.1871908,20740,1737286247,184993856,map,base_link,0.02783508037434701,-6.544591143462721,2.474,0.00808543985757929,-0.0035117428623257893,-0.6884233787885379,-0.7252555031585431,"(1.110916, 0.0, 0.0, 0.0, 0.0, 0.0, 0.0, 1.110916, 0.0, 0.0, 0.0, 0.0, 0.0, 0.0, 1.9488159999999997, 0.0, 0.0, 0.0, 0.0, 0.0, 0.0, 99999.0, 0.0, 0.0, 0.0, 0.0, 0.0, 0.0, 99999.0, 0.0, 0.0, 0.0, 0.0, 0.0, 0.0, 99999.0)",0.0,-0.15,-0.13,0.0,0.0,0.0,"(-1.0, 0.0, 0.0, 0.0, 0.0, 0.0, 0.0, 0.0, 0.0, 0.0, 0.0, 0.0, 0.0, 0.0, 0.0, 0.0, 0.0, 0.0, 0.0, 0.0, 0.0, 0.0, 0.0, 0.0, 0.0, 0.0, 0.0, 0.0, 0.0, 0.0, 0.0, 0.0, 0.0, 0.0, 0.0, 0.0)"
1737286247.2913198,20741,1737286247,283992064,map,base_link,0.02783508041242122,-6.555683681111026,2.488,0.00892875308548852,-0.00276546009695746,-0.6898135963262996,-0.7239266757912486,"(1.110916, 0.0, 0.0, 0.0, 0.0, 0.0, 0.0, 1.110916, 0.0, 0.0, 0.0, 0.0, 0.0, 0.0, 1.9488159999999997, 0.0, 0.0, 0.0, 0.0, 0.0, 0.0, 99999.0, 0.0, 0.0, 0.0, 0.0, 0.0, 0.0, 99999.0, 0.0, 0.0, 0.0, 0.0, 0.0, 0.0, 99999.0)",-0.01,-0.14,-0.21,0.0,0.0,0.0,"(-1.0, 0.0, 0.0, 0.0, 0.0, 0.0, 0.0, 0.0, 0.0, 0.0, 0.0, 0.0, 0.0, 0.0, 0.0, 0.0, 0.0, 0.0, 0.0, 0.0, 0.0, 0.0, 0.0, 0.0, 0.0, 0.0, 0.0, 0.0, 0.0, 0.0, 0.0, 0.0, 0.0, 0.0, 0.0, 0.0)"
1737286247.38565,20742,1737286247,382992064,map,base_link,0.027835080306754856,-6.544591184822336,2.51,0.010465174889752042,-0.002052413907627733,-0.6935362914040626,-0.7203427519016056,"(1.110916, 0.0, 0.0, 0.0, 0.0, 0.0, 0.0, 1.110916, 0.0, 0.0, 0.0, 0.0, 0.0, 0.0, 1.9460250000000001, 0.0, 0.0, 0.0, 0.0, 0.0, 0.0, 99999.0, 0.0, 0.0, 0.0, 0.0, 0.0, 0.0, 99999.0, 0.0, 0.0, 0.0, 0.0, 0.0, 0.0, 99999.0)",0.0,-0.14,-0.25,0.0,0.0,0.0,"(-1.0, 0.0, 0.0, 0.0, 0.0, 0.0, 0.0, 0.0, 0.0, 0.0, 0.0, 0.0, 0.0, 0.0, 0.0, 0.0, 0.0, 0.0, 0.0, 0.0, 0.0, 0.0, 0.0, 0.0, 0.0, 0.0, 0.0, 0.0, 0.0, 0.0, 0.0, 0.0, 0.0, 0.0, 0.0, 0.0)"
1737286247.48647,20743,1737286247,484986688,map,base_link,0.027835080520496103,-6.5445912053422495,2.531,0.00730312237301413,-0.0005611942875086799,-0.6981448309010777,-0.7159190907851822,"(1.110916, 0.0, 0.0, 0.0, 0.0, 0.0, 0.0, 1.110916, 0.0, 0.0, 0.0, 0.0, 0.0, 0.0, 1.9460250000000001, 0.0, 0.0, 0.0, 0.0, 0.0, 0.0, 99999.0, 0.0, 0.0, 0.0, 0.0, 0.0, 0.0, 99999.0, 0.0, 0.0, 0.0, 0.0, 0.0, 0.0, 99999.0)",0.01,-0.14,-0.32,0.0,0.0,0.0,"(-1.0, 0.0, 0.0, 0.0, 0.0, 0.0, 0.0, 0.0, 0.0, 0.0, 0.0, 0.0, 0.0, 0.0, 0.0, 0.0, 0.0, 0.0, 0.0, 0.0, 0.0, 0.0, 0.0, 0.0, 0.0, 0.0, 0.0, 0.0, 0.0, 0.0, 0.0, 0.0, 0.0, 0.0, 0.0, 0.0)"
1737286247.5866518,20744,1737286247,583984896,map,base_link,0.03711344147307627,-6.533498698601802,2.551,0.005811217606882358,0.0001586225457348402,-0.6994011935811365,-0.7147056562012752,"(1.108809, 0.0, 0.0, 0.0, 0.0, 0.0, 0.0, 1.108809, 0.0, 0.0, 0.0, 0.0, 0.0, 0.0, 1.9488159999999997, 0.0, 0.0, 0.0, 0.0, 0.0, 0.0, 99999.0, 0.0, 0.0, 0.0, 0.0, 0.0, 0.0, 99999.0, 0.0, 0.0, 0.0, 0.0, 0.0, 0.0, 99999.0)",0.03,-0.13,-0.24,0.0,0.0,0.0,"(-1.0, 0.0, 0.0, 0.0, 0.0, 0.0, 0.0, 0.0, 0.0, 0.0, 0.0, 0.0, 0.0, 0.0, 0.0, 0.0, 0.0, 0.0, 0.0, 0.0, 0.0, 0.0, 0.0, 0.0, 0.0, 0.0, 0.0, 0.0, 0.0, 0.0, 0.0, 0.0, 0.0, 0.0, 0.0, 0.0)"
1737286247.685772,20745,1737286247,682980544,map,base_link,0.037113441579947004,-6.533498708861759,2.566,0.006668900081389975,0.0016854462045474267,-0.6962443975889634,-0.7177718466677118,"(1.108809, 0.0, 0.0, 0.0, 0.0, 0.0, 0.0, 1.108809, 0.0, 0.0, 0.0, 0.0, 0.0, 0.0, 1.9488159999999997, 0.0, 0.0, 0.0, 0.0, 0.0, 0.0, 99999.0, 0.0, 0.0, 0.0, 0.0, 0.0, 0.0, 99999.0, 0.0, 0.0, 0.0, 0.0, 0.0, 0.0, 99999.0)",0.0,-0.14,-0.22,0.0,0.0,0.0,"(-1.0, 0.0, 0.0, 0.0, 0.0, 0.0, 0.0, 0.0, 0.0, 0.0, 0.0, 0.0, 0.0, 0.0, 0.0, 0.0, 0.0, 0.0, 0.0, 0.0, 0.0, 0.0, 0.0, 0.0, 0.0, 0.0, 0.0, 0.0, 0.0, 0.0, 0.0, 0.0, 0.0, 0.0, 0.0, 0.0)"
1737286247.786908,20746,1737286247,783974912,map,base_link,0.037113441637036226,-6.533498718978357,2.577,0.004901585484700701,0.000250767658087673,-0.6911563326178554,-0.7226886158350317,"(1.110916, 0.0, 0.0, 0.0, 0.0, 0.0, 0.0, 1.110916, 0.0, 0.0, 0.0, 0.0, 0.0, 0.0, 1.9488159999999997, 0.0, 0.0, 0.0, 0.0, 0.0, 0.0, 99999.0, 0.0, 0.0, 0.0, 0.0, 0.0, 0.0, 99999.0, 0.0, 0.0, 0.0, 0.0, 0.0, 0.0, 99999.0)",0.01,-0.13,-0.22,0.0,0.0,0.0,"(-1.0, 0.0, 0.0, 0.0, 0.0, 0.0, 0.0, 0.0, 0.0, 0.0, 0.0, 0.0, 0.0, 0.0, 0.0, 0.0, 0.0, 0.0, 0.0, 0.0, 0.0, 0.0, 0.0, 0.0, 0.0, 0.0, 0.0, 0.0, 0.0, 0.0, 0.0, 0.0, 0.0, 0.0, 0.0, 0.0)"
1737286247.8869963,20747,1737286247,882968256,map,base_link,0.03711344147147866,-6.5334987287449895,2.588,0.0019913165933490985,0.000609732233954568,-0.6887040543517824,-0.7250395771295831,"(1.110916, 0.0, 0.0, 0.0, 0.0, 0.0, 0.0, 1.110916, 0.0, 0.0, 0.0, 0.0, 0.0, 0.0, 1.9488159999999997, 0.0, 0.0, 0.0, 0.0, 0.0, 0.0, 99999.0, 0.0, 0.0, 0.0, 0.0, 0.0, 0.0, 99999.0, 0.0, 0.0, 0.0, 0.0, 0.0, 0.0, 99999.0)",0.0,-0.14,-0.22,0.0,0.0,0.0,"(-1.0, 0.0, 0.0, 0.0, 0.0, 0.0, 0.0, 0.0, 0.0, 0.0, 0.0, 0.0, 0.0, 0.0, 0.0, 0.0, 0.0, 0.0, 0.0, 0.0, 0.0, 0.0, 0.0, 0.0, 0.0, 0.0, 0.0, 0.0, 0.0, 0.0, 0.0, 0.0, 0.0, 0.0, 0.0, 0.0)"
1737286247.984939,20748,1737286247,982962624,map,base_link,0.037113441888851684,-6.544591277534267,2.605,0.0015331794491799757,0.00045454421850741537,-0.688353789817115,-0.7253733540699886,"(1.110916, 0.0, 0.0, 0.0, 0.0, 0.0, 0.0, 1.110916, 0.0, 0.0, 0.0, 0.0, 0.0, 0.0, 1.9488159999999997, 0.0, 0.0, 0.0, 0.0, 0.0, 0.0, 99999.0, 0.0, 0.0, 0.0, 0.0, 0.0, 0.0, 99999.0, 0.0, 0.0, 0.0, 0.0, 0.0, 0.0, 99999.0)",0.01,-0.15,-0.29,0.0,0.0,0.0,"(-1.0, 0.0, 0.0, 0.0, 0.0, 0.0, 0.0, 0.0, 0.0, 0.0, 0.0, 0.0, 0.0, 0.0, 0.0, 0.0, 0.0, 0.0, 0.0, 0.0, 0.0, 0.0, 0.0, 0.0, 0.0, 0.0, 0.0, 0.0, 0.0, 0.0, 0.0, 0.0, 0.0, 0.0, 0.0, 0.0)"
1737286248.0880826,20749,1737286248,84958528,map,base_link,0.03711344183016507,-6.544591297948549,2.626,0.004832186806116374,0.00041250955805670884,-0.6908174458947174,-0.7230129571826734,"(1.110916, 0.0, 0.0, 0.0, 0.0, 0.0, 0.0, 1.110916, 0.0, 0.0, 0.0, 0.0, 0.0, 0.0, 1.9488159999999997, 0.0, 0.0, 0.0, 0.0, 0.0, 0.0, 99999.0, 0.0, 0.0, 0.0, 0.0, 0.0, 0.0, 99999.0, 0.0, 0.0, 0.0, 0.0, 0.0, 0.0, 99999.0)",0.02,-0.17,-0.26,0.0,0.0,0.0,"(-1.0, 0.0, 0.0, 0.0, 0.0, 0.0, 0.0, 0.0, 0.0, 0.0, 0.0, 0.0, 0.0, 0.0, 0.0, 0.0, 0.0, 0.0, 0.0, 0.0, 0.0, 0.0, 0.0, 0.0, 0.0, 0.0, 0.0, 0.0, 0.0, 0.0, 0.0, 0.0, 0.0, 0.0, 0.0, 0.0)"
1737286248.186046,20750,1737286248,183952128,map,base_link,0.04639180226865558,-6.544591318671903,2.647,0.007190292636801859,-0.0009020924982892282,-0.6944752440822379,-0.7194801048519949,"(1.110916, 0.0, 0.0, 0.0, 0.0, 0.0, 0.0, 1.110916, 0.0, 0.0, 0.0, 0.0, 0.0, 0.0, 1.9516090000000001, 0.0, 0.0, 0.0, 0.0, 0.0, 0.0, 99999.0, 0.0, 0.0, 0.0, 0.0, 0.0, 0.0, 99999.0, 0.0, 0.0, 0.0, 0.0, 0.0, 0.0, 99999.0)",0.0,-0.16,-0.25,0.0,0.0,0.0,"(-1.0, 0.0, 0.0, 0.0, 0.0, 0.0, 0.0, 0.0, 0.0, 0.0, 0.0, 0.0, 0.0, 0.0, 0.0, 0.0, 0.0, 0.0, 0.0, 0.0, 0.0, 0.0, 0.0, 0.0, 0.0, 0.0, 0.0, 0.0, 0.0, 0.0, 0.0, 0.0, 0.0, 0.0, 0.0, 0.0)"
1737286248.2898648,20751,1737286248,282945984,map,base_link,0.04639180231683948,-6.544591349346141,2.672,0.006819048737133078,0.0005754338987026629,-0.6966945312632681,-0.7173352769507464,"(1.110916, 0.0, 0.0, 0.0, 0.0, 0.0, 0.0, 1.110916, 0.0, 0.0, 0.0, 0.0, 0.0, 0.0, 1.9516090000000001, 0.0, 0.0, 0.0, 0.0, 0.0, 0.0, 99999.0, 0.0, 0.0, 0.0, 0.0, 0.0, 0.0, 99999.0, 0.0, 0.0, 0.0, 0.0, 0.0, 0.0, 99999.0)",0.01,-0.15,-0.3,0.0,0.0,0.0,"(-1.0, 0.0, 0.0, 0.0, 0.0, 0.0, 0.0, 0.0, 0.0, 0.0, 0.0, 0.0, 0.0, 0.0, 0.0, 0.0, 0.0, 0.0, 0.0, 0.0, 0.0, 0.0, 0.0, 0.0, 0.0, 0.0, 0.0, 0.0, 0.0, 0.0, 0.0, 0.0, 0.0, 0.0, 0.0, 0.0)"
1737286248.3892457,20752,1737286248,382941376,map,base_link,0.0556701627363152,-6.555683897601202,2.696,0.007689104393476006,0.0012098403478261685,-0.6972751308064399,-0.7167613312106207,"(1.113025, 0.0, 0.0, 0.0, 0.0, 0.0, 0.0, 1.113025, 0.0, 0.0, 0.0, 0.0, 0.0, 0.0, 1.957201, 0.0, 0.0, 0.0, 0.0, 0.0, 0.0, 99999.0, 0.0, 0.0, 0.0, 0.0, 0.0, 0.0, 99999.0, 0.0, 0.0, 0.0, 0.0, 0.0, 0.0, 99999.0)",0.01,-0.17,-0.29,0.0,0.0,0.0,"(-1.0, 0.0, 0.0, 0.0, 0.0, 0.0, 0.0, 0.0, 0.0, 0.0, 0.0, 0.0, 0.0, 0.0, 0.0, 0.0, 0.0, 0.0, 0.0, 0.0, 0.0, 0.0, 0.0, 0.0, 0.0, 0.0, 0.0, 0.0, 0.0, 0.0, 0.0, 0.0, 0.0, 0.0, 0.0, 0.0)"
1737286248.490306,20753,1737286248,484938560,map,base_link,0.055670163160995934,-6.566776457526794,2.721,0.007482664284506257,0.0018789635396201064,-0.6930157047954901,-0.7208812052883834,"(1.113025, 0.0, 0.0, 0.0, 0.0, 0.0, 0.0, 1.113025, 0.0, 0.0, 0.0, 0.0, 0.0, 0.0, 1.957201, 0.0, 0.0, 0.0, 0.0, 0.0, 0.0, 99999.0, 0.0, 0.0, 0.0, 0.0, 0.0, 0.0, 99999.0, 0.0, 0.0, 0.0, 0.0, 0.0, 0.0, 99999.0)",0.01,-0.16,-0.25,0.0,0.0,0.0,"(-1.0, 0.0, 0.0, 0.0, 0.0, 0.0, 0.0, 0.0, 0.0, 0.0, 0.0, 0.0, 0.0, 0.0, 0.0, 0.0, 0.0, 0.0, 0.0, 0.0, 0.0, 0.0, 0.0, 0.0, 0.0, 0.0, 0.0, 0.0, 0.0, 0.0, 0.0, 0.0, 0.0, 0.0, 0.0, 0.0)"
1737286248.5860715,20754,1737286248,583933952,map,base_link,0.05567016315209039,-6.566776478084436,2.743,0.010540409294289647,4.631334005736229e-05,-0.6896462817047827,-0.724069681562314,"(1.113025, 0.0, 0.0, 0.0, 0.0, 0.0, 0.0, 1.113025, 0.0, 0.0, 0.0, 0.0, 0.0, 0.0, 1.957201, 0.0, 0.0, 0.0, 0.0, 0.0, 0.0, 99999.0, 0.0, 0.0, 0.0, 0.0, 0.0, 0.0, 99999.0, 0.0, 0.0, 0.0, 0.0, 0.0, 0.0, 99999.0)",0.0,-0.16,-0.31,0.0,0.0,0.0,"(-1.0, 0.0, 0.0, 0.0, 0.0, 0.0, 0.0, 0.0, 0.0, 0.0, 0.0, 0.0, 0.0, 0.0, 0.0, 0.0, 0.0, 0.0, 0.0, 0.0, 0.0, 0.0, 0.0, 0.0, 0.0, 0.0, 0.0, 0.0, 0.0, 0.0, 0.0, 0.0, 0.0, 0.0, 0.0, 0.0)"
1737286248.688153,20755,1737286248,685929088,map,base_link,0.055670163420119545,-6.57786902528056,2.76,0.010253155195953668,-0.0021879181890724123,-0.6870107328422121,-0.726571633620617,"(1.1151360000000001, 0.0, 0.0, 0.0, 0.0, 0.0, 0.0, 1.1151360000000001, 0.0, 0.0, 0.0, 0.0, 0.0, 0.0, 1.9599999999999997, 0.0, 0.0, 0.0, 0.0, 0.0, 0.0, 99999.0, 0.0, 0.0, 0.0, 0.0, 0.0, 0.0, 99999.0, 0.0, 0.0, 0.0, 0.0, 0.0, 0.0, 99999.0)",0.0,-0.16,-0.32,0.0,0.0,0.0,"(-1.0, 0.0, 0.0, 0.0, 0.0, 0.0, 0.0, 0.0, 0.0, 0.0, 0.0, 0.0, 0.0, 0.0, 0.0, 0.0, 0.0, 0.0, 0.0, 0.0, 0.0, 0.0, 0.0, 0.0, 0.0, 0.0, 0.0, 0.0, 0.0, 0.0, 0.0, 0.0, 0.0, 0.0, 0.0, 0.0)"
1737286248.7893393,20756,1737286248,785923200,map,base_link,0.05567016363386057,-6.577869045800474,2.783,0.011289928113534338,-0.004735324634481543,-0.6868662863874405,-0.7266806856165393,"(1.117249, 0.0, 0.0, 0.0, 0.0, 0.0, 0.0, 1.117249, 0.0, 0.0, 0.0, 0.0, 0.0, 0.0, 1.962801, 0.0, 0.0, 0.0, 0.0, 0.0, 0.0, 99999.0, 0.0, 0.0, 0.0, 0.0, 0.0, 0.0, 99999.0, 0.0, 0.0, 0.0, 0.0, 0.0, 0.0, 99999.0)",-0.02,-0.15,-0.27,0.0,0.0,0.0,"(-1.0, 0.0, 0.0, 0.0, 0.0, 0.0, 0.0, 0.0, 0.0, 0.0, 0.0, 0.0, 0.0, 0.0, 0.0, 0.0, 0.0, 0.0, 0.0, 0.0, 0.0, 0.0, 0.0, 0.0, 0.0, 0.0, 0.0, 0.0, 0.0, 0.0, 0.0, 0.0, 0.0, 0.0, 0.0, 0.0)"
1737286248.8863692,20757,1737286248,883920896,map,base_link,0.055670164001452305,-6.588961594446394,2.807,0.007715618525655306,-0.0033318568305472887,-0.6882164862433743,-0.7254567085799473,"(1.117249, 0.0, 0.0, 0.0, 0.0, 0.0, 0.0, 1.117249, 0.0, 0.0, 0.0, 0.0, 0.0, 0.0, 1.962801, 0.0, 0.0, 0.0, 0.0, 0.0, 0.0, 99999.0, 0.0, 0.0, 0.0, 0.0, 0.0, 0.0, 99999.0, 0.0, 0.0, 0.0, 0.0, 0.0, 0.0, 99999.0)",0.0,-0.15,-0.32,0.0,0.0,0.0,"(-1.0, 0.0, 0.0, 0.0, 0.0, 0.0, 0.0, 0.0, 0.0, 0.0, 0.0, 0.0, 0.0, 0.0, 0.0, 0.0, 0.0, 0.0, 0.0, 0.0, 0.0, 0.0, 0.0, 0.0, 0.0, 0.0, 0.0, 0.0, 0.0, 0.0, 0.0, 0.0, 0.0, 0.0, 0.0, 0.0)"
1737286248.9865155,20758,1737286248,983916800,map,base_link,0.055670164049635984,-6.588961625120632,2.834,0.0038840613008371463,-0.0031298284344507283,-0.6918625769165053,-0.7220119755961358,"(1.117249, 0.0, 0.0, 0.0, 0.0, 0.0, 0.0, 1.117249, 0.0, 0.0, 0.0, 0.0, 0.0, 0.0, 1.962801, 0.0, 0.0, 0.0, 0.0, 0.0, 0.0, 99999.0, 0.0, 0.0, 0.0, 0.0, 0.0, 0.0, 99999.0, 0.0, 0.0, 0.0, 0.0, 0.0, 0.0, 99999.0)",0.0,-0.14,-0.31,0.0,0.0,0.0,"(-1.0, 0.0, 0.0, 0.0, 0.0, 0.0, 0.0, 0.0, 0.0, 0.0, 0.0, 0.0, 0.0, 0.0, 0.0, 0.0, 0.0, 0.0, 0.0, 0.0, 0.0, 0.0, 0.0, 0.0, 0.0, 0.0, 0.0, 0.0, 0.0, 0.0, 0.0, 0.0, 0.0, 0.0, 0.0, 0.0)"
1737286249.0864332,20759,1737286249,82910400,map,base_link,0.05567016426337723,-6.58896164641593,2.858,0.005983089883258793,-0.0005427413684052034,-0.692492649581317,-0.7213999156799946,"(1.117249, 0.0, 0.0, 0.0, 0.0, 0.0, 0.0, 1.117249, 0.0, 0.0, 0.0, 0.0, 0.0, 0.0, 1.962801, 0.0, 0.0, 0.0, 0.0, 0.0, 0.0, 99999.0, 0.0, 0.0, 0.0, 0.0, 0.0, 0.0, 99999.0, 0.0, 0.0, 0.0, 0.0, 0.0, 0.0, 99999.0)",-0.01,-0.15,-0.23,0.0,0.0,0.0,"(-1.0, 0.0, 0.0, 0.0, 0.0, 0.0, 0.0, 0.0, 0.0, 0.0, 0.0, 0.0, 0.0, 0.0, 0.0, 0.0, 0.0, 0.0, 0.0, 0.0, 0.0, 0.0, 0.0, 0.0, 0.0, 0.0, 0.0, 0.0, 0.0, 0.0, 0.0, 0.0, 0.0, 0.0, 0.0, 0.0)"
1737286249.187359,20760,1737286249,184905280,map,base_link,0.055670164358540664,-6.600054195343908,2.874,0.010376676256682678,-0.0020934379339281085,-0.6928318324075184,-0.7210214935148059,"(1.117249, 0.0, 0.0, 0.0, 0.0, 0.0, 0.0, 1.117249, 0.0, 0.0, 0.0, 0.0, 0.0, 0.0, 1.9656039999999997, 0.0, 0.0, 0.0, 0.0, 0.0, 0.0, 99999.0, 0.0, 0.0, 0.0, 0.0, 0.0, 0.0, 99999.0, 0.0, 0.0, 0.0, 0.0, 0.0, 0.0, 99999.0)",-0.03,-0.14,-0.21,0.0,0.0,0.0,"(-1.0, 0.0, 0.0, 0.0, 0.0, 0.0, 0.0, 0.0, 0.0, 0.0, 0.0, 0.0, 0.0, 0.0, 0.0, 0.0, 0.0, 0.0, 0.0, 0.0, 0.0, 0.0, 0.0, 0.0, 0.0, 0.0, 0.0, 0.0, 0.0, 0.0, 0.0, 0.0, 0.0, 0.0, 0.0, 0.0)"
1737286249.289298,20761,1737286249,283900160,map,base_link,0.05567016484470977,-6.600054216357146,2.89,0.011894604026126153,-0.0023379366630070673,-0.6926572841538169,-0.7211649874722703,"(1.117249, 0.0, 0.0, 0.0, 0.0, 0.0, 0.0, 1.117249, 0.0, 0.0, 0.0, 0.0, 0.0, 0.0, 1.9656039999999997, 0.0, 0.0, 0.0, 0.0, 0.0, 0.0, 99999.0, 0.0, 0.0, 0.0, 0.0, 0.0, 0.0, 99999.0, 0.0, 0.0, 0.0, 0.0, 0.0, 0.0, 99999.0)",0.0,-0.14,-0.3,0.0,0.0,0.0,"(-1.0, 0.0, 0.0, 0.0, 0.0, 0.0, 0.0, 0.0, 0.0, 0.0, 0.0, 0.0, 0.0, 0.0, 0.0, 0.0, 0.0, 0.0, 0.0, 0.0, 0.0, 0.0, 0.0, 0.0, 0.0, 0.0, 0.0, 0.0, 0.0, 0.0, 0.0, 0.0, 0.0, 0.0, 0.0, 0.0)"
1737286249.3853073,20762,1737286249,382894272,map,base_link,0.05567016490179921,-6.600054226473743,2.907,0.012948077088126723,-0.005068875889712126,-0.6921174764958458,-0.721650921516738,"(1.119364, 0.0, 0.0, 0.0, 0.0, 0.0, 0.0, 1.119364, 0.0, 0.0, 0.0, 0.0, 0.0, 0.0, 1.968409, 0.0, 0.0, 0.0, 0.0, 0.0, 0.0, 99999.0, 0.0, 0.0, 0.0, 0.0, 0.0, 0.0, 99999.0, 0.0, 0.0, 0.0, 0.0, 0.0, 0.0, 99999.0)",-0.02,-0.14,-0.24,0.0,0.0,0.0,"(-1.0, 0.0, 0.0, 0.0, 0.0, 0.0, 0.0, 0.0, 0.0, 0.0, 0.0, 0.0, 0.0, 0.0, 0.0, 0.0, 0.0, 0.0, 0.0, 0.0, 0.0, 0.0, 0.0, 0.0, 0.0, 0.0, 0.0, 0.0, 0.0, 0.0, 0.0, 0.0, 0.0, 0.0, 0.0, 0.0)"
1737286249.4885328,20763,1737286249,484888896,map,base_link,0.05567016526939095,-6.611146775507354,2.928,0.008900589659667495,-0.0033466709976088787,-0.6914275554780778,-0.7223832188129465,"(1.119364, 0.0, 0.0, 0.0, 0.0, 0.0, 0.0, 1.119364, 0.0, 0.0, 0.0, 0.0, 0.0, 0.0, 1.968409, 0.0, 0.0, 0.0, 0.0, 0.0, 0.0, 99999.0, 0.0, 0.0, 0.0, 0.0, 0.0, 0.0, 99999.0, 0.0, 0.0, 0.0, 0.0, 0.0, 0.0, 99999.0)",0.0,-0.13,-0.33,0.0,0.0,0.0,"(-1.0, 0.0, 0.0, 0.0, 0.0, 0.0, 0.0, 0.0, 0.0, 0.0, 0.0, 0.0, 0.0, 0.0, 0.0, 0.0, 0.0, 0.0, 0.0, 0.0, 0.0, 0.0, 0.0, 0.0, 0.0, 0.0, 0.0, 0.0, 0.0, 0.0, 0.0, 0.0, 0.0, 0.0, 0.0, 0.0)"
