Time,header.seq,header.stamp.secs,header.stamp.nsecs,header.frame_id,airspeed,groundspeed,heading,throttle,altitude,climb
1737286240.4891226,20673,1737286240,488653168,,0.9658260345458984,0.135830819606781,3,0.14000000059604645,586.0800170898438,0.9562269449234009
1737286240.5875924,20674,1737286240,585681575,,0.879031240940094,0.15049846470355988,3,0.12999999523162842,586.1799926757812,0.866051971912384
1737286240.6913197,20675,1737286240,688715501,,0.7862101197242737,0.1444844752550125,3,0.11999999731779099,586.2699584960938,0.772819995880127
1737286240.7894866,20676,1737286240,788816334,,0.7758676409721375,0.13018278777599335,2,0.11999999731779099,586.3499755859375,0.7648679614067078
1737286240.8919673,20677,1737286240,890902741,,0.6788345575332642,0.1198204755783081,2,0.12999999523162842,586.4299926757812,0.6681761741638184
1737286240.9875531,20678,1737286240,985818297,,0.6581076979637146,0.1118684709072113,2,0.10999999940395355,586.5,0.6485300064086914
1737286241.0952432,20679,1737286241,90850963,,0.4932422935962677,0.10211675614118576,2,0.11999999731779099,586.5800170898438,0.4825558066368103
1737286241.1911454,20680,1737286241,188815667,,0.4554058611392975,0.09130094945430756,2,0.14000000059604645,586.6300048828125,0.44615986943244934
1737286241.2948558,20681,1737286241,290868019,,0.32830488681793213,0.09166592359542847,3,0.12999999523162842,586.6900024414062,0.3152482509613037
1737286241.3896334,20682,1737286241,388869593,,0.33215203881263733,0.07391506433486938,3,0.11999999731779099,586.739990234375,0.32382330298423767
1737286241.4910836,20683,1737286241,488883334,,0.18912918865680695,0.06448163092136383,3,0.11999999731779099,586.7699584960938,0.17779755592346191
1737286241.5919635,20684,1737286241,589831574,,0.11823714524507523,0.0876532644033432,357,0.12999999523162842,586.7799682617188,0.07935318350791931
1737286241.6907613,20685,1737286241,686894093,,0.08207358419895172,0.06762171536684036,351,0.14000000059604645,586.7799682617188,-0.046512115746736526
1737286241.7895727,20686,1737286241,788333074,,0.06312799453735352,0.0618913434445858,350,0.12999999523162842,586.7799682617188,0.012434013187885284
1737286241.88878,20687,1737286241,887352444,,0.0656571090221405,0.03171156346797943,352,0.14000000059604645,586.760009765625,-0.05749114975333214
1737286241.989467,20688,1737286241,988875685,,0.14479708671569824,0.02109091728925705,356,0.15000000596046448,586.72998046875,-0.14325281977653503
1737286242.0908198,20689,1737286242,89891833,,0.0748792514204979,0.009797187522053719,1,0.15000000596046448,586.7099609375,-0.07423555105924606
1737286242.191392,20690,1737286242,188934667,,0.10159895569086075,0.02020607516169548,4,0.15000000596046448,586.6900024414062,-0.09956937283277512
1737286242.29414,20691,1737286242,291873407,,0.06463846564292908,0.01978520303964615,5,0.1599999964237213,586.6699829101562,-0.06153598427772522
1737286242.392237,20692,1737286242,390986259,,0.07917714864015579,0.012292402796447277,5,0.1599999964237213,586.6599731445312,-0.07821711152791977
1737286242.496307,20693,1737286242,495096814,,0.028276504948735237,0.011242354288697243,4,0.15000000596046448,586.6499633789062,0.025945521891117096
1737286242.5953174,20694,1737286242,593523166,,0.021627776324748993,0.02153562195599079,2,0.15000000596046448,586.6499633789062,0.0019944217056035995
1737286242.6948802,20695,1737286242,694065814,,0.03380407765507698,0.03233862295746803,1,0.15000000596046448,586.6499633789062,0.00984526053071022
1737286242.7890577,20696,1737286242,788027925,,0.015866084024310112,0.013512854464352131,0,0.14000000059604645,586.6499633789062,0.008314769715070724
1737286242.8880734,20697,1737286242,887039055,,0.088616281747818,0.024875042960047722,0,0.15000000596046448,586.6499633789062,0.08505338430404663
1737286242.989409,20698,1737286242,988372314,,0.06643645465373993,0.0654769316315651,1,0.15000000596046448,586.6599731445312,0.011250533163547516
1737286243.0899062,20699,1737286243,89042962,,0.06307867914438248,0.049200575798749924,2,0.1599999964237213,586.6599731445312,0.039474330842494965
1737286243.1889715,20700,1737286243,188018647,,0.07443844527006149,0.045409686863422394,3,0.15000000596046448,586.6599731445312,0.05898340791463852
1737286243.2901604,20701,1737286243,287075870,,0.0934620350599289,0.06033880263566971,3,0.15000000596046448,586.6599731445312,0.07137493789196014
1737286243.3901172,20702,1737286243,389150369,,0.14730259776115417,0.08479999005794525,3,0.14000000059604645,586.6599731445312,0.12044507265090942
1737286243.4953578,20703,1737286243,492097295,,0.09782501310110092,0.0947469025850296,2,0.15000000596046448,586.6699829101562,0.02434660494327545
1737286243.5889533,20704,1737286243,588260814,,0.06960452347993851,0.06924200803041458,2,0.15000000596046448,586.6699829101562,-0.007094621658325195
1737286243.6933904,20705,1737286243,692070147,,0.1297040730714798,0.10426557064056396,2,0.14000000059604645,586.6699829101562,0.07714815437793732
1737286243.7891524,20706,1737286243,788210851,,0.13122951984405518,0.11989514529705048,2,0.14000000059604645,586.6599731445312,0.053351085633039474
1737286243.890187,20707,1737286243,889182684,,0.13717235624790192,0.13343621790409088,1,0.14000000059604645,586.6599731445312,0.031796716153621674
1737286243.989265,20708,1737286243,988173314,,0.1689613312482834,0.13996979594230652,1,0.14000000059604645,586.6699829101562,0.09463820606470108
1737286244.0882592,20709,1737286244,87266202,,0.19375792145729065,0.15444225072860718,1,0.12999999523162842,586.6699829101562,0.11700308322906494
1737286244.1902204,20710,1737286244,189217517,,0.18366549909114838,0.17813648283481598,1,0.14000000059604645,586.6699829101562,0.044725917279720306
1737286244.2939293,20711,1737286244,292993295,,0.17711861431598663,0.17703934013843536,1,0.1599999964237213,586.6699829101562,-0.005298711359500885
1737286244.3899732,20712,1737286244,389532647,,0.1884368509054184,0.18830472230911255,2,0.15000000596046448,586.6599731445312,-0.007055189460515976
1737286244.4879062,20713,1737286244,487251295,,0.16874462366104126,0.16492336988449097,2,0.15000000596046448,586.6499633789062,0.03570755198597908
1737286244.5881028,20714,1737286244,587270461,,0.20642732083797455,0.18931210041046143,2,0.15000000596046448,586.6400146484375,0.08229922503232956
1737286244.6890168,20715,1737286244,688265739,,0.1958160549402237,0.1853499859571457,2,0.15000000596046448,586.6400146484375,0.0631609708070755
1737286244.7889152,20716,1737286244,787499035,,0.17488394677639008,0.17458920180797577,2,0.15000000596046448,586.6400146484375,-0.010149175301194191
1737286244.8900054,20717,1737286244,889274276,,0.1837509572505951,0.18368133902549744,2,0.15000000596046448,586.6400146484375,-0.005057660862803459
1737286244.9893064,20718,1737286244,988325572,,0.19509191811084747,0.1916944533586502,2,0.15000000596046448,586.6300048828125,0.036250464618206024
1737286245.0952423,20719,1737286245,94329554,,0.20271660387516022,0.18897677958011627,1,0.15000000596046448,586.6300048828125,0.07336069643497467
1737286245.1891856,20720,1737286245,188312609,,0.19477184116840363,0.19230638444423676,1,0.15000000596046448,586.6300048828125,0.030892200767993927
1737286245.293005,20721,1737286245,292374535,,0.20455628633499146,0.20337896049022675,1,0.15000000596046448,586.6400146484375,0.021915234625339508
1737286245.3888206,20722,1737286245,388356368,,0.2102881819009781,0.2087382823228836,2,0.15000000596046448,586.6400146484375,0.02548418939113617
1737286245.4901595,20723,1737286245,489412405,,0.21867595613002777,0.21673128008842468,2,0.15000000596046448,586.6400146484375,0.029098495841026306
1737286245.5890102,20724,1737286245,588414850,,0.247389018535614,0.23072969913482666,2,0.15000000596046448,586.6499633789062,0.08924756944179535
1737286245.690264,20725,1737286245,689410757,,0.23437459766864777,0.2321128249168396,2,0.15000000596046448,586.6499633789062,0.032482147216796875
1737286245.7890723,20726,1737286245,788449998,,0.22425243258476257,0.22418805956840515,2,0.15000000596046448,586.6499633789062,-0.005373470485210419
1737286245.893508,20727,1737286245,892391127,,0.23550066351890564,0.23545554280281067,2,0.15000000596046448,586.6599731445312,0.004609489813446999
1737286245.9975667,20728,1737286245,995276035,,0.24705849587917328,0.23229388892650604,2,0.1599999964237213,586.6599731445312,0.08412759006023407
1737286246.0915453,20729,1737286246,90518942,,0.23400381207466125,0.23300936818122864,2,0.15000000596046448,586.6599731445312,0.02155049704015255
1737286246.198488,20730,1737286246,197453960,,0.21797102689743042,0.21769094467163086,2,0.15000000596046448,586.6599731445312,0.011046032421290874
1737286246.294053,20731,1737286246,293485109,,0.22699540853500366,0.22247286140918732,2,0.15000000596046448,586.6599731445312,0.04508587718009949
1737286246.390237,20732,1737286246,389579868,,0.2104516476392746,0.2027244120836258,2,0.15000000596046448,586.6599731445312,0.056504108011722565
1737286246.4912882,20733,1737286246,490613997,,0.20654231309890747,0.202917218208313,2,0.1599999964237213,586.6599731445312,0.038526974618434906
1737286246.5882218,20734,1737286246,587528775,,0.1862260401248932,0.182220920920372,2,0.1599999964237213,586.6599731445312,0.03841455280780792
1737286246.687214,20735,1737286246,686651145,,0.21497291326522827,0.18171046674251556,2,0.1599999964237213,586.6599731445312,0.11486802995204926
1737286246.78925,20736,1737286246,788673812,,0.19496206939220428,0.16746759414672852,2,0.1599999964237213,586.6599731445312,0.09982393682003021
1737286246.8879962,20737,1737286246,887620627,,0.2589566707611084,0.16778095066547394,2,0.1599999964237213,586.6699829101562,0.19725139439105988
1737286246.988026,20738,1737286246,987498738,,0.2583615779876709,0.14805932343006134,2,0.1599999964237213,586.6599731445312,0.21172894537448883
1737286247.1056144,20739,1737286247,93597849,,0.1924268752336502,0.14389340579509735,2,0.17000000178813934,586.6699829101562,0.12776066362857819
1737286247.1895683,20740,1737286247,188660478,,0.28992167115211487,0.15260562300682068,3,0.1599999964237213,586.6799926757812,0.24650780856609344
1737286247.2922509,20741,1737286247,288446441,,0.29847362637519836,0.13632911443710327,2,0.15000000596046448,586.6900024414062,0.26552003622055054
1737286247.387746,20742,1737286247,386625497,,0.33592909574508667,0.13938985764980316,2,0.15000000596046448,586.719970703125,0.3056449294090271
1737286247.4899774,20743,1737286247,488699756,,0.3580136299133301,0.13733665645122528,1,0.15000000596046448,586.739990234375,0.3306242823600769
1737286247.5885954,20744,1737286247,587708682,,0.31685519218444824,0.14529843628406525,1,0.15000000596046448,586.760009765625,0.2815769612789154
1737286247.6876392,20745,1737286247,686728441,,0.31628042459487915,0.13947319984436035,1,0.1599999964237213,586.7699584960938,0.28386709094047546
1737286247.7889135,20746,1737286247,787732256,,0.29770416021347046,0.1547769457101822,2,0.1599999964237213,586.7799682617188,0.2543066143989563
1737286247.8893805,20747,1737286247,886726089,,0.2612711191177368,0.1523902267217636,2,0.15000000596046448,586.7899780273438,0.21222585439682007
1737286247.9915128,20748,1737286247,989729607,,0.3103783130645752,0.16069218516349792,2,0.15000000596046448,586.8099975585938,0.26554232835769653
1737286248.0946484,20749,1737286248,93738626,,0.3144024610519409,0.15753991901874542,2,0.15000000596046448,586.8300170898438,0.27208471298217773
1737286248.1896489,20750,1737286248,187815700,,0.3232496976852417,0.170684814453125,2,0.14000000059604645,586.8499755859375,0.2745124101638794
1737286248.29478,20751,1737286248,288200441,,0.28517889976501465,0.16378526389598846,1,0.15000000596046448,586.8800048828125,0.23345530033111572
1737286248.3900044,20752,1737286248,386285441,,0.3643016815185547,0.17414544522762299,1,0.15000000596046448,586.8999633789062,0.3199829161167145
1737286248.4913878,20753,1737286248,488173348,,0.28227299451828003,0.17896324396133423,2,0.1599999964237213,586.9299926757812,0.21828927099704742
1737286248.5902247,20754,1737286248,588948200,,0.2868814766407013,0.16374744474887848,2,0.1599999964237213,586.9500122070312,0.23555836081504822
1737286248.6974525,20755,1737286248,694282514,,0.2586064040660858,0.1720130741596222,3,0.1599999964237213,586.969970703125,0.19310303032398224
1737286248.7934122,20756,1737286248,788949644,,0.320343554019928,0.15686628222465515,3,0.1599999964237213,586.989990234375,0.2793079912662506
1737286248.8912673,20757,1737286248,889828922,,0.2795369625091553,0.16193491220474243,2,0.15000000596046448,587.010009765625,0.22785520553588867
1737286248.9892113,20758,1737286248,987030718,,0.337423175573349,0.14887909591197968,2,0.15000000596046448,587.0399780273438,0.3028026223182678
1737286249.0915527,20759,1737286249,88884699,,0.3239901065826416,0.1532885879278183,2,0.1599999964237213,587.0599975585938,0.2854333519935608
1737286249.18948,20760,1737286249,187891977,,0.2890782654285431,0.14919398725032806,2,0.1599999964237213,587.0800170898438,0.24760329723358154
1737286249.293553,20761,1737286249,291986255,,0.3080767095088959,0.15212734043598175,2,0.15000000596046448,587.0999755859375,0.26789647340774536
1737286249.3881378,20762,1737286249,386978792,,0.34584856033325195,0.13683484494686127,2,0.1599999964237213,587.1099853515625,0.31762784719467163
1737286249.4902596,20763,1737286249,488937551,,0.31274423003196716,0.12619762122631073,2,0.15000000596046448,587.1300048828125,0.28615227341651917
1737286249.5885973,20764,1737286249,587979532,,0.32824820280075073,0.13020110130310059,2,0.1599999964237213,587.1599731445312,0.3013213574886322
1737286249.689756,20765,1737286249,689013995,,0.23257748782634735,0.1380535513162613,2,0.17000000178813934,587.1900024414062,0.18717238306999207
1737286249.7899942,20766,1737286249,789157329,,0.2500442564487457,0.13668465614318848,3,0.15000000596046448,587.219970703125,0.2093787044286728
1737286249.8974817,20767,1737286249,896066106,,0.25098955631256104,0.1278456598520279,2,0.15000000596046448,587.25,0.21598900854587555
1737286249.9879565,20768,1737286249,987096106,,0.23284469544887543,0.1253405213356018,2,0.15000000596046448,587.2799682617188,0.19623050093650818
1737286250.0882418,20769,1737286250,86792643,,0.30843618512153625,0.1117333173751831,2,0.15000000596046448,587.3099975585938,0.28748661279678345
1737286250.189768,20770,1737286250,188071717,,0.26715824007987976,0.11132722347974777,2,0.14000000059604645,587.3300170898438,0.24285753071308136
1737286250.2919478,20771,1737286250,287049828,,0.2708425521850586,0.11099069565534592,1,0.14000000059604645,587.3599853515625,0.24705618619918823
1737286250.388829,20772,1737286250,386092143,,0.22230349481105804,0.11320637911558151,1,0.14000000059604645,587.3800048828125,0.1913195103406906
1737286250.5017264,20773,1737286250,488071032,,0.21610961854457855,0.10388616472482681,2,0.15000000596046448,587.3999633789062,0.1895020604133606
1737286250.5877867,20774,1737286250,587061736,,0.11470840871334076,0.10588670521974564,3,0.1599999964237213,587.4099731445312,0.04411375895142555
1737286250.68991,20775,1737286250,689089643,,0.11360148340463638,0.10293221473693848,3,0.1599999964237213,587.4299926757812,0.04806511849164963
1737286250.7888203,20776,1737286250,788141976,,0.13949915766716003,0.09388656169176102,4,0.15000000596046448,587.4400024414062,0.10317619144916534
1737286250.8943932,20777,1737286250,893138402,,0.10419391840696335,0.10382940620183945,4,0.1599999964237213,587.4400024414062,-0.00870794802904129
1737286250.987156,20778,1737286250,986120513,,0.11768641322851181,0.11768610775470734,3,0.1599999964237213,587.4500122070312,-0.0002693645656108856
1737286251.091236,20779,1737286251,90210013,,0.11651148647069931,0.11146128177642822,3,0.15000000596046448,587.4599609375,0.03393096476793289
1737286251.1879487,20780,1737286251,187221050,,0.09827028214931488,0.09106019139289856,3,0.1599999964237213,587.469970703125,0.03694714605808258
1737286251.3005116,20781,1737286251,299193772,,0.1158229187130928,0.10984595865011215,3,0.15000000596046448,587.47998046875,-0.0367262177169323
1737286251.391101,20782,1737286251,390205180,,0.10735296458005905,0.1041274443268776,3,0.15000000596046448,587.489990234375,-0.026117689907550812
1737286251.4901383,20783,1737286251,489239087,,0.1005295142531395,0.09595431387424469,2,0.15000000596046448,587.5,0.02998252958059311
1737286251.589086,20784,1737286251,588230772,,0.10979439318180084,0.10412637144327164,2,0.15000000596046448,587.510009765625,0.03482108563184738
1737286251.7007287,20785,1737286251,686278328,,0.11522191762924194,0.10272593796253204,2,0.15000000596046448,587.5199584960938,-0.05218690261244774
1737286251.78708,20786,1737286251,786271327,,0.10700763016939163,0.0981517806649208,2,0.14000000059604645,587.5199584960938,-0.042624667286872864
1737286251.8972814,20787,1737286251,896275809,,0.09596020728349686,0.09440205991268158,2,0.14000000059604645,587.5299682617188,0.017222419381141663
1737286251.9922125,20788,1737286251,991414457,,0.09189432859420776,0.08891000598669052,2,0.1599999964237213,587.5299682617188,-0.02322879433631897
1737286252.0901713,20789,1737286252,89387642,,0.1618681401014328,0.11266541481018066,2,0.15000000596046448,587.5299682617188,-0.1162230595946312
1737286252.1869447,20790,1737286252,186401475,,0.10503014177083969,0.1032186821103096,3,0.15000000596046448,587.5199584960938,-0.01942252367734909
1737286252.2923431,20791,1737286252,290768457,,0.1569627970457077,0.11580531299114227,3,0.1599999964237213,587.5199584960938,-0.10595493763685226
1737286252.3888521,20792,1737286252,387424605,,0.10993002355098724,0.10910826176404953,3,0.1599999964237213,587.5299682617188,-0.01341632753610611
1737286252.4900274,20793,1737286252,489381364,,0.10669659078121185,0.1028159037232399,3,0.1599999964237213,587.5199584960938,-0.0285140722990036
1737286252.5870008,20794,1737286252,586437938,,0.11129729449748993,0.10788353532552719,2,0.14000000059604645,587.5299682617188,0.02735380455851555
1737286252.6899385,20795,1737286252,689342568,,0.1164616048336029,0.11641516536474228,0,0.14000000059604645,587.5299682617188,0.0032885754480957985
1737286252.7890303,20796,1737286252,788483568,,0.11754896491765976,0.11494235694408417,0,0.15000000596046448,587.5299682617188,-0.024617312476038933
1737286252.89703,20797,1737286252,895454364,,0.14743822813034058,0.12450750917196274,0,0.1599999964237213,587.5299682617188,-0.07896779477596283
1737286252.9869857,20798,1737286252,986421419,,0.15192539989948273,0.1281934380531311,1,0.1599999964237213,587.5199584960938,-0.08153384178876877
1737286253.0901453,20799,1737286253,89521901,,0.1445450782775879,0.11690227687358856,2,0.1599999964237213,587.5199584960938,-0.08501259237527847
1737286253.187351,20800,1737286253,186444808,,0.11588270962238312,0.11178477853536606,2,0.15000000596046448,587.510009765625,-0.030544470995664597
1737286253.2896943,20801,1737286253,288284271,,0.10391370952129364,0.09910071641206741,2,0.15000000596046448,587.5,-0.03125869855284691
1737286253.3869932,20802,1737286253,386557160,,0.09460754692554474,0.08750949800014496,1,0.15000000596046448,587.489990234375,0.035953789949417114
1737286253.4968739,20803,1737286253,496473326,,0.10233192890882492,0.09190892428159714,1,0.15000000596046448,587.47998046875,-0.044995248317718506
1737286253.589131,20804,1737286253,588615512,,0.05947539955377579,0.04725335165858269,1,0.1599999964237213,587.47998046875,-0.036117084324359894
1737286253.6871455,20805,1737286253,686578252,,0.09625130146741867,0.06246587634086609,1,0.1599999964237213,587.47998046875,-0.0732279121875763
1737286253.789098,20806,1737286253,788658271,,0.05503338947892189,0.05502131208777428,2,0.15000000596046448,587.489990234375,-0.00115276500582695
1737286253.8899477,20807,1737286253,889544808,,0.09257777035236359,0.08786723762750626,2,0.15000000596046448,587.5,-0.029154658317565918
1737286253.9874945,20808,1737286253,986558622,,0.11975549906492233,0.11834373325109482,2,0.14000000059604645,587.510009765625,0.01833413541316986
1737286254.09412,20809,1737286254,93670326,,0.1464555412530899,0.14574170112609863,2,0.14000000059604645,587.510009765625,-0.01444228645414114
1737286254.1885056,20810,1737286254,187714419,,0.18878567218780518,0.18693754076957703,2,0.15000000596046448,587.510009765625,-0.02635127678513527
1737286254.2904599,20811,1737286254,289768993,,0.2531881332397461,0.2453957349061966,2,0.15000000596046448,587.510009765625,-0.06233115494251251
1737286254.3860834,20812,1737286254,385571215,,0.30744469165802,0.30707135796546936,2,0.15000000596046448,587.510009765625,-0.0151467714458704
1737286254.49606,20813,1737286254,495658122,,0.36455070972442627,0.361179918050766,3,0.1599999964237213,587.510009765625,-0.0494600385427475
1737286254.5882225,20814,1737286254,587749918,,0.41606706380844116,0.4159938395023346,3,0.1599999964237213,587.489990234375,0.007807013113051653
1737286254.6872656,20815,1737286254,686683511,,0.4620479345321655,0.46180593967437744,3,0.15000000596046448,587.489990234375,0.014953091740608215
1737286254.7861233,20816,1737286254,785742937,,0.4986637532711029,0.49865394830703735,3,0.15000000596046448,587.47998046875,-0.0031239408999681473
1737286254.8901737,20817,1737286254,889669048,,0.5378273129463196,0.5313727259635925,2,0.15000000596046448,587.469970703125,-0.08307376503944397
1737286254.9872692,20818,1737286254,986789918,,0.5855348110198975,0.5845045447349548,2,0.1599999964237213,587.4599609375,0.03471918776631355
1737286255.0961258,20819,1737286255,95706381,,0.6270548701286316,0.6260087490081787,2,0.15000000596046448,587.4599609375,0.036205604672431946
1737286255.1883795,20820,1737286255,187797140,,0.652843713760376,0.6526842713356018,2,0.15000000596046448,587.469970703125,0.014429835602641106
1737286255.2895608,20821,1737286255,288982677,,0.6766260862350464,0.6757474541664124,2,0.15000000596046448,587.47998046875,0.034470729529857635
1737286255.3892794,20822,1737286255,388793177,,0.6814296245574951,0.680026113986969,2,0.15000000596046448,587.489990234375,0.04371403157711029
1737286255.4923317,20823,1737286255,491805659,,0.6805506944656372,0.679071843624115,2,0.14000000059604645,587.5,-0.044841136783361435
1737286255.5874438,20824,1737286255,586818307,,0.6717278957366943,0.6714771389961243,2,0.15000000596046448,587.5,-0.018353743478655815
1737286255.6882312,20825,1737286255,687825029,,0.6581437587738037,0.6569733023643494,2,0.15000000596046448,587.5,-0.039233751595020294
1737286255.788377,20826,1737286255,787890862,,0.6356995105743408,0.6355199813842773,3,0.1599999964237213,587.489990234375,-0.015107162296772003
1737286255.8913577,20827,1737286255,888794751,,0.6273467540740967,0.6273460984230042,3,0.1599999964237213,587.47998046875,-0.0009504780173301697
1737286255.9915636,20828,1737286255,990818806,,0.6080237627029419,0.6059397459030151,3,0.1599999964237213,587.469970703125,-0.05029864236712456
1737286256.0925517,20829,1737286256,90844825,,0.58936607837677,0.5885723233222961,3,0.17000000178813934,587.4599609375,-0.03057696297764778
1737286256.187425,20830,1737286256,186811158,,0.5692481398582458,0.5643652677536011,3,0.17000000178813934,587.4599609375,-0.07439957559108734
1737286256.2909188,20831,1737286256,288049603,,0.5520040988922119,0.5466365814208984,3,0.1599999964237213,587.4500122070312,-0.07679201662540436
1737286256.3889189,20832,1737286256,387914306,,0.537170946598053,0.5356962084770203,3,0.1599999964237213,587.4400024414062,-0.039777230471372604
1737286256.4955287,20833,1737286256,494852491,,0.5225480198860168,0.5224723219871521,3,0.1599999964237213,587.4400024414062,-0.008894141763448715
1737286256.5874832,20834,1737286256,586912102,,0.5261706709861755,0.5257837772369385,3,0.1599999964237213,587.4400024414062,-0.02017294242978096
1737286256.6925335,20835,1737286256,690945825,,0.5403305292129517,0.5401608943939209,2,0.1599999964237213,587.4400024414062,0.0135384202003479
1737286256.7927532,20836,1737286256,792111121,,0.568200945854187,0.5678232312202454,2,0.1599999964237213,587.4500122070312,0.02071346715092659
1737286256.8994567,20837,1737286256,898867065,,0.6175644397735596,0.6171233654022217,3,0.15000000596046448,587.4500122070312,0.02333744615316391
1737286256.9938984,20838,1737286256,992962158,,0.6965569853782654,0.6894766092300415,2,0.15000000596046448,587.4599609375,0.09906377643346786
1737286257.0898273,20839,1737286257,89018602,,0.7549042701721191,0.7547296285629272,2,0.15000000596046448,587.4599609375,-0.016234055161476135
1737286257.1882002,20840,1737286257,187243528,,0.8562608361244202,0.8517301678657532,2,0.15000000596046448,587.469970703125,0.08796751499176025
1737286257.2966225,20841,1737286257,295001695,,0.9342601895332336,0.934145450592041,2,0.1599999964237213,587.469970703125,0.01464410126209259
1737286257.3868573,20842,1737286257,386066324,,1.026039719581604,1.02595853805542,2,0.1599999964237213,587.47998046875,-0.012899935245513916
1737286257.4904304,20843,1737286257,490013991,,1.1388951539993286,1.137282371520996,3,0.15000000596046448,587.489990234375,0.06058704853057861
1737286257.591093,20844,1737286257,590056324,,1.2323001623153687,1.2322661876678467,3,0.15000000596046448,587.5,0.009160441346466541
1737286257.6897063,20845,1737286257,689100213,,1.3193286657333374,1.319327473640442,3,0.1599999964237213,587.5,0.0017270920798182487
1737286257.7867305,20846,1737286257,786083157,,1.3928351402282715,1.391541838645935,3,0.17000000178813934,587.510009765625,-0.0600082166492939
1737286257.8877928,20847,1737286257,887174713,,1.4772377014160156,1.4766498804092407,4,0.1599999964237213,587.510009765625,-0.041673921048641205
1737286257.988366,20848,1737286257,987135916,,1.5415161848068237,1.5403722524642944,4,0.1599999964237213,587.5199584960938,-0.0593731552362442
1737286258.09038,20849,1737286258,89161083,,1.6439166069030762,1.643899917602539,4,0.1599999964237213,587.5199584960938,0.007392600178718567
1737286258.1888058,20850,1737286258,188152787,,1.709097146987915,1.7064567804336548,4,0.1599999964237213,587.5199584960938,-0.0949624702334404
1737286258.2928636,20851,1737286258,292102379,,1.7910856008529663,1.7910338640213013,4,0.1599999964237213,587.5199584960938,-0.013626602478325367
1737286258.3872447,20852,1737286258,386217805,,1.8457964658737183,1.8455110788345337,4,0.1599999964237213,587.5199584960938,-0.032455991953611374
1737286258.4880478,20853,1737286258,487241509,,1.9271111488342285,1.9264960289001465,3,0.1599999964237213,587.5199584960938,-0.04868893325328827
1737286258.5870895,20854,1737286258,586248194,,1.992954969406128,1.9924521446228027,3,0.1599999964237213,587.5199584960938,-0.04476635903120041
1737286258.6860287,20855,1737286258,685296768,,2.0490450859069824,2.046746253967285,3,0.15000000596046448,587.5299682617188,-0.09703376889228821
1737286258.7917051,20856,1737286258,790206027,,2.1357970237731934,2.1356770992279053,3,0.1599999964237213,587.5399780273438,-0.0226270891726017
1737286258.8924236,20857,1737286258,891218657,,2.1849989891052246,2.184455394744873,3,0.15000000596046448,587.5399780273438,-0.04875190928578377
1737286258.986095,20858,1737286258,985298638,,2.2206361293792725,2.220180034637451,3,0.15000000596046448,587.5299682617188,-0.04499289393424988
1737286259.0879793,20859,1737286259,87312731,,2.207418918609619,2.206663131713867,3,0.15000000596046448,587.5399780273438,-0.057758357375860214
1737286259.1907256,20860,1737286259,189273138,,2.194528818130493,2.194488286972046,3,0.1599999964237213,587.5399780273438,0.01332514826208353
1737286259.2888517,20861,1737286259,288306471,,2.135885715484619,2.134622573852539,3,0.15000000596046448,587.5499877929688,-0.07343780249357224
1737286259.3884041,20862,1737286259,387608841,,2.068396806716919,2.0683510303497314,3,0.14000000059604645,587.5700073242188,-0.013780146837234497
1737286259.4901958,20863,1737286259,489432360,,1.969098687171936,1.9687097072601318,2,0.15000000596046448,587.5899658203125,-0.039135634899139404
1737286259.5865204,20864,1737286259,585366638,,1.8934437036514282,1.88827645778656,3,0.1599999964237213,587.5999755859375,-0.13979092240333557
1737286259.6967676,20865,1737286259,695568767,,1.7444618940353394,1.7372931241989136,3,0.1599999964237213,587.6099853515625,-0.15798653662204742
1737286259.7873878,20866,1737286259,786481008,,1.601196527481079,1.6001754999160767,3,0.15000000596046448,587.6099853515625,-0.05717409402132034
1737286259.886359,20867,1737286259,885490656,,1.4450198411941528,1.4390959739685059,3,0.1599999964237213,587.6099853515625,-0.1307094693183899
1737286259.989411,20868,1737286259,988428545,,1.275478720664978,1.273006558418274,2,0.1599999964237213,587.6199951171875,-0.0793725922703743
1737286260.0933707,20869,1737286260,92507804,,1.1760526895523071,1.1688495874404907,2,0.1599999964237213,587.6099853515625,-0.12996499240398407
1737286260.1879325,20870,1737286260,187442359,,1.0884581804275513,1.070862054824829,2,0.1599999964237213,587.6099853515625,-0.1949254274368286
1737286260.2859187,20871,1737286260,285419100,,1.0398372411727905,1.0257023572921753,3,0.1599999964237213,587.5999755859375,-0.17086923122406006
1737286260.3881042,20872,1737286260,387477637,,1.014892578125,0.9988229870796204,3,0.1599999964237213,587.5800170898438,-0.17988736927509308
1737286260.4904528,20873,1737286260,489447248,,0.9780411720275879,0.9743355512619019,4,0.1599999964237213,587.5700073242188,-0.0850573182106018
1737286260.5872605,20874,1737286260,586471581,,0.9664543867111206,0.9597735404968262,4,0.1599999964237213,587.5599975585938,-0.11344091594219208
1737286260.689277,20875,1737286260,688546915,,0.942318320274353,0.9301287531852722,4,0.1599999964237213,587.5399780273438,-0.15107712149620056
1737286260.7892072,20876,1737286260,788495933,,0.8973304629325867,0.8966366648674011,4,0.1599999964237213,587.5199584960938,-0.03527962416410446
1737286260.8926516,20877,1737286260,891490674,,0.8540275692939758,0.852497935295105,3,0.1599999964237213,587.510009765625,-0.051092274487018585
1737286260.987387,20878,1737286260,986699155,,0.8320656418800354,0.8243449330329895,3,0.1599999964237213,587.5,-0.11308744549751282
1737286261.0893085,20879,1737286261,88612600,,0.7926480770111084,0.7922793626785278,2,0.1599999964237213,587.47998046875,-0.024174895137548447
1737286261.1882186,20880,1737286261,187689248,,0.7671141028404236,0.7647961974143982,3,0.17000000178813934,587.469970703125,-0.05958988890051842
1737286261.2960362,20881,1737286261,295244748,,0.7403046488761902,0.7401953339576721,3,0.1599999964237213,587.4500122070312,-0.012722909450531006
1737286261.3860474,20882,1737286261,385647877,,0.7117201089859009,0.7096219658851624,3,0.1599999964237213,587.4400024414062,-0.054608650505542755
1737286261.490101,20883,1737286261,489666599,,0.702195942401886,0.7010754942893982,3,0.17000000178813934,587.4299926757812,0.03965144604444504
1737286261.5891943,20884,1737286261,588581951,,0.6747556924819946,0.6744011044502258,4,0.17000000178813934,587.4099731445312,0.02186950296163559
1737286261.6862519,20885,1737286261,685737729,,0.642547070980072,0.6398301720619202,4,0.17000000178813934,587.3900146484375,0.05902639403939247
1737286261.7882621,20886,1737286261,787749581,,0.6299496293067932,0.6225335597991943,4,0.1599999964237213,587.3800048828125,0.09637700021266937
1737286261.8954155,20887,1737286261,894644284,,0.5957051515579224,0.5944994688034058,3,0.1599999964237213,587.3800048828125,0.03788076341152191
1737286261.9872313,20888,1737286261,986714377,,0.5642181634902954,0.5638287663459778,3,0.17000000178813934,587.3699951171875,0.02096070908010006
1737286262.0981555,20889,1737286262,97652358,,0.530391275882721,0.5231645107269287,3,0.1599999964237213,587.3699951171875,0.08725686371326447
1737286262.1897066,20890,1737286262,188811229,,0.49627432227134705,0.49160218238830566,3,0.17000000178813934,587.3699951171875,0.06793747842311859
1737286262.2883573,20891,1737286262,287727877,,0.45023491978645325,0.4478979706764221,3,0.17000000178813934,587.3599853515625,0.04581348970532417
1737286262.3863027,20892,1737286262,385726506,,0.42190930247306824,0.409122109413147,1,0.17000000178813934,587.3599853515625,0.10308525711297989
1737286262.4885297,20893,1737286262,487779914,,0.40498173236846924,0.3793821930885315,357,0.17000000178813934,587.3499755859375,0.14170163869857788
1737286262.5871935,20894,1737286262,586733765,,0.28368163108825684,0.2794179320335388,349,0.18000000715255737,587.3399658203125,0.04899882897734642
1737286262.6951933,20895,1737286262,694664321,,0.27333030104637146,0.2632632851600647,337,0.18000000715255737,587.3399658203125,0.07349753379821777
1737286262.786453,20896,1737286262,785797617,,0.3225354254245758,0.3189278841018677,324,0.1899999976158142,587.3300170898438,0.048105087131261826
1737286262.8922334,20897,1737286262,891736321,,0.29404762387275696,0.27774301171302795,307,0.18000000715255737,587.3300170898438,0.09655489027500153
1737286262.9895928,20898,1737286262,988830636,,0.34992197155952454,0.3271024227142334,292,0.1599999964237213,587.3300170898438,0.12429547309875488
1737286263.0864084,20899,1737286263,85875487,,0.37291833758354187,0.32771751284599304,279,0.15000000596046448,587.3399658203125,0.17795869708061218
1737286263.1867368,20900,1737286263,185960784,,0.3679053485393524,0.32522517442703247,271,0.15000000596046448,587.3399658203125,0.1719968020915985
1737286263.290365,20901,1737286263,289800413,,0.3804685175418854,0.32500529289245605,266,0.14000000059604645,587.3499755859375,0.1978074610233307
1737286263.388362,20902,1737286263,386868469,,0.33575984835624695,0.27814722061157227,266,0.15000000596046448,587.3499755859375,0.18806588649749756
1737286263.4877422,20903,1737286263,485912191,,0.31179311871528625,0.26571232080459595,269,0.1899999976158142,587.3499755859375,0.16313153505325317
1737286263.5894647,20904,1737286263,587979432,,0.3286687433719635,0.2774166762828827,271,0.20000000298023224,587.3399658203125,0.17624732851982117
1737286263.68825,20905,1737286263,686951450,,0.36710649728775024,0.2782379388809204,270,0.1899999976158142,587.3499755859375,0.23948034644126892
1737286263.7880206,20906,1737286263,786994487,,0.44912096858024597,0.28114625811576843,266,0.1899999976158142,587.3599853515625,0.3502376079559326
1737286263.8945959,20907,1737286263,893937691,,0.49185749888420105,0.29851627349853516,259,0.20000000298023224,587.3800048828125,0.3909114897251129
1737286263.9888775,20908,1737286263,987984302,,0.5224931836128235,0.3113894760608673,254,0.17000000178813934,587.4099731445312,0.4195661246776581
1737286264.0929248,20909,1737286264,92051209,,0.561838686466217,0.29267603158950806,250,0.1599999964237213,587.4599609375,0.47958672046661377
1737286264.1895733,20910,1737286264,188944394,,0.6113313436508179,0.28541454672813416,250,0.17000000178813934,587.510009765625,0.5406149625778198
1737286264.2875364,20911,1737286264,286078357,,0.6223897337913513,0.28156664967536926,251,0.17000000178813934,587.5499877929688,0.5550578236579895
1737286264.3877203,20912,1737286264,387020913,,0.6063885688781738,0.2602226138114929,254,0.18000000715255737,587.5899658203125,0.5477145314216614
1737286264.4876573,20913,1737286264,486001746,,0.558173656463623,0.23312796652317047,256,0.17000000178813934,587.6300048828125,0.5071579813957214
1737286264.5881584,20914,1737286264,586032320,,0.5430336594581604,0.19215421378612518,258,0.17000000178813934,587.6699829101562,0.5078999400138855
1737286264.6886268,20915,1737286264,688037394,,0.597546398639679,0.17044010758399963,258,0.17000000178813934,587.7099609375,0.5727231502532959
1737286264.7912383,20916,1737286264,789136653,,0.526737630367279,0.14149615168571472,258,0.18000000715255737,587.760009765625,0.5073769688606262
1737286264.8941867,20917,1737286264,893150283,,0.66631019115448,0.2567681074142456,257,0.17000000178813934,587.8099975585938,0.6148491501808167
1737286264.985768,20918,1737286264,985291634,,0.6657531261444092,0.3364615738391876,256,0.1599999964237213,587.8599853515625,0.5744743943214417
1737286265.093406,20919,1737286265,92099523,,0.68928462266922,0.40874096751213074,255,0.1599999964237213,587.9199829101562,0.5550172328948975
1737286265.1874137,20920,1737286265,186117338,,0.7355660200119019,0.5084552764892578,255,0.17000000178813934,587.969970703125,0.5315361022949219
1737286265.2974987,20921,1737286265,292546819,,0.8096095323562622,0.5882192850112915,256,0.17000000178813934,588.010009765625,0.5562964081764221
1737286265.3872695,20922,1737286265,386362338,,0.81519615650177,0.5955156087875366,256,0.17000000178813934,588.0499877929688,0.5566918849945068
1737286265.4861746,20923,1737286265,485156542,,0.8503352999687195,0.6680732369422913,256,0.17000000178813934,588.0899658203125,0.5260686278343201
1737286265.5894625,20924,1737286265,588277190,,0.9473187327384949,0.7650786638259888,256,0.17000000178813934,588.1400146484375,0.5586298704147339
1737286265.6932735,20925,1737286265,692191004,,0.9977992177009583,0.8497211337089539,255,0.17000000178813934,588.1799926757812,0.5230461359024048
1737286265.7880244,20926,1737286265,787213875,,1.0662672519683838,0.9439253807067871,255,0.17000000178813934,588.219970703125,0.4959140419960022
1737286265.8918724,20927,1737286265,890215726,,1.198544979095459,1.0942274332046509,256,0.18000000715255737,588.2699584960938,0.48905646800994873
1737286265.9876025,20928,1737286265,985263319,,1.3384991884231567,1.2213466167449951,256,0.18000000715255737,588.2999877929688,0.5476240515708923
1737286266.088287,20929,1737286266,87269560,,1.4773858785629272,1.3641010522842407,256,0.18000000715255737,588.3499755859375,0.5673596262931824
1737286266.1875527,20930,1737286266,186299208,,1.4717892408370972,1.3915261030197144,257,0.17000000178813934,588.3900146484375,0.47939443588256836
1737286266.289507,20931,1737286266,288364726,,1.5678659677505493,1.476257085800171,257,0.17000000178813934,588.4400024414062,0.5280793309211731
1737286266.3879633,20932,1737286266,387276726,,1.6180263757705688,1.5009063482284546,257,0.17000000178813934,588.47998046875,0.6043919324874878
1737286266.489953,20933,1737286266,489418504,,1.5928610563278198,1.4975922107696533,257,0.17000000178813934,588.5299682617188,0.5426076054573059
1737286266.587175,20934,1737286266,586426245,,1.6150472164154053,1.493032693862915,257,0.17000000178813934,588.5899658203125,0.6158164739608765
1737286266.6972303,20935,1737286266,695447726,,1.544001817703247,1.4620295763015747,257,0.17000000178813934,588.6499633789062,0.4963981807231903
1737286266.790168,20936,1737286266,789332707,,1.5520683526992798,1.4634531736373901,257,0.1599999964237213,588.7099609375,0.5169352889060974
1737286266.889401,20937,1737286266,888505893,,1.56073796749115,1.4638534784317017,256,0.1599999964237213,588.7799682617188,0.5413267016410828
1737286266.9880798,20938,1737286266,987356189,,1.5350850820541382,1.4374263286590576,256,0.1599999964237213,588.8499755859375,0.5387865304946899
1737286267.0950217,20939,1737286267,94362911,,1.4765963554382324,1.4059065580368042,256,0.1599999964237213,588.9299926757812,0.4514009356498718
1737286267.1871629,20940,1737286267,186394003,,1.4688494205474854,1.4053516387939453,256,0.1599999964237213,588.97998046875,0.4272061586380005
1737286267.296089,20941,1737286267,295371985,,1.4564403295516968,1.392878770828247,257,0.17000000178813934,589.0399780273438,0.425567090511322
1737286267.393117,20942,1737286267,392391040,,1.4224551916122437,1.3557108640670776,257,0.17000000178813934,589.0899658203125,0.4306112825870514
1737286267.4952214,20943,1737286267,494531114,,1.4119725227355957,1.3433854579925537,257,0.17000000178813934,589.1300048828125,0.4347207844257355
1737286267.594447,20944,1737286267,593488466,,1.4006016254425049,1.3184679746627808,257,0.1599999964237213,589.1699829101562,0.4725751578807831
1737286267.6940827,20945,1737286267,692576225,,1.3695266246795654,1.2879087924957275,257,0.17000000178813934,589.2099609375,0.46571868658065796
1737286267.7897956,20946,1737286267,788458688,,1.291178822517395,1.224997878074646,256,0.17000000178813934,589.2699584960938,0.4080726206302643
1737286267.8891401,20947,1737286267,888592985,,1.2220993041992188,1.172348976135254,256,0.17000000178813934,589.3200073242188,0.34514328837394714
1737286267.9880533,20948,1737286267,987586614,,1.1723788976669312,1.125461220741272,256,0.1599999964237213,589.3699951171875,0.32834261655807495
1737286268.087177,20949,1737286268,86597503,,1.140647053718567,1.0849264860153198,256,0.1599999964237213,589.4199829101562,0.35215067863464355
1737286268.1871238,20950,1737286268,186526725,,1.0871024131774902,1.02969491481781,256,0.1599999964237213,589.469970703125,0.34859713912010193
1737286268.2891397,20951,1737286268,288539540,,1.0369497537612915,0.9825884103775024,256,0.17000000178813934,589.5199584960938,0.3313373625278473
1737286268.3880386,20952,1737286268,387519725,,0.9904337525367737,0.9354423880577087,257,0.1599999964237213,589.5599975585938,0.3254328668117523
1737286268.4863033,20953,1737286268,485697410,,0.9523932933807373,0.8995081782341003,256,0.1599999964237213,589.5999755859375,0.31295061111450195
1737286268.586652,20954,1737286268,585958817,,0.9146742224693298,0.8667507171630859,257,0.17000000178813934,589.6499633789062,0.29218488931655884
1737286268.689259,20955,1737286268,688587836,,0.9135136008262634,0.849027156829834,257,0.1599999964237213,589.7000122070312,0.3371349573135376
1737286268.7874541,20956,1737286268,786621225,,0.8763716220855713,0.8097993731498718,256,0.1599999964237213,589.739990234375,0.33504047989845276
1737286268.8867977,20957,1737286268,885661391,,0.8443282842636108,0.7859106063842773,256,0.17000000178813934,589.7799682617188,0.3086012005805969
1737286268.9864364,20958,1737286268,985735336,,0.8508294224739075,0.7686277031898499,257,0.18000000715255737,589.8099975585938,0.3648589551448822
1737286269.092493,20959,1737286269,91690484,,0.8269632458686829,0.732890784740448,257,0.17000000178813934,589.8399658203125,0.38306552171707153
1737286269.1865642,20960,1737286269,185697299,,0.7995757460594177,0.7121765613555908,257,0.17000000178813934,589.8699951171875,0.363491028547287
1737286269.2907124,20961,1737286269,289708687,,0.765548050403595,0.6789185404777527,259,0.17000000178813934,589.8999633789062,0.353741854429245
1737286269.3875792,20962,1737286269,386756947,,0.7327664494514465,0.6338502764701843,261,0.17000000178813934,589.9400024414062,0.3676687479019165
1737286269.4864147,20963,1737286269,485816021,,0.7173701524734497,0.5607966780662537,264,0.17000000178813934,589.97998046875,0.4473555088043213
1737286269.5877013,20964,1737286269,586780835,,0.6294430494308472,0.5128118395805359,267,0.17000000178813934,590.0299682617188,0.3649967312812805
1737286269.6867678,20965,1737286269,686004687,,0.6587232351303101,0.4512907862663269,271,0.1599999964237213,590.0800170898438,0.4798468053340912
1737286269.7918153,20966,1737286269,790771909,,0.5839278101921082,0.4202287495136261,278,0.1599999964237213,590.1300048828125,0.4054373800754547
1737286269.8955374,20967,1737286269,894824465,,0.5830488204956055,0.387489914894104,286,0.1599999964237213,590.1900024414062,0.4356575608253479
1737286269.9874432,20968,1737286269,986782743,,0.5709050893783569,0.35816508531570435,297,0.1599999964237213,590.239990234375,0.4445789158344269
1737286270.0939217,20969,1737286270,92469613,,0.47636860609054565,0.3116518259048462,310,0.18000000715255737,590.2899780273438,0.36027792096138
1737286270.187835,20970,1737286270,186869909,,0.5295485854148865,0.3073980510234833,321,0.18000000715255737,590.3399658203125,0.43119385838508606
1737286270.285917,20971,1737286270,284752890,,0.5117018222808838,0.3275052309036255,328,0.18000000715255737,590.3800048828125,0.3931654691696167
1737286270.3855317,20972,1737286270,384907927,,0.45536401867866516,0.31916823983192444,332,0.18000000715255737,590.4299926757812,0.3247891664505005
1737286270.489348,20973,1737286270,488816446,,0.4890233874320984,0.3096717298030853,333,0.18000000715255737,590.469970703125,0.3784802556037903
1737286270.5877962,20974,1737286270,587015261,,0.4789943993091583,0.29627540707588196,332,0.1899999976158142,590.489990234375,0.3763728439807892
1737286270.6870184,20975,1737286270,685947520,,0.4469003677368164,0.2591795325279236,329,0.18000000715255737,590.5199584960938,0.36406856775283813
1737286270.7875903,20976,1737286270,786908761,,0.40451109409332275,0.1689443588256836,325,0.17000000178813934,590.5599975585938,0.3675419092178345
1737286270.8867335,20977,1737286270,885998909,,0.3729011118412018,0.07232078164815903,322,0.17000000178813934,590.5899658203125,0.36582088470458984
1737286270.985519,20978,1737286270,984930223,,0.4350157082080841,0.06782533973455429,320,0.17000000178813934,590.6199951171875,0.4296956956386566
1737286271.092527,20979,1737286271,92044890,,0.46361276507377625,0.1962878406047821,319,0.17000000178813934,590.6599731445312,0.42000940442085266
1737286271.1874826,20980,1737286271,186970260,,0.5156756043434143,0.29844242334365845,320,0.18000000715255737,590.7000122070312,0.420539528131485
1737286271.2939646,20981,1737286271,293085094,,0.5864077806472778,0.39275333285331726,320,0.18000000715255737,590.739990234375,0.43545258045196533
1737286271.3893998,20982,1737286271,388052964,,0.6457609534263611,0.4490460157394409,321,0.17000000178813934,590.7899780273438,0.46407413482666016
1737286271.4865534,20983,1737286271,486006316,,0.6978821754455566,0.4926528334617615,321,0.1599999964237213,590.8399658203125,0.4943002164363861
1737286271.5897624,20984,1737286271,589004519,,0.6812891960144043,0.506287157535553,322,0.17000000178813934,590.8900146484375,0.455881804227829
1737286271.6858194,20985,1737286271,685147056,,0.6809614896774292,0.5126329660415649,322,0.17000000178813934,590.9400024414062,0.44823652505874634
1737286271.7877285,20986,1737286271,787075297,,0.6709081530570984,0.532913863658905,322,0.17000000178813934,590.989990234375,0.4075789153575897
1737286271.8924289,20987,1737286271,892026130,,0.708028256893158,0.5510085225105286,322,0.17000000178813934,591.0399780273438,0.4446275234222412
1737286271.9865477,20988,1737286271,986062964,,0.7364948987960815,0.5962935090065002,322,0.17000000178813934,591.0899658203125,0.43227165937423706
1737286272.0906425,20989,1737286272,90079945,,0.7702348232269287,0.6644812822341919,322,0.17000000178813934,591.1499633789062,0.38952064514160156
1737286272.1869898,20990,1737286272,186200612,,0.8696492314338684,0.719086766242981,322,0.1599999964237213,591.2000122070312,0.48908481001853943
1737286272.2858858,20991,1737286272,285253704,,0.9330154061317444,0.796908974647522,321,0.1599999964237213,591.239990234375,0.48523589968681335
1737286272.3877242,20992,1737286272,387181241,,0.9866484999656677,0.8695221543312073,321,0.1599999964237213,591.2899780273438,0.4662685990333557
1737286272.488961,20993,1737286272,488137185,,0.9954674243927002,0.9012795686721802,321,0.17000000178813934,591.3300170898438,0.4226706027984619
1737286272.5899665,20994,1737286272,589112426,,1.0065956115722656,0.9356164932250977,322,0.17000000178813934,591.3699951171875,0.3712903559207916
1737286272.6910102,20995,1737286272,690159148,,1.0222359895706177,0.9418233633041382,322,0.17000000178813934,591.4199829101562,0.3974105417728424
1737286272.7918684,20996,1737286272,791244000,,1.0046074390411377,0.9302799701690674,322,0.17000000178813934,591.4599609375,0.37922990322113037
1737286272.8959024,20997,1737286272,895212111,,0.9994112253189087,0.9284508228302002,322,0.1599999964237213,591.5,0.3698674738407135
1737286272.9900773,20998,1737286272,989228111,,0.9889749884605408,0.9140890836715698,322,0.17000000178813934,591.5299682617188,0.3775085508823395
1737286273.0878847,20999,1737286273,87272185,,0.9564546346664429,0.8944799900054932,322,0.1599999964237213,591.5800170898438,0.3386901021003723
1737286273.1897194,21000,1737286273,189217259,,0.9586859941482544,0.8844600319862366,321,0.14000000059604645,591.6099853515625,0.3698773682117462
1737286273.2863462,21001,1737286273,285384592,,0.9274885058403015,0.8827807903289795,322,0.15000000596046448,591.6499633789062,0.2844872772693634
1737286273.3968174,21002,1737286273,396240240,,0.9175065755844116,0.8904092311859131,321,0.15000000596046448,591.6699829101562,0.2213362455368042
1737286273.487086,21003,1737286273,486346074,,0.8819551467895508,0.8671220541000366,321,0.1599999964237213,591.6799926757812,0.16107188165187836
1737286273.5871859,21004,1737286273,586291740,,0.8373929858207703,0.8318828344345093,321,0.1599999964237213,591.6900024414062,0.09590549021959305
1737286273.6910381,21005,1737286273,690295277,,0.8015197515487671,0.7928030490875244,321,0.1599999964237213,591.7000122070312,0.11788676679134369
1737286273.7883613,21006,1737286273,787325129,,0.7448902726173401,0.7422003746032715,321,0.15000000596046448,591.7000122070312,0.063245490193367
1737286273.8868058,21007,1737286273,886265592,,0.691601574420929,0.691503643989563,321,0.1599999964237213,591.7099609375,0.011641252785921097
1737286273.9874046,21008,1737286273,986364203,,0.6200332641601562,0.6189731359481812,322,0.17000000178813934,591.7099609375,0.03624340891838074
1737286274.0862691,21009,1737286274,85390981,,0.5853835344314575,0.5839719176292419,322,0.1599999964237213,591.7000122070312,0.04062884300947189
1737286274.185892,21010,1737286274,185418629,,0.5497840642929077,0.5495364665985107,322,0.1599999964237213,591.7000122070312,-0.016498267650604248
1737286274.2871985,21011,1737286274,286485907,,0.5162314176559448,0.5158324837684631,321,0.1599999964237213,591.7000122070312,0.02029184252023697
1737286274.3869176,21012,1737286274,386392536,,0.4863967001438141,0.48636192083358765,321,0.1599999964237213,591.7099609375,0.005819953512400389
1737286274.4929962,21013,1737286274,492393055,,0.4797860085964203,0.47833067178726196,321,0.15000000596046448,591.719970703125,0.037341948598623276
1737286274.5873835,21014,1737286274,586475314,,0.44250667095184326,0.4407610297203064,321,0.15000000596046448,591.72998046875,-0.0392666757106781
1737286274.6867838,21015,1737286274,685461055,,0.4267919659614563,0.4249556064605713,321,0.15000000596046448,591.72998046875,-0.039549097418785095
1737286274.785574,21016,1737286274,784467647,,0.41898995637893677,0.3897193372249603,322,0.1599999964237213,591.72998046875,-0.1538550853729248
1737286274.889352,21017,1737286274,888477851,,0.39925456047058105,0.3713567554950714,322,0.1599999964237213,591.719970703125,-0.1466231495141983
1737286274.9861486,21018,1737286274,985494647,,0.39401888847351074,0.34044793248176575,323,0.1599999964237213,591.719970703125,-0.19835850596427917
1737286275.08759,21019,1737286275,86493443,,0.3569561243057251,0.3203238844871521,323,0.1599999964237213,591.7000122070312,-0.15751279890537262
1737286275.1874208,21020,1737286275,186601795,,0.39642295241355896,0.2970508635044098,323,0.15000000596046448,591.6900024414062,-0.2625108063220978
1737286275.2925036,21021,1737286275,291620462,,0.4042342007160187,0.2859046161174774,323,0.15000000596046448,591.6599731445312,-0.28576886653900146
1737286275.3887143,21022,1737286275,387627332,,0.4519142508506775,0.27465495467185974,323,0.15000000596046448,591.6400146484375,-0.3588748276233673
1737286275.493609,21023,1737286275,491980239,,0.4587433636188507,0.2720450460910797,323,0.14000000059604645,591.5999755859375,-0.36937376856803894
1737286275.5863738,21024,1737286275,585557647,,0.49701181054115295,0.2649226486682892,322,0.14000000059604645,591.5700073242188,-0.4205195903778076
1737286275.690366,21025,1737286275,689565647,,0.5795190334320068,0.2515358328819275,322,0.14000000059604645,591.5199584960938,-0.5220843553543091
1737286275.7855237,21026,1737286275,784603424,,0.6241607666015625,0.2368982881307602,322,0.14000000059604645,591.469970703125,-0.5774563550949097
1737286275.8943772,21027,1737286275,893594646,,0.5993648171424866,0.23641282320022583,322,0.14000000059604645,591.4099731445312,-0.550769567489624
1737286275.9869971,21028,1737286275,985718739,,0.707945704460144,0.22487680613994598,322,0.15000000596046448,591.3599853515625,-0.6712805032730103
1737286276.087233,21029,1737286276,86612646,,0.7234402298927307,0.22539855539798737,322,0.14000000059604645,591.2899780273438,-0.6874309182167053
1737286276.1874385,21030,1737286276,186680591,,0.7335309982299805,0.22298173606395721,322,0.15000000596046448,591.22998046875,-0.6988182067871094
1737286276.2934017,21031,1737286276,292771572,,0.7317629456520081,0.21269556879997253,322,0.15000000596046448,591.1499633789062,-0.7001696825027466
1737286276.3874674,21032,1737286276,386670609,,0.7601974606513977,0.2123909890651703,322,0.1599999964237213,591.0800170898438,-0.7299248576164246
1737286276.4894292,21033,1737286276,488793461,,0.7785485982894897,0.20909057557582855,322,0.1599999964237213,591.0,-0.7499459981918335
1737286276.5886831,21034,1737286276,587670720,,0.8802137970924377,0.19464734196662903,323,0.1599999964237213,590.9199829101562,-0.8584222793579102
1737286276.6955526,21035,1737286276,694746461,,0.8257869482040405,0.16994749009609222,323,0.1599999964237213,590.8300170898438,-0.8081101179122925
1737286276.7875185,21036,1737286276,786762294,,0.823949933052063,0.16537851095199585,323,0.17000000178813934,590.760009765625,-0.8071824312210083
1737286276.8865821,21037,1737286276,885788812,,0.83198082447052,0.17335546016693115,323,0.17000000178813934,590.6799926757812,-0.8137198686599731
1737286276.98602,21038,1737286276,985071498,,0.8739742040634155,0.15631712973117828,323,0.1599999964237213,590.6099853515625,-0.8598813414573669
1737286277.0876608,21039,1737286277,86839312,,0.8194414377212524,0.15093232691287994,323,0.1599999964237213,590.5399780273438,-0.8054214119911194
1737286277.1860924,21040,1737286277,184865331,,0.8537595272064209,0.13750779628753662,323,0.17000000178813934,590.4599609375,-0.842613160610199
1737286277.2876892,21041,1737286277,286900238,,0.8049949407577515,0.1257033795118332,323,0.17000000178813934,590.3800048828125,-0.7951197624206543
1737286277.3868036,21042,1737286277,385841979,,0.806618332862854,0.11953411996364594,323,0.1599999964237213,590.3099975585938,-0.7977121472358704
1737286277.490643,21043,1737286277,489942794,,0.8117020726203918,0.11657650023698807,323,0.17000000178813934,590.22998046875,-0.8032870888710022
1737286277.5864675,21044,1737286277,585922664,,0.8808836936950684,0.12393755465745926,323,0.17000000178813934,590.1499633789062,-0.8721213340759277
1737286277.686569,21045,1737286277,685961701,,0.9082503318786621,0.12371551990509033,323,0.17000000178813934,590.0700073242188,-0.8997851014137268
1737286277.7886019,21046,1737286277,787937645,,0.8451728224754333,0.12045499682426453,323,0.1599999964237213,589.97998046875,-0.8365450501441956
1737286277.892875,21047,1737286277,891851830,,0.8444380164146423,0.11129236966371536,322,0.1599999964237213,589.8999633789062,-0.8370720148086548
1737286277.9873338,21048,1737286277,985900701,,0.8493087887763977,0.12328533828258514,322,0.1599999964237213,589.8300170898438,-0.8403131365776062
1737286278.087677,21049,1737286278,86916904,,0.8614088892936707,0.10920625180006027,322,0.17000000178813934,589.75,-0.8544584512710571
1737286278.1907625,21050,1737286278,189980182,,0.8634445071220398,0.10626354068517685,322,0.1599999964237213,589.6699829101562,-0.8568806648254395
1737286278.2950559,21051,1737286278,293976497,,0.8520568609237671,0.12316616624593735,322,0.1599999964237213,589.5899658203125,-0.8431079387664795
1737286278.3936436,21052,1737286278,393014126,,0.8610829710960388,0.10876719653606415,322,0.1599999964237213,589.5199584960938,-0.854185938835144
1737286278.492637,21053,1737286278,492070219,,0.863533079624176,0.12511761486530304,322,0.17000000178813934,589.4400024414062,-0.8544208407402039
1737286278.5897315,21054,1737286278,589075034,,0.906378448009491,0.12017539143562317,322,0.17000000178813934,589.3599853515625,-0.8983761668205261
1737286278.685852,21055,1737286278,685097904,,0.8945563435554504,0.12122664600610733,323,0.17000000178813934,589.2899780273438,-0.8863042593002319
1737286278.7867355,21056,1737286278,786005071,,0.903033971786499,0.12099581956863403,323,0.17000000178813934,589.2000122070312,-0.8948912024497986
1737286278.8938208,21057,1737286278,893025571,,0.9280104041099548,0.11979339271783829,323,0.17000000178813934,589.1099853515625,-0.9202461242675781
1737286278.9860682,21058,1737286278,985075848,,0.907284677028656,0.1191808357834816,323,0.1599999964237213,589.0399780273438,-0.899422824382782
1737286279.0870278,21059,1737286279,86161552,,0.8888438940048218,0.13181892037391663,322,0.1599999964237213,588.9599609375,-0.8790149688720703
1737286279.1870453,21060,1737286279,186084996,,0.8441738486289978,0.10786822438240051,322,0.18000000715255737,588.8900146484375,-0.8372538089752197
1737286279.286065,21061,1737286279,285129089,,0.7402268648147583,0.08886542916297913,322,0.1899999976158142,588.8200073242188,-0.7348732948303223
1737286279.388155,21062,1737286279,387057867,,0.6999137997627258,0.0993511751294136,322,0.20000000298023224,588.75,-0.6928265690803528
1737286279.4872277,21063,1737286279,486223052,,0.6249226331710815,0.09011494368314743,322,0.20000000298023224,588.6900024414062,-0.6183911561965942
1737286279.5878174,21064,1737286279,587148626,,0.438154011964798,0.08635971695184708,322,0.1899999976158142,588.6499633789062,-0.42955899238586426
1737286279.6923292,21065,1737286279,691241329,,0.37625300884246826,0.10264793038368225,322,0.18000000715255737,588.6099853515625,-0.36198028922080994
1737286279.799536,21066,1737286279,787158107,,0.31333866715431213,0.10066904127597809,322,0.18000000715255737,588.5899658203125,-0.29672694206237793
1737286279.8938754,21067,1737286279,893071996,,0.2348344773054123,0.09619253873825073,322,0.17000000178813934,588.5800170898438,-0.21422937512397766
1737286279.9870663,21068,1737286279,986197162,,0.18460199236869812,0.10355208814144135,322,0.17000000178813934,588.5800170898438,-0.15282297134399414
1737286280.0902152,21069,1737286280,89236885,,0.19837141036987305,0.1129627451300621,321,0.1599999964237213,588.5700073242188,-0.1630663275718689
1737286280.1871362,21070,1737286280,186264403,,0.16195081174373627,0.10582907497882843,322,0.1599999964237213,588.5700073242188,-0.12258985638618469
1737286280.2879922,21071,1737286280,287183181,,0.17829523980617523,0.15362320840358734,323,0.18000000715255737,588.5499877929688,-0.09049363434314728
1737286280.3873303,21072,1737286280,386234459,,0.25504425168037415,0.21230529248714447,324,0.18000000715255737,588.5399780273438,-0.14132952690124512
1737286280.4860976,21073,1737286280,485303644,,0.3795261085033417,0.33337661623954773,324,0.18000000715255737,588.5299682617188,-0.18138378858566284
1737286280.5879261,21074,1737286280,587243033,,0.5358912348747253,0.5281074643135071,324,0.18000000715255737,588.5199584960938,-0.09100516885519028
1737286280.6920125,21075,1737286280,691357403,,0.7718402147293091,0.7673712968826294,324,0.18000000715255737,588.510009765625,-0.08293800801038742
1737286280.7888525,21076,1737286280,786567421,,0.9785646796226501,0.9732741713523865,323,0.17000000178813934,588.5,-0.10161726176738739
1737286280.8965576,21077,1737286280,895666606,,1.216335654258728,1.2156003713607788,323,0.18000000715255737,588.5,-0.042282722890377045
1737286280.9851408,21078,1737286280,984332421,,1.290270209312439,1.2897562980651855,323,0.17000000178813934,588.489990234375,-0.036405932158231735
1737286281.0890596,21079,1737286281,88418180,,1.3887271881103516,1.3872957229614258,322,0.17000000178813934,588.489990234375,-0.06303738802671432
1737286281.1861503,21080,1737286281,185438199,,1.4143924713134766,1.4136335849761963,323,0.17000000178813934,588.47998046875,-0.0463249608874321
1737286281.287385,21081,1737286281,286373662,,1.3767592906951904,1.376092791557312,323,0.17000000178813934,588.469970703125,-0.0428384505212307
1737286281.3873022,21082,1737286281,386399402,,1.336965560913086,1.334017038345337,324,0.17000000178813934,588.4500122070312,-0.08874257653951645
1737286281.4864466,21083,1737286281,485488013,,1.314191460609436,1.3141086101531982,324,0.17000000178813934,588.4400024414062,-0.014750341884791851
1737286281.5870943,21084,1737286281,586465976,,1.2572072744369507,1.2565898895263672,324,0.17000000178813934,588.4500122070312,-0.03939021751284599
