Time,header.seq,header.stamp.secs,header.stamp.nsecs,header.frame_id,magnetic_field.x,magnetic_field.y,magnetic_field.z,magnetic_field_covariance_0,magnetic_field_covariance_1,magnetic_field_covariance_2,magnetic_field_covariance_3,magnetic_field_covariance_4,magnetic_field_covariance_5,magnetic_field_covariance_6,magnetic_field_covariance_7,magnetic_field_covariance_8
1737286240.285903,20671,1737286240,190193992,base_link,442000.0,-41000.000000000065,-562000.0,-1.0,0.0,0.0,0.0,0.0,0.0,0.0,0.0,0.0
1737286240.2896173,20672,1737286240,287748872,base_link,463000.0,-28000.000000000073,-586000.0,-1.0,0.0,0.0,0.0,0.0,0.0,0.0,0.0,0.0
1737286240.3913152,20673,1737286240,390354752,base_link,446000.0,-6.159973399711186e-11,-503000.0,-1.0,0.0,0.0,0.0,0.0,0.0,0.0,0.0,0.0
1737286240.4915013,20674,1737286240,490420632,base_link,464000.0,-14000.00000000007,-558000.0,-1.0,0.0,0.0,0.0,0.0,0.0,0.0,0.0,0.0
1737286240.5867448,20675,1737286240,585582744,base_link,464000.0,-9000.00000000007,-570000.0,-1.0,0.0,0.0,0.0,0.0,0.0,0.0,0.0,0.0
1737286240.6944082,20676,1737286240,690399856,base_link,468000.0,-7000.000000000064,-521000.0,-1.0,0.0,0.0,0.0,0.0,0.0,0.0,0.0,0.0
1737286240.7914662,20677,1737286240,790345224,base_link,447000.0,-14000.000000000062,-503000.0,-1.0,0.0,0.0,0.0,0.0,0.0,0.0,0.0,0.0
1737286240.8949392,20678,1737286240,893313336,base_link,477000.0,-28000.000000000065,-540000.0,-1.0,0.0,0.0,0.0,0.0,0.0,0.0,0.0,0.0
1737286240.9881542,20679,1737286240,985450960,base_link,460000.0,-13000.000000000067,-545000.0,-1.0,0.0,0.0,0.0,0.0,0.0,0.0,0.0,0.0
1737286241.093576,20680,1737286241,90516840,base_link,443000.0,-41000.000000000065,-539000.0,-1.0,0.0,0.0,0.0,0.0,0.0,0.0,0.0,0.0
1737286241.1923633,20681,1737286241,190368208,base_link,448000.0,-34000.00000000007,-565000.0,-1.0,0.0,0.0,0.0,0.0,0.0,0.0,0.0,0.0
1737286241.293365,20682,1737286241,290497832,base_link,476000.0,-13000.00000000007,-558000.0,-1.0,0.0,0.0,0.0,0.0,0.0,0.0,0.0,0.0
1737286241.3932786,20683,1737286241,390389456,base_link,454000.0,1999.999999999938,-507000.0,-1.0,0.0,0.0,0.0,0.0,0.0,0.0,0.0,0.0
1737286241.4927504,20684,1737286241,490455080,base_link,435000.0,-21000.000000000065,-521000.0,-1.0,0.0,0.0,0.0,0.0,0.0,0.0,0.0,0.0
1737286241.5913765,20685,1737286241,589513984,base_link,465000.0,14999.999999999942,-477000.0,-1.0,0.0,0.0,0.0,0.0,0.0,0.0,0.0,0.0
1737286241.6914124,20686,1737286241,688310328,base_link,453000.0,7999.999999999934,-545000.0,-1.0,0.0,0.0,0.0,0.0,0.0,0.0,0.0,0.0
1737286241.7928689,20687,1737286241,790266440,base_link,475000.0,9999.999999999929,-585000.0,-1.0,0.0,0.0,0.0,0.0,0.0,0.0,0.0,0.0
1737286241.8908644,20688,1737286241,889486344,base_link,463000.0,9999.999999999933,-555000.0,-1.0,0.0,0.0,0.0,0.0,0.0,0.0,0.0,0.0
1737286241.9921243,20689,1737286241,990433504,base_link,491000.0,73999.99999999994,-506000.0,-1.0,0.0,0.0,0.0,0.0,0.0,0.0,0.0,0.0
1737286242.0909011,20690,1737286242,89447712,base_link,528000.0,112999.99999999994,-510000.0,-1.0,0.0,0.0,0.0,0.0,0.0,0.0,0.0,0.0
1737286242.191515,20691,1737286242,188118872,base_link,507000.0,92999.99999999994,-531000.0,-1.0,0.0,0.0,0.0,0.0,0.0,0.0,0.0,0.0
1737286242.2941914,20692,1737286242,291644056,base_link,510000.0,125999.99999999993,-538000.0,-1.0,0.0,0.0,0.0,0.0,0.0,0.0,0.0,0.0
1737286242.392285,20693,1737286242,388404936,base_link,497000.0,125999.99999999994,-522000.0,-1.0,0.0,0.0,0.0,0.0,0.0,0.0,0.0,0.0
1737286242.496358,20694,1737286242,494408120,base_link,511000.0,108999.99999999993,-556000.0,-1.0,0.0,0.0,0.0,0.0,0.0,0.0,0.0,0.0
1737286242.5954404,20695,1737286242,591144000,base_link,516000.0,110999.99999999993,-557000.0,-1.0,0.0,0.0,0.0,0.0,0.0,0.0,0.0,0.0
1737286242.7002985,20696,1737286242,694849160,base_link,507000.0,96999.99999999993,-555000.0,-1.0,0.0,0.0,0.0,0.0,0.0,0.0,0.0,0.0
1737286242.7907174,20697,1737286242,788906552,base_link,507000.0,96999.99999999993,-555000.0,-1.0,0.0,0.0,0.0,0.0,0.0,0.0,0.0,0.0
1737286242.8895712,20698,1737286242,888092920,base_link,500000.0,90999.99999999993,-540000.0,-1.0,0.0,0.0,0.0,0.0,0.0,0.0,0.0,0.0
1737286242.9911218,20699,1737286242,989669104,base_link,498000.0,79999.99999999994,-531000.0,-1.0,0.0,0.0,0.0,0.0,0.0,0.0,0.0,0.0
1737286243.0929058,20700,1737286243,91230680,base_link,478000.0,89999.99999999993,-553000.0,-1.0,0.0,0.0,0.0,0.0,0.0,0.0,0.0,0.0
1737286243.1890206,20701,1737286243,187579840,base_link,481000.0,100999.99999999993,-573000.0,-1.0,0.0,0.0,0.0,0.0,0.0,0.0,0.0,0.0
1737286243.2920506,20702,1737286243,289366160,base_link,501000.0,110999.99999999993,-561000.0,-1.0,0.0,0.0,0.0,0.0,0.0,0.0,0.0,0.0
1737286243.394596,20703,1737286243,390289320,base_link,495000.0,119999.99999999994,-524000.0,-1.0,0.0,0.0,0.0,0.0,0.0,0.0,0.0,0.0
1737286243.495416,20704,1737286243,491307664,base_link,489000.0,120999.99999999993,-538000.0,-1.0,0.0,0.0,0.0,0.0,0.0,0.0,0.0,0.0
1737286243.5947316,20705,1737286243,592216800,base_link,492000.0,98999.99999999993,-549000.0,-1.0,0.0,0.0,0.0,0.0,0.0,0.0,0.0,0.0
1737286243.6935015,20706,1737286243,691239632,base_link,493000.0,101999.99999999993,-541000.0,-1.0,0.0,0.0,0.0,0.0,0.0,0.0,0.0,0.0
1737286243.792025,20707,1737286243,789744792,base_link,495000.0,126999.99999999993,-550000.0,-1.0,0.0,0.0,0.0,0.0,0.0,0.0,0.0,0.0
1737286243.8983095,20708,1737286243,896377112,base_link,479000.0,99999.99999999993,-564000.0,-1.0,0.0,0.0,0.0,0.0,0.0,0.0,0.0,0.0
1737286243.9893737,20709,1737286243,987816152,base_link,513000.0,107999.99999999993,-546000.0,-1.0,0.0,0.0,0.0,0.0,0.0,0.0,0.0,0.0
1737286244.0957942,20710,1737286244,94104336,base_link,511000.0,105999.99999999993,-566000.0,-1.0,0.0,0.0,0.0,0.0,0.0,0.0,0.0,0.0
1737286244.192604,20711,1737286244,190570336,base_link,466000.0,105999.99999999994,-525000.0,-1.0,0.0,0.0,0.0,0.0,0.0,0.0,0.0,0.0
1737286244.296734,20712,1737286244,294125352,base_link,479000.0,93999.99999999993,-555000.0,-1.0,0.0,0.0,0.0,0.0,0.0,0.0,0.0,0.0
1737286244.3919694,20713,1737286244,390620352,base_link,498000.0,127999.99999999993,-582000.0,-1.0,0.0,0.0,0.0,0.0,0.0,0.0,0.0,0.0
1737286244.4907753,20714,1737286244,490055352,base_link,500000.0,111999.99999999993,-586000.0,-1.0,0.0,0.0,0.0,0.0,0.0,0.0,0.0,0.0
1737286244.5905392,20715,1737286244,588382344,base_link,520000.0,125999.99999999993,-580000.0,-1.0,0.0,0.0,0.0,0.0,0.0,0.0,0.0,0.0
1737286244.6906853,20716,1737286244,689737432,base_link,507000.0,132999.99999999994,-526000.0,-1.0,0.0,0.0,0.0,0.0,0.0,0.0,0.0,0.0
1737286244.7912903,20717,1737286244,789019680,base_link,490000.0,128999.99999999993,-566000.0,-1.0,0.0,0.0,0.0,0.0,0.0,0.0,0.0,0.0
1737286244.891823,20718,1737286244,890603584,base_link,506000.0,124999.99999999993,-550000.0,-1.0,0.0,0.0,0.0,0.0,0.0,0.0,0.0,0.0
1737286244.989125,20719,1737286244,987399584,base_link,510000.0,118999.99999999993,-572000.0,-1.0,0.0,0.0,0.0,0.0,0.0,0.0,0.0,0.0
1737286245.0950568,20720,1737286245,93490304,base_link,490000.0,125999.99999999993,-546000.0,-1.0,0.0,0.0,0.0,0.0,0.0,0.0,0.0,0.0
1737286245.1889765,20721,1737286245,187339208,base_link,495000.0,116999.99999999993,-573000.0,-1.0,0.0,0.0,0.0,0.0,0.0,0.0,0.0,0.0
1737286245.295465,20722,1737286245,293627624,base_link,486000.0,126999.99999999993,-565000.0,-1.0,0.0,0.0,0.0,0.0,0.0,0.0,0.0,0.0
1737286245.391101,20723,1737286245,389719784,base_link,508000.0,111999.99999999993,-577000.0,-1.0,0.0,0.0,0.0,0.0,0.0,0.0,0.0,0.0
1737286245.4920068,20724,1737286245,491003456,base_link,517000.0,132999.99999999994,-584000.0,-1.0,0.0,0.0,0.0,0.0,0.0,0.0,0.0,0.0
1737286245.5909135,20725,1737286245,589724824,base_link,517000.0,119999.99999999993,-555000.0,-1.0,0.0,0.0,0.0,0.0,0.0,0.0,0.0,0.0
1737286245.6987083,20726,1737286245,696454424,base_link,497000.0,130999.99999999994,-514000.0,-1.0,0.0,0.0,0.0,0.0,0.0,0.0,0.0,0.0
1737286245.7925942,20727,1737286245,790709328,base_link,494000.0,131999.99999999994,-582000.0,-1.0,0.0,0.0,0.0,0.0,0.0,0.0,0.0,0.0
1737286245.8936124,20728,1737286245,891745952,base_link,492000.0,140999.99999999994,-559000.0,-1.0,0.0,0.0,0.0,0.0,0.0,0.0,0.0,0.0
1737286245.9979234,20729,1737286245,991320344,base_link,507000.0,125999.99999999993,-561000.0,-1.0,0.0,0.0,0.0,0.0,0.0,0.0,0.0,0.0
1737286246.1095834,20730,1737286246,94619712,base_link,511000.0,142999.99999999994,-535000.0,-1.0,0.0,0.0,0.0,0.0,0.0,0.0,0.0,0.0
1737286246.1985126,20731,1737286246,196957640,base_link,503000.0,144999.99999999994,-538000.0,-1.0,0.0,0.0,0.0,0.0,0.0,0.0,0.0,0.0
1737286246.3021224,20732,1737286246,300992704,base_link,495000.0,137999.99999999994,-555000.0,-1.0,0.0,0.0,0.0,0.0,0.0,0.0,0.0,0.0
1737286246.3932133,20733,1737286246,391682048,base_link,517000.0,138999.99999999994,-570000.0,-1.0,0.0,0.0,0.0,0.0,0.0,0.0,0.0,0.0
1737286246.4946566,20734,1737286246,492520720,base_link,503000.0,126999.99999999993,-578000.0,-1.0,0.0,0.0,0.0,0.0,0.0,0.0,0.0,0.0
1737286246.5903,20735,1737286246,589190296,base_link,515000.0,157999.99999999994,-539000.0,-1.0,0.0,0.0,0.0,0.0,0.0,0.0,0.0,0.0
1737286246.6894102,20736,1737286246,688197408,base_link,521000.0,151999.99999999994,-559000.0,-1.0,0.0,0.0,0.0,0.0,0.0,0.0,0.0,0.0
1737286246.798839,20737,1737286246,796901264,base_link,512000.0,147999.99999999994,-542000.0,-1.0,0.0,0.0,0.0,0.0,0.0,0.0,0.0,0.0
1737286246.8965702,20738,1737286246,895367216,base_link,522000.0,151999.99999999994,-537000.0,-1.0,0.0,0.0,0.0,0.0,0.0,0.0,0.0,0.0
1737286246.9909155,20739,1737286246,989009096,base_link,499000.0,139999.99999999994,-550000.0,-1.0,0.0,0.0,0.0,0.0,0.0,0.0,0.0,0.0
1737286247.1056383,20740,1737286247,95205576,base_link,491000.0,154999.99999999994,-552000.0,-1.0,0.0,0.0,0.0,0.0,0.0,0.0,0.0,0.0
1737286247.1918135,20741,1737286247,189877856,base_link,513000.0,160999.9999999999,-597000.0,-1.0,0.0,0.0,0.0,0.0,0.0,0.0,0.0,0.0
1737286247.2923062,20742,1737286247,289198064,base_link,518000.0,152999.99999999994,-579000.0,-1.0,0.0,0.0,0.0,0.0,0.0,0.0,0.0,0.0
1737286247.392052,20743,1737286247,388259064,base_link,530000.0,153999.99999999994,-570000.0,-1.0,0.0,0.0,0.0,0.0,0.0,0.0,0.0,0.0
1737286247.4921572,20744,1737286247,490608688,base_link,508000.0,150999.99999999994,-546000.0,-1.0,0.0,0.0,0.0,0.0,0.0,0.0,0.0,0.0
1737286247.5915658,20745,1737286247,590037896,base_link,494000.0,143999.99999999994,-532000.0,-1.0,0.0,0.0,0.0,0.0,0.0,0.0,0.0,0.0
1737286247.6909802,20746,1737286247,688396544,base_link,490000.0,136999.99999999994,-565000.0,-1.0,0.0,0.0,0.0,0.0,0.0,0.0,0.0,0.0
1737286247.7917786,20747,1737286247,790134912,base_link,516000.0,169999.99999999994,-531000.0,-1.0,0.0,0.0,0.0,0.0,0.0,0.0,0.0,0.0
1737286247.8957071,20748,1737286247,894360256,base_link,516000.0,156999.99999999994,-574000.0,-1.0,0.0,0.0,0.0,0.0,0.0,0.0,0.0,0.0
1737286247.9935231,20749,1737286247,991129624,base_link,512000.0,147999.99999999994,-584000.0,-1.0,0.0,0.0,0.0,0.0,0.0,0.0,0.0,0.0
1737286248.0970232,20750,1737286248,95223528,base_link,504000.0,148999.99999999994,-566000.0,-1.0,0.0,0.0,0.0,0.0,0.0,0.0,0.0,0.0
1737286248.1908038,20751,1737286248,189592128,base_link,524000.0,158999.99999999994,-558000.0,-1.0,0.0,0.0,0.0,0.0,0.0,0.0,0.0,0.0
1737286248.2929113,20752,1737286248,286160984,base_link,498000.0,145999.99999999994,-550000.0,-1.0,0.0,0.0,0.0,0.0,0.0,0.0,0.0,0.0
1737286248.3929577,20753,1737286248,388040376,base_link,477000.0,158999.99999999994,-534000.0,-1.0,0.0,0.0,0.0,0.0,0.0,0.0,0.0,0.0
1737286248.4945395,20754,1737286248,490206560,base_link,507000.0,141999.9999999999,-613000.0,-1.0,0.0,0.0,0.0,0.0,0.0,0.0,0.0,0.0
1737286248.595134,20755,1737286248,589425952,base_link,496000.0,159999.99999999994,-572000.0,-1.0,0.0,0.0,0.0,0.0,0.0,0.0,0.0,0.0
1737286248.6963327,20756,1737286248,694007088,base_link,505000.0,166999.99999999994,-552000.0,-1.0,0.0,0.0,0.0,0.0,0.0,0.0,0.0,0.0
1737286248.792344,20757,1737286248,788621200,base_link,528000.0,177999.99999999994,-559000.0,-1.0,0.0,0.0,0.0,0.0,0.0,0.0,0.0,0.0
1737286248.9001622,20758,1737286248,895001896,base_link,499000.0,158999.99999999994,-560000.0,-1.0,0.0,0.0,0.0,0.0,0.0,0.0,0.0,0.0
1737286248.9921167,20759,1737286248,988945800,base_link,499000.0,158999.99999999994,-560000.0,-1.0,0.0,0.0,0.0,0.0,0.0,0.0,0.0,0.0
1737286249.0906785,20760,1737286249,88276400,base_link,503000.0,153999.99999999994,-563000.0,-1.0,0.0,0.0,0.0,0.0,0.0,0.0,0.0,0.0
1737286249.19229,20761,1737286249,190073280,base_link,502000.0,156999.99999999994,-542000.0,-1.0,0.0,0.0,0.0,0.0,0.0,0.0,0.0,0.0
1737286249.2982419,20762,1737286249,293788160,base_link,548000.0,163999.99999999994,-589000.0,-1.0,0.0,0.0,0.0,0.0,0.0,0.0,0.0,0.0
1737286249.3931863,20763,1737286249,388857272,base_link,492000.0,147999.99999999994,-553000.0,-1.0,0.0,0.0,0.0,0.0,0.0,0.0,0.0,0.0
1737286249.4898593,20764,1737286249,488302896,base_link,484000.0,182999.99999999994,-557000.0,-1.0,0.0,0.0,0.0,0.0,0.0,0.0,0.0,0.0
1737286249.5909293,20765,1737286249,589475264,base_link,513000.0,175999.99999999994,-589000.0,-1.0,0.0,0.0,0.0,0.0,0.0,0.0,0.0,0.0
1737286249.693283,20766,1737286249,691341912,base_link,487000.0,156999.99999999994,-558000.0,-1.0,0.0,0.0,0.0,0.0,0.0,0.0,0.0,0.0
1737286249.7921298,20767,1737286249,790535512,base_link,519000.0,181999.99999999994,-555000.0,-1.0,0.0,0.0,0.0,0.0,0.0,0.0,0.0,0.0
1737286249.8970077,20768,1737286249,895024440,base_link,531000.0,183999.99999999994,-544000.0,-1.0,0.0,0.0,0.0,0.0,0.0,0.0,0.0,0.0
1737286249.9910622,20769,1737286249,988877144,base_link,507000.0,164999.99999999994,-560000.0,-1.0,0.0,0.0,0.0,0.0,0.0,0.0,0.0,0.0
1737286250.0927544,20770,1737286250,90306392,base_link,520000.0,173999.99999999994,-540000.0,-1.0,0.0,0.0,0.0,0.0,0.0,0.0,0.0,0.0
1737286250.19098,20771,1737286250,189476408,base_link,533000.0,180999.99999999994,-581000.0,-1.0,0.0,0.0,0.0,0.0,0.0,0.0,0.0,0.0
1737286250.2895803,20772,1737286250,286206496,base_link,499000.0,185999.99999999994,-535000.0,-1.0,0.0,0.0,0.0,0.0,0.0,0.0,0.0,0.0
1737286250.3900793,20773,1737286250,387946536,base_link,499000.0,184999.99999999994,-548000.0,-1.0,0.0,0.0,0.0,0.0,0.0,0.0,0.0,0.0
1737286250.5021822,20774,1737286250,490441928,base_link,499000.0,158999.99999999994,-549000.0,-1.0,0.0,0.0,0.0,0.0,0.0,0.0,0.0,0.0
1737286250.5908792,20775,1737286250,589315856,base_link,499000.0,190999.99999999994,-523000.0,-1.0,0.0,0.0,0.0,0.0,0.0,0.0,0.0,0.0
1737286250.693261,20776,1737286250,691099856,base_link,496000.0,178999.99999999994,-582000.0,-1.0,0.0,0.0,0.0,0.0,0.0,0.0,0.0,0.0
1737286250.790696,20777,1737286250,790013344,base_link,510000.0,166999.99999999994,-574000.0,-1.0,0.0,0.0,0.0,0.0,0.0,0.0,0.0,0.0
1737286250.894153,20778,1737286250,892184992,base_link,507000.0,179999.99999999994,-527000.0,-1.0,0.0,0.0,0.0,0.0,0.0,0.0,0.0,0.0
1737286250.9898355,20779,1737286250,988637456,base_link,509000.0,184999.99999999994,-554000.0,-1.0,0.0,0.0,0.0,0.0,0.0,0.0,0.0,0.0
1737286251.0939257,20780,1737286251,92033752,base_link,510000.0,186999.99999999994,-546000.0,-1.0,0.0,0.0,0.0,0.0,0.0,0.0,0.0,0.0
1737286251.190982,20781,1737286251,189219096,base_link,492000.0,174999.99999999994,-575000.0,-1.0,0.0,0.0,0.0,0.0,0.0,0.0,0.0,0.0
1737286251.3001926,20782,1737286251,298965488,base_link,508000.0,183999.99999999994,-568000.0,-1.0,0.0,0.0,0.0,0.0,0.0,0.0,0.0,0.0
1737286251.3945665,20783,1737286251,392827088,base_link,484000.0,189999.99999999994,-588000.0,-1.0,0.0,0.0,0.0,0.0,0.0,0.0,0.0,0.0
1737286251.4955685,20784,1737286251,493724480,base_link,527000.0,175999.99999999994,-585000.0,-1.0,0.0,0.0,0.0,0.0,0.0,0.0,0.0,0.0
1737286251.5949461,20785,1737286251,593922664,base_link,507000.0,178999.99999999994,-552000.0,-1.0,0.0,0.0,0.0,0.0,0.0,0.0,0.0,0.0
1737286251.699608,20786,1737286251,685997264,base_link,491000.0,179999.99999999994,-534000.0,-1.0,0.0,0.0,0.0,0.0,0.0,0.0,0.0,0.0
1737286251.7962337,20787,1737286251,794360864,base_link,540000.0,172999.99999999994,-582000.0,-1.0,0.0,0.0,0.0,0.0,0.0,0.0,0.0,0.0
1737286251.8974025,20788,1737286251,896025536,base_link,498000.0,193999.99999999994,-521000.0,-1.0,0.0,0.0,0.0,0.0,0.0,0.0,0.0,0.0
1737286251.995461,20789,1737286251,993178976,base_link,489000.0,166999.99999999994,-560000.0,-1.0,0.0,0.0,0.0,0.0,0.0,0.0,0.0,0.0
1737286252.0934572,20790,1737286252,91359784,base_link,506000.0,208999.99999999994,-564000.0,-1.0,0.0,0.0,0.0,0.0,0.0,0.0,0.0,0.0
1737286252.1895971,20791,1737286252,188120664,base_link,495000.0,187999.99999999994,-552000.0,-1.0,0.0,0.0,0.0,0.0,0.0,0.0,0.0,0.0
1737286252.2938633,20792,1737286252,292391568,base_link,481000.0,178999.99999999994,-556000.0,-1.0,0.0,0.0,0.0,0.0,0.0,0.0,0.0,0.0
1737286252.390053,20793,1737286252,389165264,base_link,488000.0,187999.99999999994,-559000.0,-1.0,0.0,0.0,0.0,0.0,0.0,0.0,0.0,0.0
1737286252.4923286,20794,1737286252,490745376,base_link,510000.0,197999.99999999994,-570000.0,-1.0,0.0,0.0,0.0,0.0,0.0,0.0,0.0,0.0
1737286252.5899074,20795,1737286252,588700024,base_link,528000.0,203999.99999999994,-556000.0,-1.0,0.0,0.0,0.0,0.0,0.0,0.0,0.0,0.0
1737286252.6900418,20796,1737286252,688346880,base_link,503000.0,182999.99999999994,-538000.0,-1.0,0.0,0.0,0.0,0.0,0.0,0.0,0.0,0.0
1737286252.7914004,20797,1737286252,789829184,base_link,500000.0,162999.99999999994,-565000.0,-1.0,0.0,0.0,0.0,0.0,0.0,0.0,0.0,0.0
1737286252.89775,20798,1737286252,896349160,base_link,513000.0,168999.99999999994,-538000.0,-1.0,0.0,0.0,0.0,0.0,0.0,0.0,0.0,0.0
1737286252.98918,20799,1737286252,987876272,base_link,527000.0,182999.99999999994,-557000.0,-1.0,0.0,0.0,0.0,0.0,0.0,0.0,0.0,0.0
1737286253.0962055,20800,1737286253,94598872,base_link,497000.0,210999.99999999994,-551000.0,-1.0,0.0,0.0,0.0,0.0,0.0,0.0,0.0,0.0
1737286253.189425,20801,1737286253,187958168,base_link,489000.0,192999.99999999994,-565000.0,-1.0,0.0,0.0,0.0,0.0,0.0,0.0,0.0,0.0
1737286253.2962024,20802,1737286253,294865048,base_link,523000.0,201999.99999999994,-586000.0,-1.0,0.0,0.0,0.0,0.0,0.0,0.0,0.0,0.0
1737286253.3902242,20803,1737286253,388889392,base_link,525000.0,196999.99999999994,-548000.0,-1.0,0.0,0.0,0.0,0.0,0.0,0.0,0.0,0.0
1737286253.4991105,20804,1737286253,498194272,base_link,520000.0,197999.99999999994,-543000.0,-1.0,0.0,0.0,0.0,0.0,0.0,0.0,0.0,0.0
1737286253.5914092,20805,1737286253,589781224,base_link,519000.0,207999.99999999994,-527000.0,-1.0,0.0,0.0,0.0,0.0,0.0,0.0,0.0,0.0
1737286253.692266,20806,1737286253,690579872,base_link,511000.0,178999.99999999994,-550000.0,-1.0,0.0,0.0,0.0,0.0,0.0,0.0,0.0,0.0
1737286253.7911675,20807,1737286253,790094056,base_link,533000.0,217999.99999999994,-517000.0,-1.0,0.0,0.0,0.0,0.0,0.0,0.0,0.0,0.0
1737286253.8930192,20808,1737286253,891899168,base_link,526000.0,203999.99999999994,-539000.0,-1.0,0.0,0.0,0.0,0.0,0.0,0.0,0.0,0.0
1737286253.990195,20809,1737286253,988716072,base_link,515000.0,210999.99999999994,-525000.0,-1.0,0.0,0.0,0.0,0.0,0.0,0.0,0.0,0.0
1737286254.0959537,20810,1737286254,95297768,base_link,493000.0,205999.99999999994,-516000.0,-1.0,0.0,0.0,0.0,0.0,0.0,0.0,0.0,0.0
1737286254.194322,20811,1737286254,189818648,base_link,524000.0,200999.99999999994,-545000.0,-1.0,0.0,0.0,0.0,0.0,0.0,0.0,0.0,0.0
1737286254.2914834,20812,1737286254,288739480,base_link,524000.0,200999.99999999994,-545000.0,-1.0,0.0,0.0,0.0,0.0,0.0,0.0,0.0,0.0
1737286254.3891215,20813,1737286254,387877408,base_link,532000.0,216999.99999999994,-528000.0,-1.0,0.0,0.0,0.0,0.0,0.0,0.0,0.0,0.0
1737286254.4962907,20814,1737286254,494889312,base_link,528000.0,202999.99999999994,-529000.0,-1.0,0.0,0.0,0.0,0.0,0.0,0.0,0.0,0.0
1737286254.590203,20815,1737286254,589331448,base_link,521000.0,197999.99999999994,-542000.0,-1.0,0.0,0.0,0.0,0.0,0.0,0.0,0.0,0.0
1737286254.689041,20816,1737286254,687913096,base_link,519000.0,230999.99999999994,-524000.0,-1.0,0.0,0.0,0.0,0.0,0.0,0.0,0.0,0.0
1737286254.789322,20817,1737286254,787816792,base_link,523000.0,205999.99999999994,-539000.0,-1.0,0.0,0.0,0.0,0.0,0.0,0.0,0.0,0.0
1737286254.8932996,20818,1737286254,892040744,base_link,550000.0,214999.99999999994,-547000.0,-1.0,0.0,0.0,0.0,0.0,0.0,0.0,0.0,0.0
1737286254.9893606,20819,1737286254,988101904,base_link,525000.0,199999.99999999994,-537000.0,-1.0,0.0,0.0,0.0,0.0,0.0,0.0,0.0,0.0
1737286255.0991004,20820,1737286255,97876296,base_link,513000.0,207999.99999999994,-559000.0,-1.0,0.0,0.0,0.0,0.0,0.0,0.0,0.0,0.0
1737286255.1915884,20821,1737286255,189605456,base_link,526000.0,225999.99999999994,-579000.0,-1.0,0.0,0.0,0.0,0.0,0.0,0.0,0.0,0.0
1737286255.2896957,20822,1737286255,285876336,base_link,512000.0,217999.99999999994,-557000.0,-1.0,0.0,0.0,0.0,0.0,0.0,0.0,0.0,0.0
1737286255.3917344,20823,1737286255,390302104,base_link,517000.0,211999.99999999994,-566000.0,-1.0,0.0,0.0,0.0,0.0,0.0,0.0,0.0,0.0
1737286255.4957335,20824,1737286255,493718632,base_link,516000.0,214999.99999999994,-546000.0,-1.0,0.0,0.0,0.0,0.0,0.0,0.0,0.0,0.0
1737286255.5901906,20825,1737286255,588562552,base_link,488000.0,211999.99999999994,-554000.0,-1.0,0.0,0.0,0.0,0.0,0.0,0.0,0.0,0.0
1737286255.6913686,20826,1737286255,690283552,base_link,483000.0,222999.99999999994,-534000.0,-1.0,0.0,0.0,0.0,0.0,0.0,0.0,0.0,0.0
1737286255.7904408,20827,1737286255,789210096,base_link,465000.0,214999.99999999994,-540000.0,-1.0,0.0,0.0,0.0,0.0,0.0,0.0,0.0,0.0
1737286255.8951843,20828,1737286255,888269880,base_link,497000.0,223999.99999999994,-593000.0,-1.0,0.0,0.0,0.0,0.0,0.0,0.0,0.0,0.0
1737286255.9948864,20829,1737286255,992867712,base_link,506000.0,230999.99999999994,-578000.0,-1.0,0.0,0.0,0.0,0.0,0.0,0.0,0.0,0.0
1737286256.0923705,20830,1737286256,90252312,base_link,494000.0,213999.99999999994,-546000.0,-1.0,0.0,0.0,0.0,0.0,0.0,0.0,0.0,0.0
1737286256.1905184,20831,1737286256,189054680,base_link,508000.0,227999.99999999994,-552000.0,-1.0,0.0,0.0,0.0,0.0,0.0,0.0,0.0,0.0
1737286256.2949069,20832,1737286256,293008584,base_link,489000.0,227999.99999999994,-563000.0,-1.0,0.0,0.0,0.0,0.0,0.0,0.0,0.0,0.0
1737286256.38865,20833,1737286256,387817256,base_link,486000.0,235999.99999999994,-578000.0,-1.0,0.0,0.0,0.0,0.0,0.0,0.0,0.0,0.0
1737286256.498928,20834,1737286256,496991648,base_link,485000.0,229999.99999999994,-570000.0,-1.0,0.0,0.0,0.0,0.0,0.0,0.0,0.0,0.0
1737286256.5899985,20835,1737286256,588569112,base_link,491000.0,231999.99999999994,-589000.0,-1.0,0.0,0.0,0.0,0.0,0.0,0.0,0.0,0.0
1737286256.6923554,20836,1737286256,689946272,base_link,501000.0,221999.99999999994,-589000.0,-1.0,0.0,0.0,0.0,0.0,0.0,0.0,0.0,0.0
1737286256.7956154,20837,1737286256,793817968,base_link,510000.0,228999.99999999994,-549000.0,-1.0,0.0,0.0,0.0,0.0,0.0,0.0,0.0,0.0
1737286256.9017022,20838,1737286256,900402800,base_link,531000.0,230999.99999999994,-559000.0,-1.0,0.0,0.0,0.0,0.0,0.0,0.0,0.0,0.0
1737286256.9936428,20839,1737286256,992418960,base_link,541000.0,246999.99999999994,-514000.00000000006,-1.0,0.0,0.0,0.0,0.0,0.0,0.0,0.0,0.0
1737286257.0925467,20840,1737286257,91395536,base_link,548000.0,236999.99999999994,-524000.0,-1.0,0.0,0.0,0.0,0.0,0.0,0.0,0.0,0.0
1737286257.188026,20841,1737286257,186162624,base_link,533000.0,233999.99999999994,-533000.0,-1.0,0.0,0.0,0.0,0.0,0.0,0.0,0.0,0.0
1737286257.2962248,20842,1737286257,294685248,base_link,517000.0,227999.99999999994,-549000.0,-1.0,0.0,0.0,0.0,0.0,0.0,0.0,0.0,0.0
1737286257.392676,20843,1737286257,391119616,base_link,537000.0,224999.99999999994,-551000.0,-1.0,0.0,0.0,0.0,0.0,0.0,0.0,0.0,0.0
1737286257.4926155,20844,1737286257,491934544,base_link,568000.0,244999.99999999994,-537000.0,-1.0,0.0,0.0,0.0,0.0,0.0,0.0,0.0,0.0
1737286257.5908358,20845,1737286257,589148776,base_link,554000.0,233999.99999999994,-541000.0,-1.0,0.0,0.0,0.0,0.0,0.0,0.0,0.0,0.0
1737286257.6916285,20846,1737286257,690219120,base_link,533000.0,234999.99999999994,-493000.0,-1.0,0.0,0.0,0.0,0.0,0.0,0.0,0.0,0.0
1737286257.7917674,20847,1737286257,790186048,base_link,549000.0,239999.99999999994,-516000.00000000006,-1.0,0.0,0.0,0.0,0.0,0.0,0.0,0.0,0.0
1737286257.898707,20848,1737286257,896879720,base_link,541000.0,252999.99999999994,-518000.00000000006,-1.0,0.0,0.0,0.0,0.0,0.0,0.0,0.0,0.0
1737286257.987966,20849,1737286257,986608344,base_link,533000.0,250999.99999999994,-488000.00000000006,-1.0,0.0,0.0,0.0,0.0,0.0,0.0,0.0,0.0
1737286258.0918403,20850,1737286258,90381640,base_link,527000.0,255999.99999999994,-531000.0,-1.0,0.0,0.0,0.0,0.0,0.0,0.0,0.0,0.0
1737286258.1910853,20851,1737286258,189540960,base_link,536000.0,245999.99999999994,-551000.0,-1.0,0.0,0.0,0.0,0.0,0.0,0.0,0.0,0.0
1737286258.2964642,20852,1737286258,294458304,base_link,538000.0,255999.99999999994,-544000.0,-1.0,0.0,0.0,0.0,0.0,0.0,0.0,0.0,0.0
1737286258.3893206,20853,1737286258,387758512,base_link,541000.0,251999.99999999994,-505000.00000000006,-1.0,0.0,0.0,0.0,0.0,0.0,0.0,0.0,0.0
1737286258.4908333,20854,1737286258,489429648,base_link,554000.0,256999.99999999994,-535000.0,-1.0,0.0,0.0,0.0,0.0,0.0,0.0,0.0,0.0
1737286258.5905116,20855,1737286258,588422760,base_link,545000.0,243999.99999999994,-494000.00000000006,-1.0,0.0,0.0,0.0,0.0,0.0,0.0,0.0,0.0
1737286258.6909132,20856,1737286258,690094896,base_link,544000.0,259999.99999999994,-520000.00000000006,-1.0,0.0,0.0,0.0,0.0,0.0,0.0,0.0,0.0
1737286258.7911367,20857,1737286258,789538960,base_link,554000.0,244999.99999999994,-508000.00000000006,-1.0,0.0,0.0,0.0,0.0,0.0,0.0,0.0,0.0
1737286258.8921223,20858,1737286258,890496560,base_link,534000.0,287999.99999999994,-513000.00000000006,-1.0,0.0,0.0,0.0,0.0,0.0,0.0,0.0,0.0
1737286258.9887953,20859,1737286258,987385000,base_link,518000.0,253999.99999999994,-507000.00000000006,-1.0,0.0,0.0,0.0,0.0,0.0,0.0,0.0,0.0
1737286259.0948997,20860,1737286259,94316088,base_link,516000.0,256999.99999999994,-528000.0,-1.0,0.0,0.0,0.0,0.0,0.0,0.0,0.0,0.0
1737286259.1905127,20861,1737286259,188811944,base_link,517000.0,245999.99999999994,-574000.0,-1.0,0.0,0.0,0.0,0.0,0.0,0.0,0.0,0.0
1737286259.2897654,20862,1737286259,288078544,base_link,486000.0,242999.99999999994,-582000.0,-1.0,0.0,0.0,0.0,0.0,0.0,0.0,0.0,0.0
1737286259.3906074,20863,1737286259,389100448,base_link,488000.0,243999.99999999994,-581000.0,-1.0,0.0,0.0,0.0,0.0,0.0,0.0,0.0,0.0
1737286259.4923713,20864,1737286259,491064536,base_link,472000.0,233999.99999999994,-552000.0,-1.0,0.0,0.0,0.0,0.0,0.0,0.0,0.0,0.0
1737286259.5909517,20865,1737286259,587629416,base_link,466000.0,249999.99999999994,-546000.0,-1.0,0.0,0.0,0.0,0.0,0.0,0.0,0.0,0.0
1737286259.6981153,20866,1737286259,696795992,base_link,455000.0,254999.99999999994,-581000.0,-1.0,0.0,0.0,0.0,0.0,0.0,0.0,0.0,0.0
1737286259.788994,20867,1737286259,788242336,base_link,455000.0,254999.99999999994,-581000.0,-1.0,0.0,0.0,0.0,0.0,0.0,0.0,0.0,0.0
1737286259.8969831,20868,1737286259,892878752,base_link,435000.0,253999.9999999999,-599000.0,-1.0,0.0,0.0,0.0,0.0,0.0,0.0,0.0,0.0
1737286259.9917102,20869,1737286259,989860656,base_link,435000.0,253999.9999999999,-599000.0,-1.0,0.0,0.0,0.0,0.0,0.0,0.0,0.0,0.0
1737286260.0934196,20870,1737286260,91568096,base_link,424000.0,237999.9999999999,-616000.0,-1.0,0.0,0.0,0.0,0.0,0.0,0.0,0.0,0.0
1737286260.1883256,20871,1737286260,186448744,base_link,450000.0,249999.9999999999,-609000.0,-1.0,0.0,0.0,0.0,0.0,0.0,0.0,0.0,0.0
1737286260.2890718,20872,1737286260,287837880,base_link,458000.0,235999.99999999994,-586000.0,-1.0,0.0,0.0,0.0,0.0,0.0,0.0,0.0,0.0
1737286260.3911676,20873,1737286260,389779552,base_link,483000.0,245999.99999999994,-582000.0,-1.0,0.0,0.0,0.0,0.0,0.0,0.0,0.0,0.0
1737286260.4901369,20874,1737286260,488743456,base_link,506000.0,253999.99999999994,-537000.0,-1.0,0.0,0.0,0.0,0.0,0.0,0.0,0.0,0.0
1737286260.5905728,20875,1737286260,588470568,base_link,488000.0,237999.99999999994,-557000.0,-1.0,0.0,0.0,0.0,0.0,0.0,0.0,0.0,0.0
1737286260.6975083,20876,1737286260,695502472,base_link,515000.0,251999.99999999994,-551000.0,-1.0,0.0,0.0,0.0,0.0,0.0,0.0,0.0,0.0
1737286260.7917478,20877,1737286260,790180752,base_link,499000.0,219999.99999999994,-585000.0,-1.0,0.0,0.0,0.0,0.0,0.0,0.0,0.0,0.0
1737286260.8924794,20878,1737286260,891342752,base_link,485000.0,235999.99999999994,-558000.0,-1.0,0.0,0.0,0.0,0.0,0.0,0.0,0.0,0.0
1737286260.990536,20879,1737286260,988544928,base_link,493000.0,220999.99999999994,-587000.0,-1.0,0.0,0.0,0.0,0.0,0.0,0.0,0.0,0.0
1737286261.0913863,20880,1737286261,90313400,base_link,494000.0,230999.99999999994,-576000.0,-1.0,0.0,0.0,0.0,0.0,0.0,0.0,0.0,0.0
1737286261.1900759,20881,1737286261,188738720,base_link,501000.0,213999.99999999994,-557000.0,-1.0,0.0,0.0,0.0,0.0,0.0,0.0,0.0,0.0
1737286261.297192,20882,1737286261,290484432,base_link,494000.0,206999.99999999994,-591000.0,-1.0,0.0,0.0,0.0,0.0,0.0,0.0,0.0,0.0
1737286261.3882809,20883,1737286261,387368288,base_link,489000.0,223999.99999999994,-577000.0,-1.0,0.0,0.0,0.0,0.0,0.0,0.0,0.0,0.0
1737286261.4953442,20884,1737286261,494420656,base_link,503000.0,216999.99999999994,-541000.0,-1.0,0.0,0.0,0.0,0.0,0.0,0.0,0.0,0.0
1737286261.5892444,20885,1737286261,588289464,base_link,473000.0,216999.99999999994,-563000.0,-1.0,0.0,0.0,0.0,0.0,0.0,0.0,0.0,0.0
1737286261.6911798,20886,1737286261,690175576,base_link,496000.0,215999.99999999994,-587000.0,-1.0,0.0,0.0,0.0,0.0,0.0,0.0,0.0,0.0
1737286261.7903104,20887,1737286261,789506480,base_link,508000.0,214999.9999999999,-602000.0,-1.0,0.0,0.0,0.0,0.0,0.0,0.0,0.0,0.0
1737286261.895583,20888,1737286261,893783896,base_link,496000.0,218999.99999999994,-568000.0,-1.0,0.0,0.0,0.0,0.0,0.0,0.0,0.0,0.0
1737286261.9893289,20889,1737286261,987905312,base_link,490000.0,203999.99999999994,-544000.0,-1.0,0.0,0.0,0.0,0.0,0.0,0.0,0.0,0.0
1737286262.0984137,20890,1737286262,96967864,base_link,480000.0,224999.99999999994,-567000.0,-1.0,0.0,0.0,0.0,0.0,0.0,0.0,0.0,0.0
1737286262.1926587,20891,1737286262,191483048,base_link,464000.0,212999.9999999999,-596000.0,-1.0,0.0,0.0,0.0,0.0,0.0,0.0,0.0,0.0
1737286262.2911308,20892,1737286262,290513440,base_link,473000.0,209999.99999999994,-589000.0,-1.0,0.0,0.0,0.0,0.0,0.0,0.0,0.0,0.0
1737286262.3893921,20893,1737286262,388248112,base_link,492000.0,234999.99999999994,-554000.0,-1.0,0.0,0.0,0.0,0.0,0.0,0.0,0.0,0.0
1737286262.4974208,20894,1737286262,496178528,base_link,470000.0,221999.99999999994,-543000.0,-1.0,0.0,0.0,0.0,0.0,0.0,0.0,0.0,0.0
1737286262.596341,20895,1737286262,594947152,base_link,491000.0,178999.99999999994,-538000.0,-1.0,0.0,0.0,0.0,0.0,0.0,0.0,0.0,0.0
1737286262.69782,20896,1737286262,696316360,base_link,490000.0,148999.99999999994,-547000.0,-1.0,0.0,0.0,0.0,0.0,0.0,0.0,0.0,0.0
1737286262.7887034,20897,1737286262,787373776,base_link,466000.0,85999.99999999993,-549000.0,-1.0,0.0,0.0,0.0,0.0,0.0,0.0,0.0,0.0
1737286262.9015949,20898,1737286262,900535680,base_link,457000.0,20999.999999999927,-583000.0,-1.0,0.0,0.0,0.0,0.0,0.0,0.0,0.0,0.0
1737286262.9905424,20899,1737286262,988534816,base_link,400000.0,-35000.00000000007,-593000.0,-1.0,0.0,0.0,0.0,0.0,0.0,0.0,0.0,0.0
1737286263.0890577,20900,1737286263,87422184,base_link,310000.0,-108000.00000000007,-593000.0,-1.0,0.0,0.0,0.0,0.0,0.0,0.0,0.0,0.0
1737286263.18978,20901,1737286263,187753344,base_link,256000.0,-135000.0000000001,-630000.0,-1.0,0.0,0.0,0.0,0.0,0.0,0.0,0.0,0.0
1737286263.2982545,20902,1737286263,296969664,base_link,231000.0,-141000.0000000001,-613000.0,-1.0,0.0,0.0,0.0,0.0,0.0,0.0,0.0,0.0
1737286263.3907084,20903,1737286263,388452080,base_link,198000.0,-144000.0000000001,-606000.0,-1.0,0.0,0.0,0.0,0.0,0.0,0.0,0.0,0.0
1737286263.4883542,20904,1737286263,487626472,base_link,213000.0,-139000.0000000001,-609000.0,-1.0,0.0,0.0,0.0,0.0,0.0,0.0,0.0,0.0
1737286263.5916712,20905,1737286263,589896728,base_link,237000.0,-96000.00000000007,-555000.0,-1.0,0.0,0.0,0.0,0.0,0.0,0.0,0.0,0.0
1737286263.691125,20906,1737286263,689374752,base_link,268000.0,-116000.00000000007,-569000.0,-1.0,0.0,0.0,0.0,0.0,0.0,0.0,0.0,0.0
1737286263.7906861,20907,1737286263,789143168,base_link,246000.0,-124000.00000000006,-534000.0,-1.0,0.0,0.0,0.0,0.0,0.0,0.0,0.0,0.0
1737286263.895332,20908,1737286263,893581608,base_link,203000.0,-137000.00000000006,-560000.0,-1.0,0.0,0.0,0.0,0.0,0.0,0.0,0.0,0.0
1737286263.990914,20909,1737286263,989738048,base_link,184000.0,-148000.0000000001,-597000.0,-1.0,0.0,0.0,0.0,0.0,0.0,0.0,0.0,0.0
1737286264.0959418,20910,1737286264,94164368,base_link,113000.0,-158000.00000000006,-574000.0,-1.0,0.0,0.0,0.0,0.0,0.0,0.0,0.0,0.0
1737286264.192675,20911,1737286264,190306296,base_link,117000.0,-150000.00000000006,-575000.0,-1.0,0.0,0.0,0.0,0.0,0.0,0.0,0.0,0.0
1737286264.288766,20912,1737286264,287141736,base_link,117000.0,-152000.00000000006,-572000.0,-1.0,0.0,0.0,0.0,0.0,0.0,0.0,0.0,0.0
1737286264.3900187,20913,1737286264,389094336,base_link,139000.0,-153000.00000000006,-576000.0,-1.0,0.0,0.0,0.0,0.0,0.0,0.0,0.0,0.0
1737286264.4896398,20914,1737286264,488796192,base_link,170000.0,-152000.00000000006,-580000.0,-1.0,0.0,0.0,0.0,0.0,0.0,0.0,0.0,0.0
1737286264.5874677,20915,1737286264,585424560,base_link,182000.0,-146000.00000000006,-540000.0,-1.0,0.0,0.0,0.0,0.0,0.0,0.0,0.0,0.0
1737286264.6904569,20916,1737286264,689343744,base_link,191000.0,-178000.00000000006,-529000.0,-1.0,0.0,0.0,0.0,0.0,0.0,0.0,0.0,0.0
1737286264.7929015,20917,1737286264,788608296,base_link,195000.0,-180000.00000000006,-532000.0,-1.0,0.0,0.0,0.0,0.0,0.0,0.0,0.0,0.0
1737286264.8978496,20918,1737286264,893272224,base_link,224000.0,-174000.00000000006,-560000.0,-1.0,0.0,0.0,0.0,0.0,0.0,0.0,0.0,0.0
1737286264.989336,20919,1737286264,987223664,base_link,224000.0,-174000.00000000006,-560000.0,-1.0,0.0,0.0,0.0,0.0,0.0,0.0,0.0,0.0
1737286265.095626,20920,1737286265,94624472,base_link,192000.0,-182000.00000000006,-567000.0,-1.0,0.0,0.0,0.0,0.0,0.0,0.0,0.0,0.0
1737286265.1895804,20921,1737286265,188136864,base_link,192000.0,-182000.00000000006,-567000.0,-1.0,0.0,0.0,0.0,0.0,0.0,0.0,0.0,0.0
1737286265.2958777,20922,1737286265,292171000,base_link,202000.0,-176000.00000000006,-550000.0,-1.0,0.0,0.0,0.0,0.0,0.0,0.0,0.0,0.0
1737286265.390166,20923,1737286265,389054088,base_link,163000.0,-179000.00000000006,-569000.0,-1.0,0.0,0.0,0.0,0.0,0.0,0.0,0.0,0.0
1737286265.489475,20924,1737286265,487847480,base_link,167000.0,-165000.00000000006,-523000.0,-1.0,0.0,0.0,0.0,0.0,0.0,0.0,0.0,0.0
1737286265.5912926,20925,1737286265,589408432,base_link,196000.0,-161000.00000000006,-529000.0,-1.0,0.0,0.0,0.0,0.0,0.0,0.0,0.0,0.0
1737286265.6936953,20926,1737286265,691582264,base_link,218000.0,-170000.00000000006,-548000.0,-1.0,0.0,0.0,0.0,0.0,0.0,0.0,0.0,0.0
1737286265.7896698,20927,1737286265,788196400,base_link,234000.0,-165000.00000000006,-541000.0,-1.0,0.0,0.0,0.0,0.0,0.0,0.0,0.0,0.0
1737286265.8989937,20928,1737286265,897986536,base_link,231000.0,-161000.00000000006,-519000.0,-1.0,0.0,0.0,0.0,0.0,0.0,0.0,0.0,0.0
1737286265.9866004,20929,1737286265,984562672,base_link,264000.0,-172000.00000000006,-570000.0,-1.0,0.0,0.0,0.0,0.0,0.0,0.0,0.0,0.0
1737286266.090282,20930,1737286266,88349040,base_link,240000.0,-155000.00000000006,-550000.0,-1.0,0.0,0.0,0.0,0.0,0.0,0.0,0.0,0.0
1737286266.187766,20931,1737286266,185629296,base_link,225000.0,-158000.00000000006,-568000.0,-1.0,0.0,0.0,0.0,0.0,0.0,0.0,0.0,0.0
1737286266.2928984,20932,1737286266,292039296,base_link,205000.0,-146000.0000000001,-604000.0,-1.0,0.0,0.0,0.0,0.0,0.0,0.0,0.0,0.0
1737286266.391093,20933,1737286266,389330296,base_link,210000.0,-148000.00000000006,-583000.0,-1.0,0.0,0.0,0.0,0.0,0.0,0.0,0.0,0.0
1737286266.4937377,20934,1737286266,491256296,base_link,178000.0,-145000.00000000006,-554000.0,-1.0,0.0,0.0,0.0,0.0,0.0,0.0,0.0,0.0
1737286266.589369,20935,1737286266,587514776,base_link,218000.0,-151000.00000000006,-565000.0,-1.0,0.0,0.0,0.0,0.0,0.0,0.0,0.0,0.0
1737286266.6977217,20936,1737286266,692104912,base_link,185000.0,-152000.00000000006,-545000.0,-1.0,0.0,0.0,0.0,0.0,0.0,0.0,0.0,0.0
1737286266.7921083,20937,1737286266,790722352,base_link,190000.0,-157000.00000000006,-588000.0,-1.0,0.0,0.0,0.0,0.0,0.0,0.0,0.0,0.0
1737286266.8944361,20938,1737286266,893031440,base_link,160000.0,-144000.00000000006,-570000.0,-1.0,0.0,0.0,0.0,0.0,0.0,0.0,0.0,0.0
1737286266.991428,20939,1737286266,989363112,base_link,168000.0,-138000.00000000006,-575000.0,-1.0,0.0,0.0,0.0,0.0,0.0,0.0,0.0,0.0
1737286267.0953884,20940,1737286267,94250480,base_link,156000.0,-147000.00000000006,-574000.0,-1.0,0.0,0.0,0.0,0.0,0.0,0.0,0.0,0.0
1737286267.1872897,20941,1737286267,185657312,base_link,176000.0,-152000.00000000006,-583000.0,-1.0,0.0,0.0,0.0,0.0,0.0,0.0,0.0,0.0
1737286267.2961655,20942,1737286267,295321680,base_link,153000.0,-151000.00000000006,-561000.0,-1.0,0.0,0.0,0.0,0.0,0.0,0.0,0.0,0.0
1737286267.3932295,20943,1737286267,392190304,base_link,165000.0,-148000.00000000006,-539000.0,-1.0,0.0,0.0,0.0,0.0,0.0,0.0,0.0,0.0
1737286267.5066042,20944,1737286267,503971744,base_link,186000.0,-143000.00000000006,-537000.0,-1.0,0.0,0.0,0.0,0.0,0.0,0.0,0.0,0.0
1737286267.5982053,20945,1737286267,596199112,base_link,190000.0,-141000.00000000006,-576000.0,-1.0,0.0,0.0,0.0,0.0,0.0,0.0,0.0,0.0
1737286267.7026978,20946,1737286267,700275760,base_link,150000.0,-147000.00000000006,-563000.0,-1.0,0.0,0.0,0.0,0.0,0.0,0.0,0.0,0.0
1737286267.7898517,20947,1737286267,788219872,base_link,159000.0,-154000.00000000006,-580000.0,-1.0,0.0,0.0,0.0,0.0,0.0,0.0,0.0,0.0
1737286267.8985295,20948,1737286267,896525752,base_link,144000.0,-151000.00000000006,-558000.0,-1.0,0.0,0.0,0.0,0.0,0.0,0.0,0.0,0.0
1737286267.9975147,20949,1737286267,995561912,base_link,161000.0,-144000.00000000006,-585000.0,-1.0,0.0,0.0,0.0,0.0,0.0,0.0,0.0,0.0
1737286268.0953193,20950,1737286268,94311352,base_link,167000.0,-150000.00000000006,-555000.0,-1.0,0.0,0.0,0.0,0.0,0.0,0.0,0.0,0.0
1737286268.1872528,20951,1737286268,186419256,base_link,150000.0,-166000.00000000006,-569000.0,-1.0,0.0,0.0,0.0,0.0,0.0,0.0,0.0,0.0
1737286268.2914588,20952,1737286268,290230440,base_link,174000.0,-145000.00000000006,-554000.0,-1.0,0.0,0.0,0.0,0.0,0.0,0.0,0.0,0.0
1737286268.3903675,20953,1737286268,389162112,base_link,176000.0,-157000.00000000006,-575000.0,-1.0,0.0,0.0,0.0,0.0,0.0,0.0,0.0,0.0
1737286268.4899404,20954,1737286268,488093968,base_link,163000.0,-130000.00000000007,-535000.0,-1.0,0.0,0.0,0.0,0.0,0.0,0.0,0.0,0.0
1737286268.5896385,20955,1737286268,588154968,base_link,169000.0,-161000.00000000006,-539000.0,-1.0,0.0,0.0,0.0,0.0,0.0,0.0,0.0,0.0
1737286268.6893392,20956,1737286268,687660872,base_link,185000.0,-145000.00000000006,-543000.0,-1.0,0.0,0.0,0.0,0.0,0.0,0.0,0.0,0.0
1737286268.7905374,20957,1737286268,789180216,base_link,169000.0,-153000.00000000006,-539000.0,-1.0,0.0,0.0,0.0,0.0,0.0,0.0,0.0,0.0
1737286268.894531,20958,1737286268,893253840,base_link,167000.0,-160000.00000000006,-526000.0,-1.0,0.0,0.0,0.0,0.0,0.0,0.0,0.0,0.0
1737286268.989236,20959,1737286268,987869048,base_link,179000.0,-155000.00000000006,-550000.0,-1.0,0.0,0.0,0.0,0.0,0.0,0.0,0.0,0.0
1737286269.0950632,20960,1737286269,93645464,base_link,173000.0,-148000.00000000006,-551000.0,-1.0,0.0,0.0,0.0,0.0,0.0,0.0,0.0,0.0
1737286269.1866758,20961,1737286269,185645112,base_link,161000.0,-146000.00000000006,-543000.0,-1.0,0.0,0.0,0.0,0.0,0.0,0.0,0.0,0.0
1737286269.2908432,20962,1737286269,289073504,base_link,155000.0,-147000.00000000006,-561000.0,-1.0,0.0,0.0,0.0,0.0,0.0,0.0,0.0,0.0
1737286269.3893056,20963,1737286269,388361592,base_link,176000.0,-139000.00000000006,-529000.0,-1.0,0.0,0.0,0.0,0.0,0.0,0.0,0.0,0.0
1737286269.4885054,20964,1737286269,487835704,base_link,183000.0,-163000.00000000006,-586000.0,-1.0,0.0,0.0,0.0,0.0,0.0,0.0,0.0,0.0
1737286269.5902302,20965,1737286269,589422120,base_link,190000.0,-167000.00000000006,-569000.0,-1.0,0.0,0.0,0.0,0.0,0.0,0.0,0.0,0.0
1737286269.689424,20966,1737286269,688618232,base_link,237000.0,-159000.00000000006,-556000.0,-1.0,0.0,0.0,0.0,0.0,0.0,0.0,0.0,0.0
1737286269.7918856,20967,1737286269,790141880,base_link,237000.0,-142000.00000000006,-534000.0,-1.0,0.0,0.0,0.0,0.0,0.0,0.0,0.0,0.0
1737286269.8989959,20968,1737286269,896558296,base_link,281000.0,-143000.00000000006,-548000.0,-1.0,0.0,0.0,0.0,0.0,0.0,0.0,0.0,0.0
1737286269.9894626,20969,1737286269,987975176,base_link,346000.0,-143000.00000000006,-561000.0,-1.0,0.0,0.0,0.0,0.0,0.0,0.0,0.0,0.0
1737286270.094039,20970,1737286270,92208640,base_link,397000.0,-88000.00000000006,-533000.0,-1.0,0.0,0.0,0.0,0.0,0.0,0.0,0.0,0.0
1737286270.18791,20971,1737286270,186120568,base_link,472000.0,-28000.000000000062,-515000.0,-1.0,0.0,0.0,0.0,0.0,0.0,0.0,0.0,0.0
1737286270.2914844,20972,1737286270,290121448,base_link,496000.0,8999.999999999938,-510000.0,-1.0,0.0,0.0,0.0,0.0,0.0,0.0,0.0,0.0
1737286270.3887846,20973,1737286270,387085888,base_link,496000.0,8999.999999999938,-510000.0,-1.0,0.0,0.0,0.0,0.0,0.0,0.0,0.0,0.0
1737286270.4925275,20974,1737286270,491183024,base_link,513000.0,55999.999999999935,-530000.0,-1.0,0.0,0.0,0.0,0.0,0.0,0.0,0.0,0.0
1737286270.5897143,20975,1737286270,588173184,base_link,533000.0,50999.999999999935,-537000.0,-1.0,0.0,0.0,0.0,0.0,0.0,0.0,0.0,0.0
1737286270.6884854,20976,1737286270,687397064,base_link,508000.0,45999.999999999935,-519000.0,-1.0,0.0,0.0,0.0,0.0,0.0,0.0,0.0,0.0
1737286270.7911286,20977,1737286270,789204968,base_link,491000.0,36999.999999999935,-535000.0,-1.0,0.0,0.0,0.0,0.0,0.0,0.0,0.0,0.0
1737286270.889685,20978,1737286270,888546104,base_link,489000.0,25999.999999999927,-580000.0,-1.0,0.0,0.0,0.0,0.0,0.0,0.0,0.0,0.0
1737286270.9891622,20979,1737286270,987367192,base_link,457000.0,5999.999999999928,-589000.0,-1.0,0.0,0.0,0.0,0.0,0.0,0.0,0.0,0.0
1737286271.0958679,20980,1737286271,94059000,base_link,424000.0,-8000.000000000075,-609000.0,-1.0,0.0,0.0,0.0,0.0,0.0,0.0,0.0,0.0
1737286271.188666,20981,1737286271,185973088,base_link,400000.0,-22000.000000000073,-586000.0,-1.0,0.0,0.0,0.0,0.0,0.0,0.0,0.0,0.0
1737286271.296024,20982,1737286271,294490368,base_link,392000.0,-7000.000000000071,-580000.0,-1.0,0.0,0.0,0.0,0.0,0.0,0.0,0.0,0.0
1737286271.3904624,20983,1737286271,388963736,base_link,437000.0,-15000.000000000075,-612000.0,-1.0,0.0,0.0,0.0,0.0,0.0,0.0,0.0,0.0
1737286271.490301,20984,1737286271,488855592,base_link,430000.0,7999.999999999933,-553000.0,-1.0,0.0,0.0,0.0,0.0,0.0,0.0,0.0,0.0
1737286271.5897849,20985,1737286271,588142984,base_link,464000.0,-25000.00000000007,-564000.0,-1.0,0.0,0.0,0.0,0.0,0.0,0.0,0.0,0.0
1737286271.686032,20986,1737286271,684993072,base_link,460000.0,-2000.000000000066,-538000.0,-1.0,0.0,0.0,0.0,0.0,0.0,0.0,0.0,0.0
1737286271.790489,20987,1737286271,789116464,base_link,475000.0,-9000.00000000007,-560000.0,-1.0,0.0,0.0,0.0,0.0,0.0,0.0,0.0,0.0
1737286271.894669,20988,1737286271,893730392,base_link,465000.0,-30000.00000000007,-573000.0,-1.0,0.0,0.0,0.0,0.0,0.0,0.0,0.0,0.0
1737286271.9897325,20989,1737286271,988312576,base_link,461000.0,-24000.000000000065,-540000.0,-1.0,0.0,0.0,0.0,0.0,0.0,0.0,0.0,0.0
1737286272.0956907,20990,1737286272,94544736,base_link,449000.0,-12000.00000000007,-561000.0,-1.0,0.0,0.0,0.0,0.0,0.0,0.0,0.0,0.0
1737286272.1895018,20991,1737286272,188250896,base_link,446000.0,-18000.000000000073,-583000.0,-1.0,0.0,0.0,0.0,0.0,0.0,0.0,0.0,0.0
1737286272.2912722,20992,1737286272,289752008,base_link,447000.0,-6.649832119370128e-11,-543000.0,-1.0,0.0,0.0,0.0,0.0,0.0,0.0,0.0,0.0
1737286272.3900733,20993,1737286272,389210472,base_link,431000.0,-26000.00000000007,-561000.0,-1.0,0.0,0.0,0.0,0.0,0.0,0.0,0.0,0.0
1737286272.4890819,20994,1737286272,488065400,base_link,407000.0,-25000.00000000007,-565000.0,-1.0,0.0,0.0,0.0,0.0,0.0,0.0,0.0,0.0
1737286272.5901272,20995,1737286272,588317048,base_link,453000.0,-16000.00000000007,-566000.0,-1.0,0.0,0.0,0.0,0.0,0.0,0.0,0.0,0.0
1737286272.6932938,20996,1737286272,691785976,base_link,453000.0,-16000.000000000065,-542000.0,-1.0,0.0,0.0,0.0,0.0,0.0,0.0,0.0,0.0
1737286272.795086,20997,1737286272,793235088,base_link,479000.0,-17000.00000000007,-559000.0,-1.0,0.0,0.0,0.0,0.0,0.0,0.0,0.0,0.0
1737286272.901263,20998,1737286272,899948688,base_link,474000.0,-13000.000000000065,-535000.0,-1.0,0.0,0.0,0.0,0.0,0.0,0.0,0.0,0.0
1737286272.9926057,20999,1737286272,991790824,base_link,459000.0,-35000.000000000065,-528000.0,-1.0,0.0,0.0,0.0,0.0,0.0,0.0,0.0,0.0
1737286273.0909548,21000,1737286273,89330656,base_link,457000.0,-15000.000000000067,-556000.0,-1.0,0.0,0.0,0.0,0.0,0.0,0.0,0.0,0.0
1737286273.1961036,21001,1737286273,194865072,base_link,439000.0,-25000.00000000007,-569000.0,-1.0,0.0,0.0,0.0,0.0,0.0,0.0,0.0,0.0
1737286273.2886443,21002,1737286273,287239976,base_link,420000.0,-21000.000000000062,-519000.0,-1.0,0.0,0.0,0.0,0.0,0.0,0.0,0.0,0.0
1737286273.397465,21003,1737286273,395815904,base_link,456000.0,-19000.000000000065,-530000.0,-1.0,0.0,0.0,0.0,0.0,0.0,0.0,0.0,0.0
1737286273.4962063,21004,1737286273,494402832,base_link,443000.0,-20000.000000000065,-545000.0,-1.0,0.0,0.0,0.0,0.0,0.0,0.0,0.0,0.0
1737286273.5872083,21005,1737286273,585982176,base_link,457000.0,-39000.000000000065,-555000.0,-1.0,0.0,0.0,0.0,0.0,0.0,0.0,0.0,0.0
1737286273.6936927,21006,1737286273,692140616,base_link,475000.0,-14000.000000000065,-536000.0,-1.0,0.0,0.0,0.0,0.0,0.0,0.0,0.0,0.0
1737286273.7899327,21007,1737286273,788920312,base_link,482000.0,-14000.000000000065,-542000.0,-1.0,0.0,0.0,0.0,0.0,0.0,0.0,0.0,0.0
1737286273.8920279,21008,1737286273,890986960,base_link,477000.0,-32000.000000000062,-494000.0,-1.0,0.0,0.0,0.0,0.0,0.0,0.0,0.0,0.0
1737286273.9896607,21009,1737286273,988291816,base_link,491000.0,-18000.000000000062,-512000.0,-1.0,0.0,0.0,0.0,0.0,0.0,0.0,0.0,0.0
1737286274.0889797,21010,1737286274,87437840,base_link,472000.0,-9000.000000000065,-535000.0,-1.0,0.0,0.0,0.0,0.0,0.0,0.0,0.0,0.0
1737286274.188208,21011,1737286274,187357720,base_link,484000.0,-23000.00000000007,-568000.0,-1.0,0.0,0.0,0.0,0.0,0.0,0.0,0.0,0.0
1737286274.2952747,21012,1737286274,293832648,base_link,462000.0,-22000.000000000065,-538000.0,-1.0,0.0,0.0,0.0,0.0,0.0,0.0,0.0,0.0
1737286274.3888905,21013,1737286274,387937784,base_link,478000.0,-36000.00000000007,-567000.0,-1.0,0.0,0.0,0.0,0.0,0.0,0.0,0.0,0.0
1737286274.4953446,21014,1737286274,493883664,base_link,480000.0,-16000.00000000007,-557000.0,-1.0,0.0,0.0,0.0,0.0,0.0,0.0,0.0,0.0
1737286274.5897744,21015,1737286274,588396776,base_link,454000.0,-34000.000000000065,-512000.0,-1.0,0.0,0.0,0.0,0.0,0.0,0.0,0.0,0.0
1737286274.6864278,21016,1737286274,685001960,base_link,470000.0,-10000.00000000006,-493000.0,-1.0,0.0,0.0,0.0,0.0,0.0,0.0,0.0,0.0
1737286274.7877643,21017,1737286274,786613584,base_link,452000.0,-38000.000000000065,-512000.0,-1.0,0.0,0.0,0.0,0.0,0.0,0.0,0.0,0.0
1737286274.8893695,21018,1737286274,888386672,base_link,463000.0,-19000.00000000007,-566000.0,-1.0,0.0,0.0,0.0,0.0,0.0,0.0,0.0,0.0
1737286274.9892428,21019,1737286274,987681784,base_link,459000.0,-11000.000000000062,-509000.0,-1.0,0.0,0.0,0.0,0.0,0.0,0.0,0.0,0.0
1737286275.0903347,21020,1737286275,89318224,base_link,468000.0,-6000.000000000062,-508000.0,-1.0,0.0,0.0,0.0,0.0,0.0,0.0,0.0,0.0
1737286275.1905262,21021,1737286275,188891104,base_link,443000.0,-8000.0000000000655,-538000.0,-1.0,0.0,0.0,0.0,0.0,0.0,0.0,0.0,0.0
1737286275.2948387,21022,1737286275,293118800,base_link,455000.0,-18000.000000000065,-524000.0,-1.0,0.0,0.0,0.0,0.0,0.0,0.0,0.0,0.0
1737286275.3888512,21023,1737286275,387577240,base_link,455000.0,-21000.00000000007,-568000.0,-1.0,0.0,0.0,0.0,0.0,0.0,0.0,0.0,0.0
1737286275.4974606,21024,1737286275,494202864,base_link,454000.0,-17000.000000000065,-538000.0,-1.0,0.0,0.0,0.0,0.0,0.0,0.0,0.0,0.0
1737286275.5902863,21025,1737286275,587649976,base_link,454000.0,-17000.000000000065,-538000.0,-1.0,0.0,0.0,0.0,0.0,0.0,0.0,0.0,0.0
1737286275.6904166,21026,1737286275,689147112,base_link,459000.0,-48000.000000000065,-528000.0,-1.0,0.0,0.0,0.0,0.0,0.0,0.0,0.0,0.0
1737286275.7856472,21027,1737286275,784071272,base_link,437000.0,-17000.00000000006,-478000.0,-1.0,0.0,0.0,0.0,0.0,0.0,0.0,0.0,0.0
1737286275.8944767,21028,1737286275,893357128,base_link,453000.0,-33000.000000000065,-559000.0,-1.0,0.0,0.0,0.0,0.0,0.0,0.0,0.0,0.0
1737286275.987035,21029,1737286275,984917264,base_link,423000.0,-26000.000000000062,-504000.0,-1.0,0.0,0.0,0.0,0.0,0.0,0.0,0.0,0.0
1737286276.0905194,21030,1737286276,89085048,base_link,462000.0,-26000.00000000007,-554000.0,-1.0,0.0,0.0,0.0,0.0,0.0,0.0,0.0,0.0
1737286276.1894538,21031,1737286276,188279696,base_link,453000.0,-31000.000000000065,-529000.0,-1.0,0.0,0.0,0.0,0.0,0.0,0.0,0.0,0.0
1737286276.2963967,21032,1737286276,294933112,base_link,447000.0,-28000.000000000065,-533000.0,-1.0,0.0,0.0,0.0,0.0,0.0,0.0,0.0,0.0
1737286276.389454,21033,1737286276,388556224,base_link,463000.0,-31000.000000000065,-533000.0,-1.0,0.0,0.0,0.0,0.0,0.0,0.0,0.0,0.0
1737286276.494662,21034,1737286276,493100360,base_link,440000.0,-19000.000000000065,-539000.0,-1.0,0.0,0.0,0.0,0.0,0.0,0.0,0.0,0.0
1737286276.5887475,21035,1737286276,587157824,base_link,466000.0,-21000.000000000065,-536000.0,-1.0,0.0,0.0,0.0,0.0,0.0,0.0,0.0,0.0
1737286276.7000246,21036,1737286276,699039936,base_link,462000.0,-28000.000000000065,-543000.0,-1.0,0.0,0.0,0.0,0.0,0.0,0.0,0.0,0.0
1737286276.7893777,21037,1737286276,788512624,base_link,454000.0,-19000.000000000065,-536000.0,-1.0,0.0,0.0,0.0,0.0,0.0,0.0,0.0,0.0
1737286276.8882236,21038,1737286276,887294336,base_link,471000.0,-11000.000000000064,-521000.0,-1.0,0.0,0.0,0.0,0.0,0.0,0.0,0.0,0.0
1737286276.987279,21039,1737286276,986734624,base_link,460000.0,-6.662078587361602e-11,-544000.0,-1.0,0.0,0.0,0.0,0.0,0.0,0.0,0.0,0.0
1737286277.0894568,21040,1737286277,88066456,base_link,458000.0,-8000.000000000066,-543000.0,-1.0,0.0,0.0,0.0,0.0,0.0,0.0,0.0,0.0
1737286277.1887586,21041,1737286277,187027008,base_link,461000.0,-33000.000000000065,-551000.0,-1.0,0.0,0.0,0.0,0.0,0.0,0.0,0.0,0.0
1737286277.2904506,21042,1737286277,289503912,base_link,450000.0,-16000.000000000065,-528000.0,-1.0,0.0,0.0,0.0,0.0,0.0,0.0,0.0,0.0
1737286277.3869789,21043,1737286277,385803304,base_link,455000.0,-16000.000000000071,-575000.0,-1.0,0.0,0.0,0.0,0.0,0.0,0.0,0.0,0.0
1737286277.4954872,21044,1737286277,494305416,base_link,443000.0,-21000.000000000065,-548000.0,-1.0,0.0,0.0,0.0,0.0,0.0,0.0,0.0,0.0
1737286277.5896404,21045,1737286277,588269736,base_link,452000.0,-13000.000000000071,-578000.0,-1.0,0.0,0.0,0.0,0.0,0.0,0.0,0.0,0.0
1737286277.6917858,21046,1737286277,690512104,base_link,464000.0,-8000.000000000068,-560000.0,-1.0,0.0,0.0,0.0,0.0,0.0,0.0,0.0,0.0
1737286277.7917998,21047,1737286277,789859656,base_link,464000.0,-9000.00000000007,-559000.0,-1.0,0.0,0.0,0.0,0.0,0.0,0.0,0.0,0.0
1737286277.8930192,21048,1737286277,891493120,base_link,478000.0,-16000.000000000071,-580000.0,-1.0,0.0,0.0,0.0,0.0,0.0,0.0,0.0,0.0
1737286277.9877517,21049,1737286277,985816416,base_link,446000.0,-26000.000000000065,-537000.0,-1.0,0.0,0.0,0.0,0.0,0.0,0.0,0.0,0.0
1737286278.096165,21050,1737286278,94760040,base_link,467000.0,-26000.000000000065,-526000.0,-1.0,0.0,0.0,0.0,0.0,0.0,0.0,0.0,0.0
1737286278.1928415,21051,1737286278,191629176,base_link,463000.0,-11000.000000000067,-549000.0,-1.0,0.0,0.0,0.0,0.0,0.0,0.0,0.0,0.0
1737286278.2952013,21052,1737286278,293823336,base_link,455000.0,-19000.00000000007,-552000.0,-1.0,0.0,0.0,0.0,0.0,0.0,0.0,0.0,0.0
1737286278.395864,21053,1737286278,394637752,base_link,471000.0,-19000.000000000073,-594000.0,-1.0,0.0,0.0,0.0,0.0,0.0,0.0,0.0,0.0
1737286278.494857,21054,1737286278,493700960,base_link,449000.0,-22000.00000000007,-554000.0,-1.0,0.0,0.0,0.0,0.0,0.0,0.0,0.0,0.0
1737286278.592046,21055,1737286278,590583656,base_link,470000.0,-26000.000000000073,-580000.0,-1.0,0.0,0.0,0.0,0.0,0.0,0.0,0.0,0.0
1737286278.68784,21056,1737286278,686732816,base_link,462000.0,-19000.000000000065,-548000.0,-1.0,0.0,0.0,0.0,0.0,0.0,0.0,0.0,0.0
1737286278.7869143,21057,1737286278,785645208,base_link,454000.0,-13000.000000000065,-533000.0,-1.0,0.0,0.0,0.0,0.0,0.0,0.0,0.0,0.0
1737286278.8939645,21058,1737286278,892798880,base_link,471000.0,-17000.000000000065,-522000.0,-1.0,0.0,0.0,0.0,0.0,0.0,0.0,0.0,0.0
1737286278.9887655,21059,1737286278,987033808,base_link,478000.0,-9000.000000000067,-554000.0,-1.0,0.0,0.0,0.0,0.0,0.0,0.0,0.0,0.0
1737286279.0889616,21060,1737286279,87791200,base_link,471000.0,-24000.00000000007,-563000.0,-1.0,0.0,0.0,0.0,0.0,0.0,0.0,0.0,0.0
1737286279.1870942,21061,1737286279,185701544,base_link,471000.0,-26000.000000000065,-535000.0,-1.0,0.0,0.0,0.0,0.0,0.0,0.0,0.0,0.0
1737286279.2861385,21062,1737286279,284676728,base_link,472000.0,-10000.00000000007,-558000.0,-1.0,0.0,0.0,0.0,0.0,0.0,0.0,0.0,0.0
1737286279.3881779,21063,1737286279,386904864,base_link,497000.0,-1000.0000000000708,-578000.0,-1.0,0.0,0.0,0.0,0.0,0.0,0.0,0.0,0.0
1737286279.4895308,21064,1737286279,488610488,base_link,469000.0,-13000.000000000075,-602000.0,-1.0,0.0,0.0,0.0,0.0,0.0,0.0,0.0,0.0
1737286279.5897987,21065,1737286279,588782256,base_link,481000.0,-7.115197903046122e-11,-581000.0,-1.0,0.0,0.0,0.0,0.0,0.0,0.0,0.0,0.0
1737286279.6941683,21066,1737286279,692566952,base_link,479000.0,-5000.000000000068,-557000.0,-1.0,0.0,0.0,0.0,0.0,0.0,0.0,0.0,0.0
1737286279.799838,21067,1737286279,788925808,base_link,475000.0,-12000.00000000007,-566000.0,-1.0,0.0,0.0,0.0,0.0,0.0,0.0,0.0,0.0
1737286279.9000971,21068,1737286279,898906712,base_link,481000.0,-9000.000000000071,-576000.0,-1.0,0.0,0.0,0.0,0.0,0.0,0.0,0.0,0.0
1737286279.9890358,21069,1737286279,987549848,base_link,461000.0,-5000.000000000067,-552000.0,-1.0,0.0,0.0,0.0,0.0,0.0,0.0,0.0,0.0
1737286280.0934415,21070,1737286280,91393216,base_link,454000.0,-11000.00000000007,-571000.0,-1.0,0.0,0.0,0.0,0.0,0.0,0.0,0.0,0.0
1737286280.1890972,21071,1737286280,187911632,base_link,441000.0,-8000.000000000065,-526000.0,-1.0,0.0,0.0,0.0,0.0,0.0,0.0,0.0,0.0
1737286280.288052,21072,1737286280,286977208,base_link,458000.0,-33000.000000000065,-545000.0,-1.0,0.0,0.0,0.0,0.0,0.0,0.0,0.0,0.0
1737286280.390156,21073,1737286280,388511856,base_link,458000.0,-44000.000000000065,-517000.0,-1.0,0.0,0.0,0.0,0.0,0.0,0.0,0.0,0.0
1737286280.4889681,21074,1737286280,487892712,base_link,462000.0,-59000.000000000065,-521000.0,-1.0,0.0,0.0,0.0,0.0,0.0,0.0,0.0,0.0
1737286280.591128,21075,1737286280,589525872,base_link,478000.0,-94000.00000000006,-519000.0,-1.0,0.0,0.0,0.0,0.0,0.0,0.0,0.0,0.0
1737286280.6955228,21076,1737286280,693623800,base_link,485000.0,-87000.00000000006,-514000.0,-1.0,0.0,0.0,0.0,0.0,0.0,0.0,0.0,0.0
1737286280.789446,21077,1737286280,788068728,base_link,473000.0,-95000.00000000006,-496000.0,-1.0,0.0,0.0,0.0,0.0,0.0,0.0,0.0,0.0
1737286280.8983889,21078,1737286280,897209328,base_link,479000.0,-99000.00000000006,-491000.0,-1.0,0.0,0.0,0.0,0.0,0.0,0.0,0.0,0.0
1737286280.9881735,21079,1737286280,986504064,base_link,479000.0,-99000.00000000006,-491000.0,-1.0,0.0,0.0,0.0,0.0,0.0,0.0,0.0,0.0
1737286281.090986,21080,1737286281,90068200,base_link,494000.0,-79000.00000000006,-511000.0,-1.0,0.0,0.0,0.0,0.0,0.0,0.0,0.0,0.0
1737286281.1896253,21081,1737286281,187423824,base_link,447000.0,-51000.000000000065,-526000.0,-1.0,0.0,0.0,0.0,0.0,0.0,0.0,0.0,0.0
1737286281.290253,21082,1737286281,288460888,base_link,466000.0,-38000.000000000065,-525000.0,-1.0,0.0,0.0,0.0,0.0,0.0,0.0,0.0,0.0
1737286281.3907309,21083,1737286281,388505256,base_link,455000.0,2999.999999999934,-539000.0,-1.0,0.0,0.0,0.0,0.0,0.0,0.0,0.0,0.0
1737286281.490942,21084,1737286281,490045648,base_link,458000.0,-3000.0000000000687,-561000.0,-1.0,0.0,0.0,0.0,0.0,0.0,0.0,0.0,0.0
1737286281.5924373,21085,1737286281,591299224,base_link,473000.0,16999.99999999993,-556000.0,-1.0,0.0,0.0,0.0,0.0,0.0,0.0,0.0,0.0
1737286281.6938944,21086,1737286281,693119152,base_link,479000.0,-6.649832119370128e-11,-543000.0,-1.0,0.0,0.0,0.0,0.0,0.0,0.0,0.0,0.0
1737286281.7864401,21087,1737286281,784663216,base_link,500000.0,-4000.0000000000655,-536000.0,-1.0,0.0,0.0,0.0,0.0,0.0,0.0,0.0,0.0
1737286281.8918846,21088,1737286281,890995816,base_link,471000.0,-19000.000000000065,-524000.0,-1.0,0.0,0.0,0.0,0.0,0.0,0.0,0.0,0.0
1737286281.989172,21089,1737286281,987975904,base_link,458000.0,-36000.000000000065,-546000.0,-1.0,0.0,0.0,0.0,0.0,0.0,0.0,0.0,0.0
1737286282.0893993,21090,1737286282,87773528,base_link,463000.0,-45000.000000000065,-543000.0,-1.0,0.0,0.0,0.0,0.0,0.0,0.0,0.0,0.0
1737286282.189038,21091,1737286282,187338504,base_link,458000.0,-22000.000000000065,-526000.0,-1.0,0.0,0.0,0.0,0.0,0.0,0.0,0.0,0.0
1737286282.29081,21092,1737286282,288504504,base_link,471000.0,-45000.000000000065,-557000.0,-1.0,0.0,0.0,0.0,0.0,0.0,0.0,0.0,0.0
1737286282.3893878,21093,1737286282,387617800,base_link,481000.0,-47000.000000000065,-529000.0,-1.0,0.0,0.0,0.0,0.0,0.0,0.0,0.0,0.0
1737286282.4905927,21094,1737286282,488815816,base_link,462000.0,-51000.00000000006,-488000.0,-1.0,0.0,0.0,0.0,0.0,0.0,0.0,0.0,0.0
1737286282.5895193,21095,1737286282,587849648,base_link,473000.0,-61000.00000000006,-491000.0,-1.0,0.0,0.0,0.0,0.0,0.0,0.0,0.0,0.0
1737286282.6913667,21096,1737286282,690326016,base_link,449000.0,-60000.000000000065,-514000.0,-1.0,0.0,0.0,0.0,0.0,0.0,0.0,0.0,0.0
1737286282.7905972,21097,1737286282,789200128,base_link,446000.0,-54000.000000000065,-520000.0,-1.0,0.0,0.0,0.0,0.0,0.0,0.0,0.0,0.0
1737286282.8958185,21098,1737286282,893836960,base_link,463000.0,-50000.000000000065,-512000.0,-1.0,0.0,0.0,0.0,0.0,0.0,0.0,0.0,0.0
1737286282.989534,21099,1737286282,987849376,base_link,461000.0,-58000.000000000065,-543000.0,-1.0,0.0,0.0,0.0,0.0,0.0,0.0,0.0,0.0
1737286283.0966604,21100,1737286283,92335464,base_link,452000.0,-54000.000000000065,-512000.0,-1.0,0.0,0.0,0.0,0.0,0.0,0.0,0.0,0.0
1737286283.1897602,21101,1737286283,188392344,base_link,440000.0,-61000.00000000006,-491000.0,-1.0,0.0,0.0,0.0,0.0,0.0,0.0,0.0,0.0
1737286283.2893777,21102,1737286283,288271456,base_link,448000.0,-53000.00000000006,-495000.0,-1.0,0.0,0.0,0.0,0.0,0.0,0.0,0.0,0.0
1737286283.3909824,21103,1737286283,389452800,base_link,446000.0,-50000.000000000065,-563000.0,-1.0,0.0,0.0,0.0,0.0,0.0,0.0,0.0,0.0
1737286283.4972575,21104,1737286283,495971888,base_link,427000.0,13999.999999999936,-521000.0,-1.0,0.0,0.0,0.0,0.0,0.0,0.0,0.0,0.0
1737286283.5964656,21105,1737286283,593737720,base_link,447000.0,-10000.000000000071,-582000.0,-1.0,0.0,0.0,0.0,0.0,0.0,0.0,0.0,0.0
1737286283.6942577,21106,1737286283,692720088,base_link,444000.0,-14000.000000000067,-555000.0,-1.0,0.0,0.0,0.0,0.0,0.0,0.0,0.0,0.0
1737286283.7985792,21107,1737286283,797503016,base_link,456000.0,-6.58859977941276e-11,-538000.0,-1.0,0.0,0.0,0.0,0.0,0.0,0.0,0.0,0.0
1737286283.9041307,21108,1737286283,902179712,base_link,462000.0,-6000.000000000065,-525000.0,-1.0,0.0,0.0,0.0,0.0,0.0,0.0,0.0,0.0
1737286283.9917023,21109,1737286283,990222616,base_link,449000.0,-31000.000000000065,-549000.0,-1.0,0.0,0.0,0.0,0.0,0.0,0.0,0.0,0.0
1737286284.0875995,21110,1737286284,86057496,base_link,443000.0,-6.478381567489499e-11,-529000.0,-1.0,0.0,0.0,0.0,0.0,0.0,0.0,0.0,0.0
1737286284.1887376,21111,1737286284,187673168,base_link,473000.0,-11000.000000000067,-555000.0,-1.0,0.0,0.0,0.0,0.0,0.0,0.0,0.0,0.0
1737286284.2864234,21112,1737286284,283961512,base_link,473000.0,-20000.000000000073,-580000.0,-1.0,0.0,0.0,0.0,0.0,0.0,0.0,0.0,0.0
1737286284.3920743,21113,1737286284,390405184,base_link,450000.0,-9000.000000000071,-575000.0,-1.0,0.0,0.0,0.0,0.0,0.0,0.0,0.0,0.0
1737286284.4942083,21114,1737286284,492456112,base_link,455000.0,3999.999999999928,-588000.0,-1.0,0.0,0.0,0.0,0.0,0.0,0.0,0.0,0.0
1737286284.5889964,21115,1737286284,586745992,base_link,449000.0,25999.99999999993,-560000.0,-1.0,0.0,0.0,0.0,0.0,0.0,0.0,0.0,0.0
1737286284.6945088,21116,1737286284,693137616,base_link,456000.0,63999.99999999993,-566000.0,-1.0,0.0,0.0,0.0,0.0,0.0,0.0,0.0,0.0
1737286284.7887635,21117,1737286284,787459056,base_link,481000.0,47999.99999999993,-577000.0,-1.0,0.0,0.0,0.0,0.0,0.0,0.0,0.0,0.0
1737286284.890311,21118,1737286284,888847704,base_link,469000.0,47999.999999999935,-552000.0,-1.0,0.0,0.0,0.0,0.0,0.0,0.0,0.0,0.0
1737286284.9878972,21119,1737286284,986354864,base_link,484000.0,55999.99999999993,-571000.0,-1.0,0.0,0.0,0.0,0.0,0.0,0.0,0.0,0.0
1737286285.0870423,21120,1737286285,85382208,base_link,470000.0,35999.99999999993,-572000.0,-1.0,0.0,0.0,0.0,0.0,0.0,0.0,0.0,0.0
1737286285.1888423,21121,1737286285,187658160,base_link,473000.0,9999.999999999933,-548000.0,-1.0,0.0,0.0,0.0,0.0,0.0,0.0,0.0,0.0
1737286285.292844,21122,1737286285,291481808,base_link,469000.0,-5000.000000000066,-542000.0,-1.0,0.0,0.0,0.0,0.0,0.0,0.0,0.0,0.0
1737286285.3887534,21123,1737286285,388119224,base_link,439000.0,-12000.000000000065,-538000.0,-1.0,0.0,0.0,0.0,0.0,0.0,0.0,0.0,0.0
1737286285.4914465,21124,1737286285,489258032,base_link,416000.0,-37000.00000000007,-598000.0,-1.0,0.0,0.0,0.0,0.0,0.0,0.0,0.0,0.0
