Time,header.seq,header.stamp.secs,header.stamp.nsecs,header.frame_id,pose.position.x,pose.position.y,pose.position.z,pose.orientation.x,pose.orientation.y,pose.orientation.z,pose.orientation.w
1737286240.2992783,874,1737286240,297335872,map,-18.803197860717773,-11.682640075683594,3.0436997413635254,0.007863200989033535,-0.0030317258518830843,-0.6881855827332238,-0.7254857561845707
1737286240.3989468,875,1737286240,397330752,map,-18.804019927978516,-11.70022201538086,3.15274977684021,0.006557307530820901,-0.003867030555678818,-0.6837283422231119,-0.7296969246430074
1737286240.498929,876,1737286240,497325632,map,-18.804317474365234,-11.718022346496582,3.2547545433044434,0.009027953316749259,-0.006088818349844838,-0.6828215438472863,-0.7305040462639625
1737286240.5969841,877,1737286240,595319744,map,-18.802127838134766,-11.736532211303711,3.3506593704223633,0.00860896596552964,-0.007107218805410413,-0.6826436184706388,-0.7306661777495723
1737286240.6991634,878,1737286240,697313856,map,-18.799142837524414,-11.753946304321289,3.440061092376709,0.012341244584286766,-0.007253233220148222,-0.6850769646213392,-0.7283300329075943
1737286240.7975047,879,1737286240,795308224,map,-18.792667388916016,-11.768630027770996,3.5230023860931396,0.013500346233699086,-0.007739588553904812,-0.6895924845649897,-0.7240304169384536
1737286240.9014816,880,1737286240,900302336,map,-18.789684295654297,-11.782285690307617,3.599667549133301,0.013877496733065734,-0.0061429612017695765,-0.6905332784381603,-0.7231413903805697
1737286240.9945467,881,1737286240,993296960,map,-18.793190002441406,-11.790016174316406,3.669768810272217,0.018066059503453684,-0.006897283692453594,-0.6933306853207349,-0.7203600528654843
1737286241.100888,882,1737286241,97291840,map,-18.796768188476562,-11.798319816589355,3.7457096576690674,0.014822688730014652,-0.0077248355829138285,-0.6929223720644156,-0.7208184245055429
1737286241.1978498,883,1737286241,195286208,map,-18.800413131713867,-11.804058074951172,3.8034136295318604,0.013644192532174696,-0.008490429799664335,-0.6886672986464459,-0.7248993725938578
1737286241.3002012,884,1737286241,297280832,map,-18.803022384643555,-11.810800552368164,3.8616976737976074,0.00981424969583099,-0.008193388678816341,-0.6851323802038077,-0.7283063713034035
1737286241.398387,885,1737286241,395275456,map,-18.802968978881836,-11.819171905517578,3.904181957244873,0.011922275865178694,-0.009892929234796802,-0.6838619799139238,-0.7294469012324051
1737286241.5018888,886,1737286241,500270080,map,-18.804479598999023,-11.826170921325684,3.938258409500122,0.011250815840980382,-0.009426917549515867,-0.6872049560713677,-0.7263152901594296
1737286241.599103,887,1737286241,596265984,map,-18.81092643737793,-11.8242769241333,3.9495322704315186,0.010742004469953489,-0.009569768898243883,-0.7199700038568431,-0.6938560530899612
1737286241.7002425,888,1737286241,698259328,map,-18.816587448120117,-11.823187828063965,3.9471242427825928,0.007252540210753839,-0.00989229313197095,-0.7570992166121686,-0.6531847513547168
1737286241.7995467,889,1737286241,797253440,map,-18.82150650024414,-11.818208694458008,3.941249370574951,0.008239595037918329,-0.011829690198845668,-0.7650728065974917,-0.6437823918906508
1737286241.903956,890,1737286241,901249344,map,-18.825563430786133,-11.813504219055176,3.920536994934082,0.0074489665033012735,-0.010624755303007263,-0.7517271936326575,-0.6593465354621596
1737286242.0006135,891,1737286241,998245504,map,-18.833721160888672,-11.806288719177246,3.8933186531066895,0.007931646199114312,-0.007903451167701041,-0.7267405777919936,-0.6868207604890604
1737286242.1036465,892,1737286242,101243712,map,-18.840723037719727,-11.8002347946167,3.8676934242248535,0.01041024855648928,-0.010196692781063926,-0.7003653726010561,-0.7136357607650449
1737286242.199773,893,1737286242,198239872,map,-18.852540969848633,-11.792805671691895,3.8499457836151123,0.00909060930715501,-0.010450929092290033,-0.6803578696523347,-0.7327491440497692
1737286242.3007433,894,1737286242,299237056,map,-18.863618850708008,-11.786099433898926,3.8343617916107178,0.0028483507966262315,-0.010398714686756943,-0.6707186578587357,-0.7416334914435696
1737286242.396687,895,1737286242,395231936,map,-18.876609802246094,-11.777103424072266,3.8246817588806152,0.00032432349528317597,-0.010176378122973395,-0.6726939776976512,-0.7398507609726983
1737286242.5020578,896,1737286242,499229120,map,-18.88691520690918,-11.76947021484375,3.817610263824463,0.0011013427395944846,-0.010707998906885124,-0.6802209264896801,-0.7329281117334094
1737286242.6020021,897,1737286242,600224000,map,-18.898515701293945,-11.754311561584473,3.8131229877471924,0.001008811930885923,-0.010738405423921321,-0.6899682749401249,-0.7237592476256092
1737286242.7067654,898,1737286242,704220160,map,-18.908390045166016,-11.73981761932373,3.8112120628356934,0.0009508612720693009,-0.00947893534408158,-0.6980350184713011,-0.7160002504436392
1737286242.7991607,899,1737286242,796215552,map,-18.917343139648438,-11.724603652954102,3.8130178451538086,-0.002664045755063865,-0.00928028753439124,-0.7033105568236014,-0.7108171633999629
1737286242.9048243,900,1737286242,901209920,map,-18.92313575744629,-11.712199211120605,3.8170907497406006,0.004356196354110789,-0.007966957621285409,-0.7045998376286133,-0.7095467708004292
1737286242.9987936,901,1737286242,997207104,map,-18.93048667907715,-11.69538688659668,3.8207294940948486,0.002309605132545387,-0.007609418860758359,-0.6983826620563789,-0.715680389425181
1737286243.0996904,902,1737286243,98199680,map,-18.93497657775879,-11.681278228759766,3.822971820831299,0.002990543632855849,-0.007023565808645161,-0.6895505047723509,-0.7241973678081878
1737286243.1999354,903,1737286243,197195840,map,-18.93707275390625,-11.666191101074219,3.826547861099243,-0.0017619127773220093,-0.0074825142321871315,-0.6845537561852051,-0.7289218494028403
1737286243.2959378,904,1737286243,294188160,map,-18.93874168395996,-11.653053283691406,3.829763650894165,-0.0018479275547216077,-0.004869193580132126,-0.6849398383784193,-0.7285810139715257
1737286243.3971238,905,1737286243,395184320,map,-18.942285537719727,-11.636469841003418,3.829707145690918,-0.002290051245097649,-0.004308412763620009,-0.6868910416355283,-0.726744033457181
1737286243.5009005,906,1737286243,499177664,map,-18.945188522338867,-11.621562957763672,3.831479787826538,-0.006313661446401783,-0.0031582349993407657,-0.6898452644642898,-0.7239224228652011
1737286243.5989044,907,1737286243,597172800,map,-18.95050048828125,-11.604278564453125,3.832254648208618,-0.004445566251050513,-0.005076156986671885,-0.6894356946576967,-0.7243154647685034
1737286243.6998825,908,1737286243,698165632,map,-18.95367431640625,-11.589912414550781,3.829435110092163,-0.003512193022533299,-0.0043314522795493094,-0.6896976571326251,-0.7240759937790302
1737286243.7989385,909,1737286243,797161792,map,-18.95562171936035,-11.571066856384277,3.826841354370117,-0.008403316785129775,-0.0044089312058894796,-0.6924991873572068,-0.7213562373073646
1737286243.9032977,910,1737286243,901154112,map,-18.954050064086914,-11.55892562866211,3.828428268432617,-0.008666605331157895,-0.0015272788302246876,-0.6955324080074431,-0.7184408303978669
1737286243.9970906,911,1737286243,995145152,map,-18.951303482055664,-11.546335220336914,3.8298304080963135,-0.00866449943501456,-0.0006483759547768785,-0.6975631961074759,-0.7164705810390857
1737286244.1015244,912,1737286244,99142336,map,-18.946372985839844,-11.53729248046875,3.831688642501831,-0.00013586499828242,-0.0015907988323911593,-0.6991939198182461,-0.7149302856845368
1737286244.198973,913,1737286244,197142336,map,-18.941789627075195,-11.531343460083008,3.8353219032287598,-0.003275604467142627,-0.0003503109440422147,-0.6990064725688149,-0.7151077534221819
1737286244.3040535,914,1737286244,302132352,map,-18.935976028442383,-11.526885032653809,3.833456516265869,0.0011237665581987964,0.0007023447415375858,-0.6954398725898878,-0.7185830692917466
1737286244.3998592,915,1737286244,398132352,map,-18.92652702331543,-11.520913124084473,3.826955795288086,0.0011515976186187138,0.0001419664776886963,-0.6923787763690592,-0.7215332866210181
1737286244.5040505,916,1737286244,502132352,map,-18.91616439819336,-11.520424842834473,3.8161392211914062,0.0039011005787266133,0.0022295750865151784,-0.6891731940731373,-0.7245827205918163
1737286244.5948591,917,1737286244,593121344,map,-18.91023063659668,-11.511544227600098,3.8092610836029053,0.0056922001625369905,0.0014953484125083706,-0.6895756525191375,-0.7241897418793231
1737286244.7037547,918,1737286244,702114432,map,-18.901962280273438,-11.510754585266113,3.8070688247680664,0.002950264811671728,0.003247742848344482,-0.6919230570895828,-0.7219579150973676
1737286244.795854,919,1737286244,794103680,map,-18.8991641998291,-11.502676010131836,3.8055567741394043,-0.0010638655452242453,0.004258246399782087,-0.6919884237888271,-0.7218952533920384
1737286244.8999276,920,1737286244,898099584,map,-18.895681381225586,-11.500714302062988,3.8033223152160645,-0.003526299091012579,0.0038724257720906185,-0.6919688015011399,-0.7219084064356338
1737286244.9959033,921,1737286244,994099584,map,-18.895668029785156,-11.49532699584961,3.799586534500122,-0.00032628830539767963,0.001804606936942539,-0.6926353528991218,-0.7212855917346847
1737286245.1031013,922,1737286245,101098304,map,-18.89431381225586,-11.493955612182617,3.798274040222168,0.002212060768110043,-5.52945150789558e-05,-0.6946258230324956,-0.719367826432419
1737286245.198997,923,1737286245,197094208,map,-18.892900466918945,-11.490336418151855,3.7997920513153076,0.0009453061550822978,-0.0005170762798124793,-0.6956643522129884,-0.7183661657459081
1737286245.3008614,924,1737286245,299090624,map,-18.889341354370117,-11.492173194885254,3.803293228149414,0.000971740965814166,0.0007112535591934165,-0.6965226297315769,-0.7175338153074589
1737286245.396192,925,1737286245,395086784,map,-18.883743286132812,-11.49292278289795,3.805665969848633,-0.0010360239985295794,0.0007369000310355641,-0.694816936174152,-0.7191855176782853
1737286245.5049171,926,1737286245,503083456,map,-18.876136779785156,-11.50147533416748,3.808941602706909,-0.0031735932573485,0.0010674386598202466,-0.6943927090606169,-0.7195884618891564
1737286245.5996518,927,1737286245,597077824,map,-18.870010375976562,-11.502299308776855,3.8108203411102295,0.003764856980398213,0.0004376995743002469,-0.6947389123599463,-0.7192520267082457
1737286245.7022212,928,1737286245,701071424,map,-18.86298942565918,-11.51037883758545,3.8140945434570312,0.005402333783099331,-0.0006843473065585711,-0.6936006351308083,-0.7203391599827118
1737286245.7996132,929,1737286245,797067328,map,-18.860618591308594,-11.513978958129883,3.8186838626861572,0.003182498317662365,0.0004400304785373165,-0.6914430427226383,-0.7224238345653441
1737286245.9095347,930,1737286245,907061952,map,-18.85674285888672,-11.52409553527832,3.82315731048584,0.004593849406223359,-0.0011764666478937342,-0.6911142441257461,-0.722729973116072
1737286246.000654,931,1737286245,998057344,map,-18.852630615234375,-11.531658172607422,3.825061321258545,0.005031854564178262,-0.0014709601660346852,-0.6902345733001769,-0.723566687000554
1737286246.11109,932,1737286246,107051712,map,-18.847877502441406,-11.542845726013184,3.8277359008789062,0.0048817098814855275,-0.0014140823850266654,-0.6896945716810167,-0.7240825692373627
1737286246.2062504,933,1737286246,203048640,map,-18.84514617919922,-11.544302940368652,3.827747344970703,0.009526707069985721,-0.0035185667662688967,-0.6908335301782209,-0.722942525462302
1737286246.307166,934,1737286246,306040704,map,-18.84259605407715,-11.548103332519531,3.8278753757476807,0.010661286586689411,-0.0023514899653602926,-0.6917746840607756,-0.7220308815804719
1737286246.403161,935,1737286246,402034048,map,-18.841724395751953,-11.550086975097656,3.8270792961120605,0.0071520432728329805,-0.002588897175110262,-0.6928810444643734,-0.7210117919357487
1737286246.5128314,936,1737286246,509030720,map,-18.84066390991211,-11.553625106811523,3.826472759246826,0.007662181098011145,-0.001482985287058712,-0.6925116809521634,-0.7213644456724139
1737286246.6040251,937,1737286246,602023296,map,-18.83931541442871,-11.554039001464844,3.8282086849212646,0.003925381358237664,-0.0013872628547173446,-0.6922624712235778,-0.7216337975859981
1737286246.7031024,938,1737286246,702017408,map,-18.837726593017578,-11.557755470275879,3.8232245445251465,0.009290488176770207,-0.006478890490704375,-0.6922072040950555,-0.7216099343872374
1737286246.8031843,939,1737286246,802011264,map,-18.833824157714844,-11.553107261657715,3.826462507247925,0.010915019545514168,-0.005322579873398753,-0.6920205168509919,-0.7217756831239871
1737286246.9072025,940,1737286246,906009216,map,-18.830455780029297,-11.555272102355957,3.831876754760742,0.009856079851859566,-0.0047371153514981085,-0.6925246274490388,-0.7213113459558711
1737286246.995988,941,1737286246,993004096,map,-18.829130172729492,-11.554144859313965,3.8309483528137207,0.010228317486774592,-0.003650109863735556,-0.6921360247908284,-0.7216853756354787
1737286247.1133366,942,1737286247,111992576,map,-18.827556610107422,-11.556268692016602,3.836726427078247,0.007029184620300468,-0.0028206323038724272,-0.6895219228819582,-0.7242252083862776
1737286247.1963882,943,1737286247,194993856,map,-18.82649040222168,-11.55543041229248,3.8463408946990967,0.00808543985757929,-0.0035117428623257893,-0.6884233787885379,-0.7252555031585431
1737286247.2956066,944,1737286247,293992064,map,-18.82522201538086,-11.557250022888184,3.861095666885376,0.00892875308548852,-0.00276546009695746,-0.6898135963262996,-0.7239266757912486
1737286247.4005384,945,1737286247,397992064,map,-18.820024490356445,-11.55053424835205,3.8844332695007324,0.010465174889752042,-0.002052413907627733,-0.6935362914040626,-0.7203427519016056
1737286247.499336,946,1737286247,497986688,map,-18.816001892089844,-11.548480033874512,3.9048736095428467,0.00730312237301413,-0.0005611942875086799,-0.6981448309010777,-0.7159190907851822
1737286247.5984635,947,1737286247,596984896,map,-18.813018798828125,-11.542808532714844,3.9237711429595947,0.005811217606882358,0.0001586225457348402,-0.6994011935811365,-0.7147056562012752
1737286247.6977587,948,1737286247,694980544,map,-18.811120986938477,-11.541728973388672,3.937882661819458,0.006668900081389975,0.0016854462045474267,-0.6962443975889634,-0.7177718466677118
1737286247.7968574,949,1737286247,794974912,map,-18.811086654663086,-11.539074897766113,3.948068141937256,0.004901585484700701,0.000250767658087673,-0.6911563326178554,-0.7226886158350317
1737286247.9037898,950,1737286247,901968256,map,-18.810300827026367,-11.541518211364746,3.9602904319763184,0.0019913165933490985,0.000609732233954568,-0.6887040543517824,-0.7250395771295831
1737286247.9975772,951,1737286247,995962624,map,-18.80787467956543,-11.546120643615723,3.9782350063323975,0.0015331794491799757,0.00045454421850741537,-0.688353789817115,-0.7253733540699886
1737286248.1048362,952,1737286248,102958528,map,-18.804487228393555,-11.551349639892578,3.9992458820343018,0.004832186806116374,0.00041250955805670884,-0.6908174458947174,-0.7230129571826734
1737286248.2018108,953,1737286248,198952128,map,-18.800186157226562,-11.550715446472168,4.020751476287842,0.007190292636801859,-0.0009020924982892282,-0.6944752440822379,-0.7194801048519949
1737286248.3033526,954,1737286248,300945984,map,-18.796554565429688,-11.555885314941406,4.047144412994385,0.006819048737133078,0.0005754338987026629,-0.6966945312632681,-0.7173352769507464
1737286248.3990364,955,1737286248,394941376,map,-18.793088912963867,-11.55984878540039,4.0698933601379395,0.007689104393476006,0.0012098403478261685,-0.6972751308064399,-0.7167613312106207
1737286248.4980087,956,1737286248,494938560,map,-18.790771484375,-11.569077491760254,4.094212055206299,0.007482664284506257,0.0018789635396201064,-0.6930157047954901,-0.7208812052883834
1737286248.6000814,957,1737286248,596933952,map,-18.791446685791016,-11.574569702148438,4.115940570831299,0.010540409294289647,4.631334005736229e-05,-0.6896462817047827,-0.724069681562314
1737286248.7036207,958,1737286248,698929088,map,-18.792661666870117,-11.581197738647461,4.133094310760498,0.010253155195953668,-0.0021879181890724123,-0.6870107328422121,-0.726571633620617
1737286248.799805,959,1737286248,797923200,map,-18.793886184692383,-11.585369110107422,4.156637191772461,0.011289928113534338,-0.004735324634481543,-0.6868662863874405,-0.7266806856165393
1737286248.9054184,960,1737286248,901920896,map,-18.794755935668945,-11.59299373626709,4.182284355163574,0.007715618525655306,-0.0033318568305472887,-0.6882164862433743,-0.7254567085799473
1737286248.996037,961,1737286248,993916800,map,-18.792238235473633,-11.5929594039917,4.207026958465576,0.0038840613008371463,-0.0031298284344507283,-0.6918625769165053,-0.7220119755961358
1737286249.1051524,962,1737286249,100910400,map,-18.79149627685547,-11.59692668914795,4.2311577796936035,0.005983089883258793,-0.0005427413684052034,-0.692492649581317,-0.7213999156799946
1737286249.2002234,963,1737286249,196905280,map,-18.793970108032227,-11.600044250488281,4.24672794342041,0.010376676256682678,-0.0020934379339281085,-0.6928318324075184,-0.7210214935148059
1737286249.3058813,964,1737286249,301900160,map,-18.79633140563965,-11.604826927185059,4.262803554534912,0.011894604026126153,-0.0023379366630070673,-0.6926572841538169,-0.7211649874722703
1737286249.3962228,965,1737286249,393894272,map,-18.796688079833984,-11.607233047485352,4.279415130615234,0.012948077088126723,-0.005068875889712126,-0.6921174764958458,-0.721650921516738
1737286249.499003,966,1737286249,495888896,map,-18.79750633239746,-11.61003589630127,4.300266265869141,0.008900589659667495,-0.0033466709976088787,-0.6914275554780778,-0.7223832188129465
1737286249.598644,967,1737286249,596883264,map,-18.798137664794922,-11.61107063293457,4.329852104187012,0.009529757345500147,-0.004185988560956885,-0.6908331247956346,-0.7229393162014377
1737286249.6995242,968,1737286249,697878912,map,-18.79865074157715,-11.614444732666016,4.35941219329834,0.00923002310719562,-0.0021725427912214963,-0.6884815196728146,-0.7251918944667493
1737286249.799715,969,1737286249,797872512,map,-18.797494888305664,-11.617332458496094,4.385720729827881,0.007062256039132469,-0.0026580498978912986,-0.6870192929807601,-0.726599993381912
1737286249.905713,970,1737286249,903869440,map,-18.7952938079834,-11.622140884399414,4.416272163391113,0.008856452318017094,-0.0045906446957553046,-0.6890159855145914,-0.7246774875342635
1737286249.998901,971,1737286249,995878144,map,-18.790159225463867,-11.623916625976562,4.445812225341797,0.007534035584771007,-0.003977084785405853,-0.6903877203728752,-0.7233893949062024
1737286250.1054668,972,1737286250,102867392,map,-18.78517723083496,-11.629481315612793,4.476199626922607,0.008076538561093489,-0.003467843075796847,-0.691987304803046,-0.7218561585112987
1737286250.1966832,973,1737286250,194857408,map,-18.775985717773438,-11.627963066101074,4.498854637145996,0.010034046810411172,-0.003047127683250081,-0.6934380986385641,-0.7204398908125655
1737286250.3025868,974,1737286250,300850496,map,-18.769832611083984,-11.630836486816406,4.524770736694336,0.016228772730113698,-0.0002465596129035606,-0.6955749708632867,-0.7182701623014625
1737286250.396629,975,1737286250,394841536,map,-18.768177032470703,-11.631009101867676,4.550603866577148,0.014320627025013901,-8.412795417321757e-05,-0.6958307873171248,-0.7180629693736672
1737286250.5037842,976,1737286250,496836928,map,-18.768320083618164,-11.632813453674316,4.569582939147949,0.01380787863236551,-0.00010596692728742817,-0.6935918372820863,-0.720235860336282
1737286250.5976715,977,1737286250,595833856,map,-18.769372940063477,-11.631439208984375,4.581152439117432,0.007716574709016311,0.0003607512084157594,-0.6874587703660354,-0.7261823210324967
1737286250.6998308,978,1737286250,697833856,map,-18.771221160888672,-11.630867958068848,4.594310760498047,0.009360040920917639,-0.0001998967535902332,-0.6824988501035719,-0.7308267026337698
1737286250.7987595,979,1737286250,796833344,map,-18.772348403930664,-11.629523277282715,4.602609157562256,0.009000966460960092,-0.0024274103366940915,-0.6808018752479369,-0.7324082856854628
1737286250.9028907,980,1737286250,901828992,map,-18.774452209472656,-11.62812614440918,4.610342025756836,0.009526823148151314,-0.0024120808306616263,-0.6810357953263828,-0.7321841755944548
1737286250.9978483,981,1737286250,995827456,map,-18.777183532714844,-11.625689506530762,4.617208957672119,0.006725399028031638,-0.0024639145703424323,-0.6817511203485734,-0.7315491152590976
1737286251.107227,982,1737286251,105818752,map,-18.78017807006836,-11.62578010559082,4.627984046936035,0.00828255381854582,-0.0031133668245842227,-0.6828713279843657,-0.7304850824391468
1737286251.1982448,983,1737286251,196812096,map,-18.781475067138672,-11.624893188476562,4.635843753814697,0.005402087412511943,-0.003018351809788477,-0.6836331624860771,-0.7297995657392684
1737286251.3078163,984,1737286251,305807488,map,-18.78325080871582,-11.624542236328125,4.646629810333252,0.00752296182188362,-0.0036225241494964003,-0.6847729229343301,-0.7287086704439483
1737286251.3989382,985,1737286251,396801088,map,-18.784385681152344,-11.62238883972168,4.657745838165283,0.004186433125241117,-0.002185097601388786,-0.6861805232270862,-0.7274159667411504
1737286251.5080798,986,1737286251,506796480,map,-18.785219192504883,-11.622540473937988,4.668963432312012,0.006169444054123097,-0.0028065821627042673,-0.6890235010782736,-0.7247073036878167
1737286251.5997376,987,1737286251,597793664,map,-18.78290557861328,-11.620002746582031,4.6775383949279785,0.008347454037750734,-0.0020344776694257633,-0.6918344049141928,-0.7220050810684957
1737286251.709467,988,1737286251,707787264,map,-18.7796688079834,-11.62052059173584,4.683379650115967,0.004805256611268146,-0.0015003503914200226,-0.6938451963563765,-0.7201065906869512
1737286251.8044484,989,1737286251,801780864,map,-18.774873733520508,-11.617283821105957,4.691680908203125,0.0110675313658988,-0.0006668923071575239,-0.6933877421307482,-0.7204793571414373
1737286251.911067,990,1737286251,909777536,map,-18.770278930664062,-11.616608619689941,4.69635009765625,0.011261174793975768,-0.00040337672064071593,-0.6942203860128566,-0.7196742866558742
1737286252.0054805,991,1737286252,3774976,map,-18.768291473388672,-11.613059043884277,4.692359924316406,0.01319752839251163,-0.00066709672516572,-0.6919868648015917,-0.7217891376076201
1737286252.1071806,992,1737286252,104766784,map,-18.7662353515625,-11.61362361907959,4.690850734710693,0.0035658347180495763,0.0009058520252122209,-0.6878760940637856,-0.7258188089808794
1737286252.2047775,993,1737286252,201761664,map,-18.76476287841797,-11.608903884887695,4.68405294418335,0.003265907274862031,-0.001642830280759285,-0.6866640887487824,-0.7269656554343848
1737286252.3088999,994,1737286252,306757568,map,-18.76189422607422,-11.606179237365723,4.687612056732178,0.004641684964762949,-0.003314683625915173,-0.6860990123526123,-0.7274858162754226
1737286252.4020636,995,1737286252,400755264,map,-18.757944107055664,-11.604813575744629,4.690183639526367,0.010557161726678133,-0.004540790094093946,-0.6860453262279702,-0.7274680322339642
1737286252.5130265,996,1737286252,510749376,map,-18.754079818725586,-11.605473518371582,4.69028377532959,0.01179812909055414,-0.001065855824174251,-0.6879698369514597,-0.7256425921528494
1737286252.6000774,997,1737286252,595745024,map,-18.751211166381836,-11.604216575622559,4.694257736206055,0.01651626074137687,-0.0012513256478841519,-0.6938610665455157,-0.719918375684053
1737286252.698948,998,1737286252,697738880,map,-18.749500274658203,-11.605340957641602,4.692799091339111,0.013245745196059292,-6.597149327006731e-05,-0.7013739335868856,-0.7126704365741728
1737286252.7979186,999,1737286252,796741184,map,-18.749958038330078,-11.60311222076416,4.694218158721924,0.014604099742351852,-0.0017361067013589332,-0.7053693898442579,-0.7086873288517131
1737286252.904893,1000,1737286252,903740160,map,-18.751096725463867,-11.603594779968262,4.691415786743164,0.01552099576079811,-0.0022609780492449396,-0.7031955649172733,-0.7108234549798782
1737286252.996884,1001,1737286252,994734272,map,-18.75135040283203,-11.602951049804688,4.687785625457764,0.016671108137393458,-0.0015090231508239694,-0.6974756027422556,-0.7164129958214946
1737286253.1064322,1002,1737286253,100727872,map,-18.75299835205078,-11.606476783752441,4.683904647827148,0.011877087900244691,-0.0006875770400419827,-0.6938922220850046,-0.7199805873429911
1737286253.1973495,1003,1737286253,194719168,map,-18.75180435180664,-11.606237411499023,4.673135280609131,0.011131020964612395,-0.0017797675483607726,-0.6918505540456621,-0.721952729523526
1737286253.303904,1004,1737286253,301714048,map,-18.75294303894043,-11.608016967773438,4.662004470825195,0.012775204439761694,-0.002684661317456146,-0.6923673665072808,-0.721427069453944
1737286253.3969307,1005,1737286253,395707392,map,-18.756189346313477,-11.606956481933594,4.651761054992676,0.018903193328272182,-0.00813652904517191,-0.6962588284418796,-0.7174957212372994
1737286253.5069492,1006,1737286253,504702272,map,-18.76007652282715,-11.604942321777344,4.645356178283691,0.02145666671239525,-0.01100556072663826,-0.7000756400615576,-0.7136613953963644
1737286253.5979044,1007,1737286253,596700224,map,-18.764314651489258,-11.599109649658203,4.642703056335449,0.022638747137220815,-0.010730142445410531,-0.7009256894258212,-0.7127941702020966
1737286253.6970212,1008,1737286253,695695872,map,-18.769853591918945,-11.593173027038574,4.644222259521484,0.02239202137870929,-0.011281473143570612,-0.6979936770667337,-0.7156648325278717
1737286253.7989807,1009,1737286253,797693056,map,-18.773330688476562,-11.581501007080078,4.652225494384766,0.019363272150322547,-0.011531197158022748,-0.6936347463207833,-0.7199742591789221
1737286253.9061098,1010,1737286253,903687168,map,-18.778602600097656,-11.5702486038208,4.662683010101318,0.021686351051210143,-0.013321473972014098,-0.69101255195329,-0.7223945553174513
1737286253.9970999,1011,1737286253,995683072,map,-18.781509399414062,-11.553614616394043,4.674387454986572,0.025567013651467692,-0.01576533197179801,-0.6901622682821544,-0.723030999031436
1737286254.1041973,1012,1737286254,102680768,map,-18.785991668701172,-11.53249454498291,4.679378032684326,0.027382058593141863,-0.020649464608537567,-0.6909399087414702,-0.7220982377674878
1737286254.198096,1013,1737286254,196675648,map,-18.788570404052734,-11.50456714630127,4.67943000793457,0.03068881874057636,-0.025119804267569303,-0.6907285164002449,-0.7220258364278827
1737286254.2999632,1014,1737286254,298668480,map,-18.79269790649414,-11.473505973815918,4.676219940185547,0.02945876078613845,-0.02534233447389719,-0.6902979709776011,-0.7224809054643347
1737286254.3991132,1015,1737286254,394665408,map,-18.797319412231445,-11.4352445602417,4.6762285232543945,0.03372150962592445,-0.026790164402735954,-0.6897863923263401,-0.7227308488235685
1737286254.5060675,1016,1737286254,504661312,map,-18.802717208862305,-11.388530731201172,4.6705002784729,0.029701939268635267,-0.025823885924739838,-0.6879291967638032,-0.7247098329395958
1737286254.5980976,1017,1737286254,596656448,map,-18.805482864379883,-11.343467712402344,4.658069133758545,0.02798104188362255,-0.028287388593096933,-0.6863295285237254,-0.7262015307186366
1737286254.7031913,1018,1737286254,700652096,map,-18.80806541442871,-11.291642189025879,4.648887634277344,0.024518207364905637,-0.029380700420711822,-0.6864956970654865,-0.7261262217142218
1737286254.797195,1019,1737286254,795649792,map,-18.80465316772461,-11.240564346313477,4.640374183654785,0.025220670428303973,-0.027691848869378467,-0.6866363015881932,-0.7260355835843242
1737286254.8983433,1020,1737286254,896647744,map,-18.800689697265625,-11.181092262268066,4.634300708770752,0.023978651609293498,-0.025881996276145725,-0.6875853527124626,-0.7252458405747946
1737286254.9952,1021,1737286254,993643904,map,-18.795377731323242,-11.115638732910156,4.629361152648926,0.02877964246328955,-0.023079786125192497,-0.6900589943727224,-0.7228123130781652
1737286255.1060646,1022,1737286255,104639296,map,-18.788530349731445,-11.03837776184082,4.628006458282471,0.021536185775702255,-0.02001376660850797,-0.6906038269626796,-0.722635451685617
1737286255.1963875,1023,1737286255,194635456,map,-18.78173065185547,-10.972197532653809,4.63404655456543,0.02087737267841449,-0.018248887997390727,-0.6922516386140423,-0.7211232781106699
1737286255.300122,1024,1737286255,298630336,map,-18.77329444885254,-10.892800331115723,4.646449565887451,0.022616054053799982,-0.01667740595368328,-0.6930352152621058,-0.7203558624987366
1737286255.4011912,1025,1737286255,399631104,map,-18.76344871520996,-10.815404891967773,4.658915042877197,0.019401240943426715,-0.013074673985461171,-0.6936275138800176,-0.7199538295881581
1737286255.5051522,1026,1737286255,503621632,map,-18.754079818725586,-10.737676620483398,4.663907051086426,0.015105810214160988,-0.005797317862395686,-0.6941097662922451,-0.7196873195639205
1737286255.5942323,1027,1737286255,592607552,map,-18.74298858642578,-10.66843032836914,4.663346767425537,0.009708222577203092,0.00030862271007423437,-0.6939522940480575,-0.7199554630335494
1737286255.7034206,1028,1737286255,701607552,map,-18.731334686279297,-10.586874961853027,4.6600847244262695,0.011014915766441157,0.0037311475997238246,-0.6922158275758072,-0.7215968391157127
1737286255.796395,1029,1737286255,794620096,map,-18.721054077148438,-10.520048141479492,4.654626846313477,0.013301079994467014,0.0051061129851210346,-0.6880590817257396,-0.7255147889160469
1737286255.8996341,1030,1737286255,894610880,map,-18.712879180908203,-10.451092720031738,4.646792888641357,0.01010122936755242,0.00442765935777625,-0.6835741079007056,-0.7297977802142385
1737286256.001412,1031,1737286255,999603712,map,-18.70509910583496,-10.379097938537598,4.6373114585876465,0.009393803057633841,0.0031049185716980248,-0.6832745937573883,-0.730094477085297
1737286256.0986674,1032,1737286256,97597312,map,-18.69921112060547,-10.314071655273438,4.6283087730407715,0.010084954409748022,0.0012260269671291537,-0.6851809382051852,-0.7283020475549217
1737286256.197326,1033,1737286256,195591680,map,-18.6929988861084,-10.248215675354004,4.6206440925598145,0.008503005182904595,0.00197899121288114,-0.6852054786803522,-0.728297490372628
1737286256.2994058,1034,1737286256,297587584,map,-18.68885040283203,-10.18455982208252,4.612749099731445,0.00890047719286183,0.0019715590137999897,-0.6851479134058363,-0.7283469168029909
1737286256.3957298,1035,1737286256,394584256,map,-18.684045791625977,-10.124916076660156,4.606945037841797,0.01072287458190301,0.001066269353073765,-0.6860544585783103,-0.727470386266815
1737286256.505481,1036,1737286256,503579648,map,-18.681285858154297,-10.061477661132812,4.604712009429932,0.009483214363673963,0.0020513712244582664,-0.6868074660970237,-0.7267746315294843
1737286256.5974433,1037,1737286256,595578112,map,-18.679710388183594,-10.006475448608398,4.6056294441223145,0.011274835310060202,-0.0027000953174707155,-0.6877488387815982,-0.7258561305992882
1737286256.7056072,1038,1737286256,703574272,map,-18.680063247680664,-9.943577766418457,4.608164310455322,0.0213023227241657,-0.011885324187005861,-0.6878162499204471,-0.7254748489512908
1737286256.802502,1039,1737286256,800571968,map,-18.6788330078125,-9.881309509277344,4.61439847946167,0.031388449438515716,-0.021340568167089152,-0.6881586467702493,-0.7245667824759088
1737286256.9096115,1040,1737286256,907564800,map,-18.67902183532715,-9.8089599609375,4.618477821350098,0.03584600235384568,-0.026656502940815473,-0.687486421359165,-0.7248219887758531
1737286257.0056112,1041,1737286257,3560960,map,-18.680747985839844,-9.73507308959961,4.623979568481445,0.039344573426358595,-0.033745542063058444,-0.6888096374239822,-0.7230868041422209
1737286257.101599,1042,1737286257,100553536,map,-18.68259048461914,-9.65750503540039,4.629199981689453,0.04193114591934339,-0.03766445119054155,-0.6891691363736058,-0.7224050592212548
1737286257.201558,1043,1737286257,200546624,map,-18.679031372070312,-9.570669174194336,4.634964942932129,0.04624400081498841,-0.04247361415218625,-0.689520213914039,-0.7215395755559169
1737286257.3066442,1044,1737286257,304541248,map,-18.675771713256836,-9.472052574157715,4.63927698135376,0.05099868226012558,-0.04508664859740567,-0.6893525892931847,-0.7212207263804659
1737286257.403644,1045,1737286257,401535616,map,-18.66733741760254,-9.363362312316895,4.647763252258301,0.05205567087648887,-0.046139612509301105,-0.6870678411420219,-0.7232559194058018
1737286257.5105956,1046,1737286257,508532544,map,-18.658397674560547,-9.236821174621582,4.65834903717041,0.05484389388081122,-0.04582397644061331,-0.6863588411388938,-0.7237429458569078
1737286257.6077268,1047,1737286257,605531776,map,-18.645565032958984,-9.11426067352295,4.665405750274658,0.051984507250230044,-0.04398713737509459,-0.685893194316947,-0.7245089845827932
1737286257.7137241,1048,1737286257,711525120,map,-18.63327980041504,-8.970754623413086,4.668109893798828,0.05166501189895863,-0.0432613891617394,-0.6866140114868142,-0.7238925182534087
1737286257.7997959,1049,1737286257,798522048,map,-18.61644744873047,-8.846922874450684,4.671838283538818,0.051722503393113836,-0.04002341792759361,-0.6845511616310186,-0.7260252170343438
1737286257.9116564,1050,1737286257,910518720,map,-18.598865509033203,-8.678974151611328,4.680263519287109,0.05364832965586701,-0.03919801821237637,-0.6811167334374575,-0.7291538709523833
1737286257.9948993,1051,1737286257,993513344,map,-18.581157684326172,-8.55336856842041,4.6862101554870605,0.05361379391045446,-0.039773041655376894,-0.6788649059247137,-0.7312223367511668
1737286258.1060255,1052,1737286258,103504640,map,-18.560640335083008,-8.375532150268555,4.686802864074707,0.05495390405614301,-0.040459571856127,-0.6779563555358795,-0.7319277774908637
1737286258.196124,1053,1737286258,194496960,map,-18.54277229309082,-8.220441818237305,4.685617923736572,0.051533595769408844,-0.040157907830567184,-0.6780648744486567,-0.7320926560106134
1737286258.3029025,1054,1737286258,300490304,map,-18.522401809692383,-8.030999183654785,4.682513236999512,0.055003928298692155,-0.04091863084499725,-0.679699780419055,-0.7302797012239705
1737286258.3969128,1055,1737286258,395488512,map,-18.50145721435547,-7.8560791015625,4.684256553649902,0.05362426760499419,-0.03995489364034972,-0.680786659109924,-0.7294227643664299
1737286258.5009248,1056,1737286258,498483648,map,-18.482419967651367,-7.656201362609863,4.683727741241455,0.05216873535151581,-0.03938708510054898,-0.6816865578498102,-0.7287184074976993
1737286258.5969002,1057,1737286258,595477760,map,-18.45943260192871,-7.461909770965576,4.687119483947754,0.0554113881598882,-0.0401249828401425,-0.6822729172861401,-0.7278895727733239
1737286258.7020903,1058,1737286258,700472896,map,-18.435243606567383,-7.244327068328857,4.695684909820557,0.055465797321300296,-0.03981462842709127,-0.6821197272704634,-0.7280460276378093
1737286258.7979765,1059,1737286258,796464960,map,-18.409765243530273,-7.030816555023193,4.703638553619385,0.06004836570144162,-0.03758649119207279,-0.6819770156791831,-0.7279346121333766
1737286258.9051635,1060,1737286258,903458560,map,-18.38719940185547,-6.7930378913879395,4.702056884765625,0.05818540206390497,-0.03347688770331493,-0.6814893938528783,-0.7287427276085833
1737286258.9968288,1061,1737286258,994456000,map,-18.362422943115234,-6.577635765075684,4.699568271636963,0.053987499789502354,-0.024145699334909693,-0.6827249036081277,-0.7282781344125191
1737286259.105945,1062,1737286259,104449088,map,-18.34010124206543,-6.32758092880249,4.7030029296875,0.03179662919040299,-0.0026038346097617487,-0.6839843469262626,-0.7287987428483305
1737286259.1969812,1063,1737286259,195442944,map,-18.32146644592285,-6.1212687492370605,4.707599639892578,0.017521994973045397,0.006947874954696242,-0.6844496383831843,-0.7288164372754684
1737286259.304304,1064,1737286259,302436544,map,-18.302959442138672,-5.883925437927246,4.720664978027344,0.009679289073096736,0.011341864490717422,-0.6861576781953992,-0.7273000165862864
1737286259.3962948,1065,1737286259,394432448,map,-18.280977249145508,-5.6820292472839355,4.740811347961426,0.013842071217701382,0.010070152926886733,-0.6885960180584533,-0.724943110180706
1737286259.500087,1066,1737286259,498425536,map,-18.264270782470703,-5.459845542907715,4.759698867797852,0.010291611622510584,0.020469028775925352,-0.6893319993780416,-0.7240832108429619
1737286259.597343,1067,1737286259,594420416,map,-18.25013542175293,-5.260503768920898,4.769842624664307,-0.0040974270405975295,0.03465100873804481,-0.6870556507377227,-0.7257665268352127
1737286259.7061336,1068,1737286259,704412992,map,-18.241668701171875,-5.05039119720459,4.776462078094482,-0.014041405944005854,0.049115367759402825,-0.6844864125785491,-0.7272337111027807
1737286259.7975998,1069,1737286259,795406336,map,-18.240625381469727,-4.885358810424805,4.778388977050781,-0.02615115096853819,0.05454545765036253,-0.6839228418510921,-0.7270422661352359
1737286259.9021845,1070,1737286259,900402752,map,-18.24320411682129,-4.7162322998046875,4.778640270233154,-0.03648427673211878,0.054383988521099325,-0.6853050687296128,-0.7253056198026953
1737286259.9982293,1071,1737286259,996398656,map,-18.25018882751465,-4.576855659484863,4.780001163482666,-0.034356796982631714,0.049511984364505726,-0.6873542269079341,-0.7238178919156248
1737286260.1051502,1072,1737286260,103396096,map,-18.259849548339844,-4.435616970062256,4.776480197906494,-0.019028493983559457,0.02906860951917189,-0.6890423881941895,-0.7238877811021451
1737286260.1949291,1073,1737286260,193391744,map,-18.275554656982422,-4.322874069213867,4.7696733474731445,0.0031088568886402453,0.012769876708114632,-0.6887136343675154,-0.724914336383268
1737286260.303857,1074,1737286260,300386880,map,-18.295217514038086,-4.198042392730713,4.758164882659912,0.013750103019167058,0.0018384432757588116,-0.6859734607335688,-0.727494306481154
1737286260.4010534,1075,1737286260,399383552,map,-18.325950622558594,-4.079401016235352,4.745499610900879,0.017081416709301266,-0.0035914232370693362,-0.6818526540204505,-0.7312812626394878
1737286260.4974806,1076,1737286260,495379456,map,-18.352022171020508,-3.9721100330352783,4.733778953552246,0.010509680243819234,-0.005688238281134931,-0.6789822745090268,-0.7340573965767107
1737286260.5972517,1077,1737286260,595373568,map,-18.389904022216797,-3.8564558029174805,4.718596935272217,0.0043734992267294446,-0.005420786964465211,-0.6766985249510402,-0.736227270550532
1737286260.7042804,1078,1737286260,702369472,map,-18.427045822143555,-3.738309383392334,4.7002668380737305,-0.006514603395810611,-0.006450275511518031,-0.676918557137154,-0.7360008294097056
1737286260.7992663,1079,1737286260,797370752,map,-18.459062576293945,-3.6374759674072266,4.686596870422363,-0.007783138919315315,-0.008492347353970038,-0.6796224715103198,-0.7334716074962865
1737286260.9065018,1080,1737286260,904370752,map,-18.49021339416504,-3.528094530105591,4.675652027130127,-0.011804337881575602,-0.008806825655981643,-0.6820717964385576,-0.7311368968477253
1737286260.9974463,1081,1737286260,995356928,map,-18.514278411865234,-3.440087080001831,4.663641929626465,-0.010020022531329498,-0.008465307965809124,-0.684702828864764,-0.7287043116752538
1737286261.0960112,1082,1737286261,94366400,map,-18.538728713989258,-3.348754644393921,4.646481037139893,-0.004584394738754329,-0.008879398675140043,-0.6879381020970966,-0.7257005631023665
1737286261.1980424,1083,1737286261,196358720,map,-18.562326431274414,-3.261000156402588,4.631248474121094,-0.001997116893742825,-0.00959998453921428,-0.6875531637040967,-0.7260678335399848
1737286261.297749,1084,1737286261,295346432,map,-18.581073760986328,-3.178004741668701,4.616417407989502,-0.00523081806017517,-0.010359525809890639,-0.6858922521816714,-0.7276105669687394
1737286261.3961842,1085,1737286261,395340288,map,-18.603212356567383,-3.096468448638916,4.601214408874512,-0.008504229187987234,-0.01221429428387942,-0.683885647233849,-0.729437393206987
1737286261.5031784,1086,1737286261,501334656,map,-18.61752700805664,-3.014418840408325,4.5876665115356445,-0.008139575293025166,-0.012330570165724879,-0.6833173055861953,-0.7299720297654284
1737286261.597249,1087,1737286261,595326464,map,-18.636890411376953,-2.940582275390625,4.569819927215576,-0.00844426617592107,-0.010854747524389374,-0.6806853868513951,-0.7324467714120244
1737286261.7030852,1088,1737286261,702320576,map,-18.65074920654297,-2.863771438598633,4.550492763519287,-0.007636344940425633,-0.012178338720020115,-0.6793235736327086,-0.7336980691053079
1737286261.7980998,1089,1737286261,796316480,map,-18.660675048828125,-2.802793264389038,4.5430707931518555,-0.011336912437133705,-0.012795054999080424,-0.6795433627218218,-0.7334361452537514
1737286261.904974,1090,1737286261,903312896,map,-18.665904998779297,-2.737555503845215,4.539865016937256,-0.013610608079126705,-0.012225378628842298,-0.6820440616631752,-0.7310822042801322
1737286261.996333,1091,1737286261,995309312,map,-18.669815063476562,-2.6832587718963623,4.539020538330078,-0.009212380063676348,-0.011985079008965354,-0.6837377113443721,-0.7295712658954375
1737286262.1080346,1092,1737286262,106300864,map,-18.671703338623047,-2.623971462249756,4.534273624420166,-0.008828601449516806,-0.005181440228435275,-0.6858203333772585,-0.7276988929494883
1737286262.1972857,1093,1737286262,196298048,map,-18.673372268676758,-2.5818593502044678,4.528998374938965,-0.019925216412213703,0.0061706226514908835,-0.6846524305947648,-0.7285711759654646
1737286262.301142,1094,1737286262,299293440,map,-18.66753578186035,-2.5390875339508057,4.524367809295654,-0.023462447241327237,0.010299329182082482,-0.6862783234441405,-0.7268875429931007
1737286262.3972416,1095,1737286262,396290112,map,-18.67082977294922,-2.5041308403015137,4.520674228668213,-0.01642942489795054,0.008606713188000171,-0.6971825318760485,-0.7166536930292932
1737286262.5041602,1096,1737286262,503286528,map,-18.67133140563965,-2.471092700958252,4.5135273933410645,-0.012599199793141282,0.00600467486661077,-0.7230494727120323,-0.690655242545201
1737286262.6042097,1097,1737286262,602281152,map,-18.6711368560791,-2.4448792934417725,4.5075273513793945,-0.020985563114237,0.004992887456839439,-0.7653853522648228,-0.6432106495962849
1737286262.7082973,1098,1737286262,707279360,map,-18.6624698638916,-2.4246468544006348,4.504976272583008,-0.0297961638137004,0.003164167470885111,-0.8222593276086625,-0.568323653235332
1737286262.80309,1099,1737286262,801275776,map,-18.653589248657227,-2.4103574752807617,4.49852180480957,-0.019565334366484603,0.005706923592819577,-0.8881315409921109,-0.4591372285158456
1737286262.9171712,1100,1737286262,915271680,map,-18.63426971435547,-2.399083137512207,4.492367744445801,-0.01271298251606142,0.005061383820064816,-0.944155660595756,-0.3292155084961283
1737286263.0073953,1101,1737286263,5266816,map,-18.62653923034668,-2.384380578994751,4.494960784912109,-0.005125149335490741,0.002119265654499662,-0.9798896074872647,-0.19946327655944351
1737286263.1025515,1102,1737286263,101261184,map,-18.60828399658203,-2.374819278717041,4.503305435180664,0.003379273192074396,0.0033201612299867084,-0.9960261693672681,-0.08893495925487466
1737286263.1995928,1103,1737286263,198257344,map,-18.605546951293945,-2.3700239658355713,4.5103068351745605,0.012199084502359398,0.00658178620384856,-0.9998442973838116,-0.010919863403128782
1737286263.3126132,1104,1737286263,311249664,map,-18.597240447998047,-2.368896007537842,4.5182037353515625,0.011713584750941317,0.007014681432130889,-0.9995135371785878,0.028040598664003435
1737286263.3959455,1105,1737286263,394246080,map,-18.598491668701172,-2.377272367477417,4.516637325286865,0.0096088007093126,0.007827428186234529,-0.9994987239347196,0.02913251053007876
1737286263.501879,1106,1737286263,500241472,map,-18.589513778686523,-2.386080741882324,4.515207767486572,0.004067609883141869,0.006929821260643136,-0.9999443815649365,0.006831244678011106
1737286263.5987532,1107,1737286263,597241728,map,-18.57759666442871,-2.4127590656280518,4.506880283355713,0.0003531311345085489,0.0029472713345676115,-0.9998917695762387,-0.014409650369815563
1737286263.6977642,1108,1737286263,696242752,map,-18.560741424560547,-2.4379820823669434,4.511687278747559,-0.000466420223746349,-0.00735905914275478,-0.9999366671830979,-0.008502254022714761
1737286263.8010986,1109,1737286263,799239168,map,-18.53754425048828,-2.480160713195801,4.524528980255127,-0.002576651378617263,-0.01876266552188741,-0.9994110941163716,0.028614475485381263
1737286263.9026947,1110,1737286263,901236608,map,-18.511301040649414,-2.51249361038208,4.548268795013428,-0.0030769685944645967,-0.02563267864731678,-0.9963350804476914,0.08154695284879904
1737286263.9986174,1111,1737286263,997234048,map,-18.485353469848633,-2.5433239936828613,4.583425045013428,-0.0024654425075598414,-0.028606691384839792,-0.9908727249306009,0.13170733384994238
1737286264.1059484,1112,1737286264,104226368,map,-18.453720092773438,-2.5698769092559814,4.6325883865356445,0.005838984437137773,-0.02639699035238403,-0.9858647129398985,0.16534773340149223
1737286264.2003787,1113,1737286264,198223296,map,-18.420873641967773,-2.606400966644287,4.676568984985352,0.013789377315108261,-0.020367739401791186,-0.9843502133395284,0.17449832596144582
1737286264.3039236,1114,1737286264,302220736,map,-18.387475967407227,-2.6328072547912598,4.720151901245117,0.016447525517804724,-0.0219620934245469,-0.9865126895111475,0.1613687044945044
1737286264.398631,1115,1737286264,396214336,map,-18.36186981201172,-2.6783220767974854,4.756366729736328,0.016746474843988966,-0.01960013951183645,-0.9900573865764045,0.13828145716948587
1737286264.5047789,1116,1737286264,503208192,map,-18.333969116210938,-2.721147060394287,4.797453880310059,0.021508629201445632,-0.027454339491405275,-0.9928632282687183,0.11404493879512739
1737286264.5937579,1117,1737286264,592202560,map,-18.308000564575195,-2.7666492462158203,4.834684371948242,0.027636710326761117,-0.03069504050493419,-0.9941333826835408,0.09996421442144154
1737286264.6959374,1118,1737286264,694199744,map,-18.28761100769043,-2.801790475845337,4.882073879241943,0.04834475387160366,-0.038232691922812076,-0.993462290469141,0.09609226533513071
1737286264.796698,1119,1737286264,795191296,map,-18.25908088684082,-2.851745367050171,4.930087566375732,0.06413999651050015,-0.03969005991835697,-0.9923093566432972,0.09814734183601642
1737286264.9035494,1120,1737286264,902188224,map,-18.244218826293945,-2.892855167388916,4.9842143058776855,0.07685639514709121,-0.042793240201109466,-0.9905949245092543,0.10480233134138178
1737286264.9988549,1121,1737286264,994185664,map,-18.24311637878418,-2.931891918182373,5.0345072746276855,0.08125801258663594,-0.038715980354696165,-0.9894660137953772,0.1133808440589984
1737286265.1026444,1122,1737286265,101177472,map,-18.255388259887695,-2.956259250640869,5.093371868133545,0.0637673665897328,-0.03510126741731581,-0.9899785068247899,0.12101313981906142
1737286265.1980314,1123,1737286265,195172864,map,-18.260311126708984,-2.9845986366271973,5.136246204376221,0.04033537513435398,-0.03809661594374917,-0.9908695847365308,0.12287868574517163
1737286265.304225,1124,1737286265,299168000,map,-18.27972412109375,-2.996169328689575,5.179397106170654,0.0285086184019404,-0.04116829447326422,-0.9914886089574222,0.1201780700238233
1737286265.3968697,1125,1737286265,395161088,map,-18.278165817260742,-3.0094411373138428,5.216805458068848,0.025396447367639532,-0.04060301893776274,-0.9921106849448469,0.1158568260074011
1737286265.5088294,1126,1737286265,505156480,map,-18.294374465942383,-3.008485794067383,5.2677717208862305,0.04179151581174474,-0.03942889286323684,-0.9917837714334252,0.1142969043107791
1737286265.5989811,1127,1737286265,597154432,map,-18.308618545532227,-3.0195178985595703,5.308676242828369,0.07182780922352845,-0.031145253401971305,-0.9899660796156171,0.11763460470100306
1737286265.7031243,1128,1737286265,699147264,map,-18.341796875,-3.0189898014068604,5.3520588874816895,0.09434946420188038,-0.024347139059179377,-0.9879858745858483,0.11995543773955225
1737286265.794965,1129,1737286265,793142400,map,-18.372879028320312,-3.026325225830078,5.390284538269043,0.10289059853126674,-0.018472002389985222,-0.9872051501679009,0.12040889229435736
1737286265.907034,1130,1737286265,905137536,map,-18.43685531616211,-3.021275043487549,5.436118125915527,0.10700837589082937,-0.017893669015814132,-0.9870000119708418,0.11857487283534263
1737286265.9957442,1131,1737286265,994132672,map,-18.49538803100586,-3.0129570960998535,5.472832679748535,0.10384704591108844,-0.014586001108892474,-0.9877037086223772,0.11595009099088283
1737286266.1031077,1132,1737286266,101127040,map,-18.583232879638672,-3.0007271766662598,5.519408702850342,0.10047927212101368,-0.01299174915248061,-0.9882216052569732,0.11468735427814636
1737286266.1939235,1133,1737286266,193127296,map,-18.66107940673828,-2.992947578430176,5.5609660148620605,0.07497754855455771,-0.011116223729671063,-0.9909443980832886,0.11083319308803508
1737286266.3059223,1134,1737286266,304127296,map,-18.77281951904297,-2.9773499965667725,5.609407901763916,0.05034120780390103,-0.014071808459822832,-0.9926323897005696,0.10931004492200758
1737286266.3980517,1135,1737286266,396127296,map,-18.865507125854492,-2.96254825592041,5.65170955657959,0.03788489011541593,-0.013013039439037671,-0.9932138959971789,0.10918586311242906
1737286266.5001533,1136,1737286266,498127296,map,-18.96782112121582,-2.945666790008545,5.703954696655273,0.03063171134850408,-0.011486947595583214,-0.9935080734667294,0.10895621254075372
1737286266.597069,1137,1737286266,595115776,map,-19.054866790771484,-2.934947967529297,5.7608723640441895,0.03191136849943354,-0.004909598284505568,-0.993303233942632,0.11093351993102374
1737286266.7055118,1138,1737286266,699110912,map,-19.164562225341797,-2.918956995010376,5.823317527770996,0.036570046084036356,-0.003290615047110963,-0.9930155389168509,0.11212467637277368
1737286266.800025,1139,1737286266,798108352,map,-19.265897750854492,-2.906890392303467,5.884572982788086,0.03563839424747231,-0.00038739520652299,-0.9929218592008933,0.11329579119039435
1737286266.9012618,1140,1737286266,900101440,map,-19.378313064575195,-2.893193006515503,5.950109481811523,0.03641595757335973,0.0011146189302231376,-0.992748278213464,0.11455780969824209
1737286266.9982512,1141,1737286266,996098112,map,-19.4717960357666,-2.8877146244049072,6.020975589752197,0.03770438163357114,0.00594472968892173,-0.9925345357621818,0.11583710594583296
1737286267.1029098,1142,1737286267,101092480,map,-19.578969955444336,-2.8811421394348145,6.096852779388428,0.03514039084362024,0.0026059223901451507,-0.9926200969127832,0.11603320776704962
1737286267.1939735,1143,1737286267,193085312,map,-19.665462493896484,-2.879208564758301,6.1523284912109375,0.030060056156110272,0.001285547418288617,-0.9929480480366825,0.11466871540166834
1737286267.3060133,1144,1737286267,305079680,map,-19.782238006591797,-2.875950813293457,6.209489822387695,0.031078888253779247,-0.002162773066490261,-0.9933195634345906,0.11111107062613579
1737286267.4008958,1145,1737286267,399074304,map,-19.8719425201416,-2.88022780418396,6.252976894378662,0.030280531029428584,9.486391421842736e-05,-0.9936168671434082,0.10866739055269675
1737286267.5101159,1146,1737286267,509071744,map,-19.986108779907227,-2.882970094680786,6.299184322357178,0.028600960331733823,-1.093956393370315e-05,-0.9938950841680857,0.10655771494801447
1737286267.6023421,1147,1737286267,601066112,map,-20.0759220123291,-2.8897695541381836,6.339197158813477,0.020341164825804017,-0.004776468713650236,-0.9939543640625315,0.10778749705418272
1737286267.7112153,1148,1737286267,708061760,map,-20.186798095703125,-2.895986795425415,6.389223575592041,0.01640479489427771,-0.003298560267814007,-0.9937621486823689,0.11025785255861847
1737286267.806181,1149,1737286267,802055872,map,-20.273860931396484,-2.9065768718719482,6.437762260437012,0.0107629144455832,-0.0017902797198112639,-0.9935846646698017,0.11256317650173076
1737286267.9079452,1150,1737286267,907050752,map,-20.37055778503418,-2.917336940765381,6.490285396575928,0.00886595887628932,-0.002046507025652846,-0.9933279644915387,0.11496417503420236
1737286268.0050466,1151,1737286268,3046912,map,-20.459482192993164,-2.9369380474090576,6.540230751037598,0.005180101670239513,-0.003280205615286385,-0.9933041173393771,0.1153661010628706
1737286268.1090343,1152,1737286268,108044352,map,-20.554969787597656,-2.955392599105835,6.597903251647949,0.001488926742266132,-0.007486166038417643,-0.9930998815567208,0.11702292795528718
1737286268.1940124,1153,1737286268,193040256,map,-20.620365142822266,-2.981088161468506,6.642215728759766,-0.0008482285912102869,-0.009593474219317813,-0.9931758334695462,0.1162282649476144
1737286268.3049667,1154,1737286268,303037440,map,-20.711164474487305,-3.0043303966522217,6.686695575714111,0.0071512115435315516,-0.01341677306279174,-0.9933142195424335,0.11443649605282163
1737286268.403077,1155,1737286268,402034112,map,-20.785419464111328,-3.0379161834716797,6.728952884674072,0.010975475840345897,-0.012676824383861083,-0.9934390977701912,0.11312646054379794
1737286268.50235,1156,1737286268,501027968,map,-20.862995147705078,-3.061244249343872,6.773454666137695,0.012207073969809142,-0.014506233908490896,-0.9934004627678792,0.1131197467087473
1737286268.5944805,1157,1737286268,593027968,map,-20.931251525878906,-3.0958313941955566,6.820260047912598,0.011693442626027123,-0.014867816695212425,-0.9935152551381654,0.11211444703523055
1737286268.7010891,1158,1737286268,699023872,map,-21.011690139770508,-3.12377667427063,6.868161201477051,0.011411624302904962,-0.017881377888833098,-0.9934447664562375,0.11232776663086336
1737286268.7972808,1159,1737286268,796017216,map,-21.07176971435547,-3.1569271087646484,6.912522792816162,0.008712940986554124,-0.02070842093458944,-0.9933297192685784,0.11309869486235546
1737286268.9025588,1160,1737286268,901011840,map,-21.139541625976562,-3.1862642765045166,6.947294235229492,0.00995566475892069,-0.020461287769787347,-0.9933158772264488,0.11316266385986401
1737286268.9961135,1161,1737286268,994010048,map,-21.204715728759766,-3.2108848094940186,6.978479862213135,0.011499756574576789,-0.017790936214234037,-0.9934751640609287,0.11206398431903641
1737286269.1054325,1162,1737286269,103006464,map,-21.2794132232666,-3.2320926189422607,7.011363506317139,0.01075674086378578,-0.01919795518184485,-0.9938122765947388,0.10887097837535681
1737286269.1932056,1163,1737286269,192002112,map,-21.332361221313477,-3.2459335327148438,7.036255836486816,0.007666614534148702,-0.01771902734403955,-0.9942150672902201,0.10565821815963605
1737286269.306145,1164,1737286269,303997504,map,-21.397201538085938,-3.2582170963287354,7.070377349853516,0.006650929261006746,-0.01659645023956871,-0.9952411251339867,0.09578844304740913
1737286269.397464,1165,1737286269,395990592,map,-21.44237518310547,-3.2658281326293945,7.105590343475342,-0.006115534228074315,-0.018476217699471466,-0.9968244084515576,0.07721611448285493
1737286269.501303,1166,1737286269,499984704,map,-21.493925094604492,-3.2670185565948486,7.151133060455322,-0.007485030441074762,-0.01880750356752373,-0.9984939541936474,0.05099093613170841
1737286269.595701,1167,1737286269,593981120,map,-21.531726837158203,-3.2947072982788086,7.194536209106445,-0.009104186014175822,-0.01860687952973854,-0.9995863367553444,0.019951270716831615
1737286269.6962795,1168,1737286269,694975232,map,-21.571788787841797,-3.3096723556518555,7.246155261993408,-0.004512355544530985,-0.020537882833814754,-0.9996574919638372,-0.01557988371955038
1737286269.7983327,1169,1737286269,796970880,map,-21.603004455566406,-3.3308801651000977,7.298344135284424,-0.0016918533760391413,-0.023918095932110132,-0.9975131987200108,-0.0662757927037369
1737286269.9054403,1170,1737286269,903967296,map,-21.628955841064453,-3.3428401947021484,7.35638952255249,0.0039183519403216075,-0.025565116291542143,-0.9903310475018516,-0.13629192089392794
1737286269.9967647,1171,1737286269,994962176,map,-21.635000228881836,-3.347426176071167,7.4079108238220215,0.009570325871626812,-0.025616620903137106,-0.9728372903925875,-0.2298691019206895
1737286270.1002784,1172,1737286270,98960640,map,-21.64689064025879,-3.347262382507324,7.461061954498291,0.015071614345941982,-0.021035090916578784,-0.940511243076603,-0.3387756972358573
1737286270.197484,1173,1737286270,194957568,map,-21.65729331970215,-3.3568642139434814,7.5076003074646,0.02071237734033926,-0.01678170212987132,-0.903292185858259,-0.42819691599303245
1737286270.2995136,1174,1737286270,297952448,map,-21.67300796508789,-3.358830451965332,7.552928924560547,0.021875787200958178,-0.01968961890711427,-0.8720579990119601,-0.48851675017432816
1737286270.395523,1175,1737286270,393949888,map,-21.69269371032715,-3.370333433151245,7.595761299133301,0.018526576436360874,-0.021596925864639415,-0.8532399625703552,-0.5207416874340709
1737286270.5057662,1176,1737286270,503945024,map,-21.71722412109375,-3.3724887371063232,7.636651992797852,0.00990201081470206,-0.025665378858514287,-0.8484426005923893,-0.5285720310514902
1737286270.5975144,1177,1737286270,595941184,map,-21.738792419433594,-3.3745579719543457,7.661664962768555,0.001266810793411594,-0.023765624021928063,-0.8550281139429471,-0.518035244623789
1737286270.699663,1178,1737286270,697936064,map,-21.759517669677734,-3.3685827255249023,7.693775177001953,-0.01459228545646443,-0.013219118064275096,-0.8679679643510665,-0.49622971795633697
1737286270.796054,1179,1737286270,793931968,map,-21.782209396362305,-3.365684747695923,7.728068828582764,-0.02774690669926029,0.003299750038214693,-0.8833360836933353,-0.4679065975850615
1737286270.8964486,1180,1737286270,894927104,map,-21.797027587890625,-3.363176107406616,7.761867046356201,-0.044704564031231596,0.012323358955958687,-0.8944642001838771,-0.44472849174326257
1737286270.995621,1181,1737286270,993920192,map,-21.806129455566406,-3.3749988079071045,7.79226541519165,-0.05279571100942641,0.01508691917080535,-0.9023799785062807,-0.42742879191737526
1737286271.103417,1182,1737286271,101912000,map,-21.805784225463867,-3.3915772438049316,7.828874111175537,-0.054536035421217335,0.014782259275708216,-0.9059011344675317,-0.41970279987353015
1737286271.195032,1183,1737286271,192905088,map,-21.797420501708984,-3.4083609580993652,7.864433288574219,-0.052301832246185315,0.013034572771690352,-0.9050591389908272,-0.4218561048337852
1737286271.3068008,1184,1737286271,304906368,map,-21.779903411865234,-3.4345240592956543,7.911467552185059,-0.03997880813749222,0.005754544922803504,-0.9024283952598792,-0.4289423872052236
1737286271.3955698,1185,1737286271,393900736,map,-21.77547836303711,-3.46043062210083,7.9579362869262695,-0.010188993044409853,-0.0031763489395182074,-0.9010895843372306,-0.43350162194288544
1737286271.4995537,1186,1737286271,497894592,map,-21.760168075561523,-3.494882583618164,8.01092529296875,0.006192901411959312,-0.005867615432336548,-0.8991705963541072,-0.4375150942692595
1737286271.5967026,1187,1737286271,594889984,map,-21.753021240234375,-3.5377137660980225,8.058658599853516,0.004602243416085596,-0.010647018150971282,-0.8964175663572473,-0.4430586948545105
1737286271.695744,1188,1737286271,694883072,map,-21.739456176757812,-3.579674482345581,8.105148315429688,-0.0019566594618284,-0.010805911902870433,-0.8951333502583158,-0.4456632013157709
1737286271.797543,1189,1737286271,795878464,map,-21.72667121887207,-3.6246533393859863,8.159591674804688,-0.012636998411332843,-0.011967484787251572,-0.8949110674333166,-0.44590499768939634
1737286271.9004757,1190,1737286271,898875392,map,-21.709117889404297,-3.6677377223968506,8.213310241699219,-0.019064816349527735,-0.011992537339988361,-0.895705198642874,-0.44407759338863007
