Time,header.seq,header.stamp.secs,header.stamp.nsecs,header.frame_id,status.status,status.service,latitude,longitude,altitude,position_covariance_0,position_covariance_1,position_covariance_2,position_covariance_3,position_covariance_4,position_covariance_5,position_covariance_6,position_covariance_7,position_covariance_8,position_covariance_type
1737286240.2899332,20639,1737286240,89343808,base_link,0,1,33.6371346,72.9912755,538.926183460136,1.0302249999999997,0.0,0.0,0.0,1.0302249999999997,0.0,0.0,0.0,1.868689,2
1737286240.2899652,20640,1737286240,185340992,base_link,0,1,33.6371345,72.9912755,539.0361828471654,1.032256,0.0,0.0,0.0,1.032256,0.0,0.0,0.0,1.8769000000000002,2
1737286240.2900093,20641,1737286240,285335872,base_link,0,1,33.6371343,72.9912755,539.1461816212243,1.032256,0.0,0.0,0.0,1.032256,0.0,0.0,0.0,1.8769000000000002,2
1737286240.3869886,20642,1737286240,384330752,base_link,0,1,33.6371342,72.9912755,539.2561810082539,1.0404,0.0,0.0,0.0,1.0404,0.0,0.0,0.0,1.885129,2
1737286240.4881094,20643,1737286240,485325632,base_link,0,1,33.637134,72.9912755,539.3561797823133,1.0404,0.0,0.0,0.0,1.0404,0.0,0.0,0.0,1.885129,2
1737286240.5851643,20644,1737286240,583319744,base_link,0,1,33.6371338,72.9912755,539.446178556373,1.044484,0.0,0.0,0.0,1.044484,0.0,0.0,0.0,1.890625,2
1737286240.688958,20645,1737286240,685313856,base_link,0,1,33.6371337,72.9912755,539.536177943403,1.044484,0.0,0.0,0.0,1.044484,0.0,0.0,0.0,1.890625,2
1737286240.7881489,20646,1737286240,785308224,base_link,0,1,33.6371335,72.9912757,539.6261775118373,1.048576,0.0,0.0,0.0,1.048576,0.0,0.0,0.0,1.901641,2
1737286240.8894494,20647,1737286240,885302336,base_link,0,1,33.6371334,72.9912757,539.6961768988675,1.048576,0.0,0.0,0.0,1.048576,0.0,0.0,0.0,1.901641,2
1737286240.9855146,20648,1737286240,983296960,base_link,0,1,33.6371333,72.9912757,539.7761762858978,1.0547289999999998,0.0,0.0,0.0,1.0547289999999998,0.0,0.0,0.0,1.9099239999999997,2
1737286241.0893378,20649,1737286241,85291840,base_link,0,1,33.6371333,72.9912756,539.846175888711,1.0547289999999998,0.0,0.0,0.0,1.0547289999999998,0.0,0.0,0.0,1.9099239999999997,2
1737286241.1882107,20650,1737286241,185286208,base_link,0,1,33.6371332,72.9912756,539.9061752757414,1.056784,0.0,0.0,0.0,1.056784,0.0,0.0,0.0,1.9099239999999997,2
1737286241.2896469,20651,1737286241,285280832,base_link,0,1,33.6371332,72.9912756,539.9661752757414,1.056784,0.0,0.0,0.0,1.056784,0.0,0.0,0.0,1.9099239999999997,2
1737286241.3868096,20652,1737286241,385275456,base_link,0,1,33.6371331,72.9912756,540.0161746627718,1.058841,0.0,0.0,0.0,1.058841,0.0,0.0,0.0,1.912689,2
1737286241.4884946,20653,1737286241,485270080,base_link,0,1,33.637133,72.9912756,540.0461740498024,1.058841,0.0,0.0,0.0,1.058841,0.0,0.0,0.0,1.912689,2
1737286241.5858808,20654,1737286241,584265984,base_link,0,1,33.637133,72.9912755,540.0561736526156,1.058841,0.0,0.0,0.0,1.058841,0.0,0.0,0.0,1.912689,2
1737286241.6865838,20655,1737286241,683259328,base_link,0,1,33.637133,72.9912754,540.0561732554289,1.058841,0.0,0.0,0.0,1.058841,0.0,0.0,0.0,1.912689,2
1737286241.787129,20656,1737286241,784253440,base_link,0,1,33.6371331,72.9912753,540.0561734712115,1.058841,0.0,0.0,0.0,1.058841,0.0,0.0,0.0,1.9154559999999998,2
1737286241.8867626,20657,1737286241,883249344,base_link,0,1,33.6371331,72.9912753,540.0361734712116,1.058841,0.0,0.0,0.0,1.058841,0.0,0.0,0.0,1.9154559999999998,2
1737286241.988009,20658,1737286241,985245504,base_link,0,1,33.6371332,72.9912752,540.0061736869941,1.0609,0.0,0.0,0.0,1.0609,0.0,0.0,0.0,1.918225,2
1737286242.0890515,20659,1737286242,84243712,base_link,0,1,33.6371332,72.9912752,539.9861736869941,1.0609,0.0,0.0,0.0,1.0609,0.0,0.0,0.0,1.918225,2
1737286242.1858532,20660,1737286242,183239872,base_link,0,1,33.6371333,72.991275,539.96617350559,1.0609,0.0,0.0,0.0,1.0609,0.0,0.0,0.0,1.9209959999999997,2
1737286242.2900014,20661,1737286242,286237056,base_link,0,1,33.6371333,72.9912749,539.9461731084031,1.0609,0.0,0.0,0.0,1.0609,0.0,0.0,0.0,1.9209959999999997,2
1737286242.3873174,20662,1737286242,385231936,base_link,0,1,33.6371333,72.9912748,539.9361727112164,1.0609,0.0,0.0,0.0,1.0609,0.0,0.0,0.0,1.9209959999999997,2
1737286242.4893737,20663,1737286242,486229120,base_link,0,1,33.6371334,72.9912747,539.926172926999,1.0609,0.0,0.0,0.0,1.0609,0.0,0.0,0.0,1.9209959999999997,2
1737286242.5873225,20664,1737286242,585224000,base_link,0,1,33.6371335,72.9912746,539.9261731427815,1.0629609999999998,0.0,0.0,0.0,1.0629609999999998,0.0,0.0,0.0,1.923769,2
1737286242.686416,20665,1737286242,684220160,base_link,0,1,33.6371336,72.9912745,539.9261733585643,1.0629609999999998,0.0,0.0,0.0,1.0629609999999998,0.0,0.0,0.0,1.923769,2
1737286242.7863562,20666,1737286242,784215552,base_link,0,1,33.6371339,72.9912742,539.9261740059122,1.065024,0.0,0.0,0.0,1.065024,0.0,0.0,0.0,1.9265439999999998,2
1737286242.8857045,20667,1737286242,883209920,base_link,0,1,33.637134,72.9912742,539.9261746188819,1.065024,0.0,0.0,0.0,1.065024,0.0,0.0,0.0,1.9265439999999998,2
1737286242.987154,20668,1737286242,984207104,base_link,0,1,33.6371341,72.9912741,539.9361748346646,1.0670889999999997,0.0,0.0,0.0,1.0670889999999997,0.0,0.0,0.0,1.929321,2
1737286243.0884306,20669,1737286243,86199680,base_link,0,1,33.6371342,72.9912741,539.9361754476344,1.0670889999999997,0.0,0.0,0.0,1.0670889999999997,0.0,0.0,0.0,1.929321,2
1737286243.1875153,20670,1737286243,185195840,base_link,0,1,33.6371343,72.9912741,539.9361760606041,1.069156,0.0,0.0,0.0,1.069156,0.0,0.0,0.0,1.9320999999999997,2
1737286243.2864282,20671,1737286243,283188160,base_link,0,1,33.6371344,72.9912741,539.936176673574,1.069156,0.0,0.0,0.0,1.069156,0.0,0.0,0.0,1.9320999999999997,2
1737286243.3873498,20672,1737286243,385184320,base_link,0,1,33.6371346,72.9912741,539.9361778995142,1.073296,0.0,0.0,0.0,1.073296,0.0,0.0,0.0,1.9320999999999997,2
1737286243.49187,20673,1737286243,488177664,base_link,0,1,33.6371347,72.991274,539.9461781152971,1.073296,0.0,0.0,0.0,1.073296,0.0,0.0,0.0,1.9320999999999997,2
1737286243.5862556,20674,1737286243,584172800,base_link,0,1,33.6371349,72.991274,539.9461793412377,1.0753689999999998,0.0,0.0,0.0,1.0753689999999998,0.0,0.0,0.0,1.934881,2
1737286243.6884139,20675,1737286243,686165632,base_link,0,1,33.637135,72.9912739,539.9461795570207,1.0753689999999998,0.0,0.0,0.0,1.0753689999999998,0.0,0.0,0.0,1.934881,2
1737286243.7874994,20676,1737286243,785161792,base_link,0,1,33.6371352,72.9912739,539.9361807829617,1.0795209999999997,0.0,0.0,0.0,1.0795209999999997,0.0,0.0,0.0,1.9376639999999998,2
1737286243.8883502,20677,1737286243,885154112,base_link,0,1,33.6371354,72.9912738,539.9361816117157,1.0795209999999997,0.0,0.0,0.0,1.0795209999999997,0.0,0.0,0.0,1.9376639999999998,2
1737286243.9875631,20678,1737286243,985145152,base_link,0,1,33.6371355,72.9912739,539.9461826218738,1.083681,0.0,0.0,0.0,1.083681,0.0,0.0,0.0,1.9376639999999998,2
1737286244.0864484,20679,1737286244,84142336,base_link,0,1,33.6371355,72.9912739,539.9461826218738,1.083681,0.0,0.0,0.0,1.083681,0.0,0.0,0.0,1.9376639999999998,2
1737286244.1877167,20680,1737286244,185142336,base_link,0,1,33.6371356,72.991274,539.9461836320323,1.0878489999999998,0.0,0.0,0.0,1.0878489999999998,0.0,0.0,0.0,1.940449,2
1737286244.2867045,20681,1737286244,283132352,base_link,0,1,33.6371356,72.991274,539.9461836320323,1.0878489999999998,0.0,0.0,0.0,1.0878489999999998,0.0,0.0,0.0,1.940449,2
1737286244.3873413,20682,1737286244,385132352,base_link,0,1,33.6371357,72.9912741,539.9361846421909,1.0920249999999998,0.0,0.0,0.0,1.0920249999999998,0.0,0.0,0.0,1.940449,2
1737286244.4863877,20683,1737286244,484132352,base_link,0,1,33.6371357,72.9912742,539.9261850393785,1.0920249999999998,0.0,0.0,0.0,1.0920249999999998,0.0,0.0,0.0,1.940449,2
1737286244.585053,20684,1737286244,583121344,base_link,0,1,33.6371357,72.9912743,539.9161854365661,1.094116,0.0,0.0,0.0,1.094116,0.0,0.0,0.0,1.940449,2
1737286244.6872818,20685,1737286244,685114432,base_link,0,1,33.6371357,72.9912744,539.9161858337537,1.094116,0.0,0.0,0.0,1.094116,0.0,0.0,0.0,1.940449,2
1737286244.7881658,20686,1737286244,784103680,base_link,0,1,33.6371358,72.9912744,539.9161864467251,1.0962089999999998,0.0,0.0,0.0,1.0962089999999998,0.0,0.0,0.0,1.940449,2
1737286244.8851366,20687,1737286244,883099584,base_link,0,1,33.6371359,72.9912745,539.9161874568841,1.0962089999999998,0.0,0.0,0.0,1.0962089999999998,0.0,0.0,0.0,1.940449,2
1737286244.9860525,20688,1737286244,984099584,base_link,0,1,33.637136,72.9912745,539.9161880698557,1.0983040000000002,0.0,0.0,0.0,1.0983040000000002,0.0,0.0,0.0,1.9432359999999997,2
1737286245.0871525,20689,1737286245,85098304,base_link,0,1,33.637136,72.9912745,539.9061880698557,1.0983040000000002,0.0,0.0,0.0,1.0983040000000002,0.0,0.0,0.0,1.9432359999999997,2
1737286245.1872249,20690,1737286245,184094208,base_link,0,1,33.637136,72.9912745,539.9061880698557,1.100401,0.0,0.0,0.0,1.100401,0.0,0.0,0.0,1.9432359999999997,2
1737286245.2913656,20691,1737286245,288090624,base_link,0,1,33.637136,72.9912745,539.9161880698557,1.100401,0.0,0.0,0.0,1.100401,0.0,0.0,0.0,1.9432359999999997,2
1737286245.3861234,20692,1737286245,384086784,base_link,0,1,33.637136,72.9912746,539.9161884670435,1.1025,0.0,0.0,0.0,1.1025,0.0,0.0,0.0,1.9432359999999997,2
1737286245.487454,20693,1737286245,485083456,base_link,0,1,33.6371359,72.9912747,539.9161882512598,1.1025,0.0,0.0,0.0,1.1025,0.0,0.0,0.0,1.9432359999999997,2
1737286245.5860934,20694,1737286245,584077824,base_link,0,1,33.6371359,72.9912747,539.9261882512598,1.104601,0.0,0.0,0.0,1.104601,0.0,0.0,0.0,1.9460250000000001,2
1737286245.6885984,20695,1737286245,686071424,base_link,0,1,33.6371359,72.9912748,539.9261886484476,1.104601,0.0,0.0,0.0,1.104601,0.0,0.0,0.0,1.9460250000000001,2
1737286245.7874305,20696,1737286245,785067328,base_link,0,1,33.6371358,72.9912748,539.9261880354761,1.1067040000000001,0.0,0.0,0.0,1.1067040000000001,0.0,0.0,0.0,1.9460250000000001,2
1737286245.8863356,20697,1737286245,884061952,base_link,0,1,33.6371357,72.9912749,539.9361878196923,1.1067040000000001,0.0,0.0,0.0,1.1067040000000001,0.0,0.0,0.0,1.9460250000000001,2
1737286245.9862008,20698,1737286245,983057344,base_link,0,1,33.6371357,72.9912749,539.9361878196923,1.1067040000000001,0.0,0.0,0.0,1.1067040000000001,0.0,0.0,0.0,1.9460250000000001,2
1737286246.086079,20699,1737286246,83051712,base_link,0,1,33.6371356,72.991275,539.9361876039088,1.1067040000000001,0.0,0.0,0.0,1.1067040000000001,0.0,0.0,0.0,1.9460250000000001,2
1737286246.193185,20700,1737286246,191048640,base_link,0,1,33.6371355,72.991275,539.9361869909374,1.108809,0.0,0.0,0.0,1.108809,0.0,0.0,0.0,1.9488159999999997,2
1737286246.2920325,20701,1737286246,290040704,base_link,0,1,33.6371355,72.991275,539.9361869909374,1.108809,0.0,0.0,0.0,1.108809,0.0,0.0,0.0,1.9488159999999997,2
1737286246.388293,20702,1737286246,386034048,base_link,0,1,33.6371355,72.991275,539.9361869909374,1.108809,0.0,0.0,0.0,1.108809,0.0,0.0,0.0,1.9488159999999997,2
1737286246.48925,20703,1737286246,487030720,base_link,0,1,33.6371355,72.9912751,539.9361873881251,1.108809,0.0,0.0,0.0,1.108809,0.0,0.0,0.0,1.9488159999999997,2
1737286246.5854192,20704,1737286246,584023296,base_link,0,1,33.6371355,72.9912751,539.9361873881251,1.110916,0.0,0.0,0.0,1.110916,0.0,0.0,0.0,1.9488159999999997,2
1737286246.6849892,20705,1737286246,683017408,base_link,0,1,33.6371354,72.9912751,539.9361867751537,1.110916,0.0,0.0,0.0,1.110916,0.0,0.0,0.0,1.9488159999999997,2
1737286246.7863715,20706,1737286246,785011264,base_link,0,1,33.6371355,72.9912751,539.9361873881251,1.110916,0.0,0.0,0.0,1.110916,0.0,0.0,0.0,1.9460250000000001,2
1737286246.886452,20707,1737286246,884009216,base_link,0,1,33.6371354,72.9912753,539.9461875695292,1.110916,0.0,0.0,0.0,1.110916,0.0,0.0,0.0,1.9460250000000001,2
1737286246.9854136,20708,1737286246,983004096,base_link,0,1,33.6371355,72.9912753,539.9461881825006,1.110916,0.0,0.0,0.0,1.110916,0.0,0.0,0.0,1.9460250000000001,2
1737286247.0916216,20709,1737286247,89992576,base_link,0,1,33.6371354,72.9912753,539.9461875695292,1.110916,0.0,0.0,0.0,1.110916,0.0,0.0,0.0,1.9460250000000001,2
1737286247.187176,20710,1737286247,184993856,base_link,0,1,33.6371355,72.9912753,539.9561881825006,1.110916,0.0,0.0,0.0,1.110916,0.0,0.0,0.0,1.9488159999999997,2
1737286247.2910225,20711,1737286247,283992064,base_link,0,1,33.6371354,72.9912753,539.9661875695293,1.110916,0.0,0.0,0.0,1.110916,0.0,0.0,0.0,1.9488159999999997,2
1737286247.3855321,20712,1737286247,382992064,base_link,0,1,33.6371355,72.9912753,539.9961881825006,1.110916,0.0,0.0,0.0,1.110916,0.0,0.0,0.0,1.9460250000000001,2
1737286247.4864514,20713,1737286247,484986688,base_link,0,1,33.6371355,72.9912753,540.0161881825006,1.110916,0.0,0.0,0.0,1.110916,0.0,0.0,0.0,1.9460250000000001,2
1737286247.5865393,20714,1737286247,583984896,base_link,0,1,33.6371356,72.9912754,540.03618919266,1.108809,0.0,0.0,0.0,1.108809,0.0,0.0,0.0,1.9488159999999997,2
1737286247.6857276,20715,1737286247,682980544,base_link,0,1,33.6371356,72.9912754,540.04618919266,1.108809,0.0,0.0,0.0,1.108809,0.0,0.0,0.0,1.9488159999999997,2
1737286247.786736,20716,1737286247,783974912,base_link,0,1,33.6371356,72.9912754,540.05618919266,1.110916,0.0,0.0,0.0,1.110916,0.0,0.0,0.0,1.9488159999999997,2
1737286247.8864262,20717,1737286247,882968256,base_link,0,1,33.6371356,72.9912754,540.06618919266,1.110916,0.0,0.0,0.0,1.110916,0.0,0.0,0.0,1.9488159999999997,2
1737286247.9847653,20718,1737286247,982962624,base_link,0,1,33.6371355,72.9912754,540.0861885796884,1.110916,0.0,0.0,0.0,1.110916,0.0,0.0,0.0,1.9488159999999997,2
1737286248.0879025,20719,1737286248,84958528,base_link,0,1,33.6371355,72.9912754,540.1061885796885,1.110916,0.0,0.0,0.0,1.110916,0.0,0.0,0.0,1.9488159999999997,2
1737286248.1858797,20720,1737286248,183952128,base_link,0,1,33.6371355,72.9912755,540.1261889768763,1.110916,0.0,0.0,0.0,1.110916,0.0,0.0,0.0,1.9516090000000001,2
1737286248.2898343,20721,1737286248,282945984,base_link,0,1,33.6371355,72.9912755,540.1561889768763,1.110916,0.0,0.0,0.0,1.110916,0.0,0.0,0.0,1.9516090000000001,2
1737286248.38854,20722,1737286248,382941376,base_link,0,1,33.6371354,72.9912756,540.1761887610925,1.113025,0.0,0.0,0.0,1.113025,0.0,0.0,0.0,1.957201,2
1737286248.4901433,20723,1737286248,484938560,base_link,0,1,33.6371353,72.9912756,540.2061881481211,1.113025,0.0,0.0,0.0,1.113025,0.0,0.0,0.0,1.957201,2
1737286248.585904,20724,1737286248,583933952,base_link,0,1,33.6371353,72.9912756,540.2261881481212,1.113025,0.0,0.0,0.0,1.113025,0.0,0.0,0.0,1.957201,2
1737286248.6879013,20725,1737286248,685929088,base_link,0,1,33.6371352,72.9912756,540.2461875351498,1.1151360000000001,0.0,0.0,0.0,1.1151360000000001,0.0,0.0,0.0,1.9599999999999997,2
1737286248.7888331,20726,1737286248,785923200,base_link,0,1,33.6371352,72.9912756,540.2661875351498,1.117249,0.0,0.0,0.0,1.117249,0.0,0.0,0.0,1.962801,2
1737286248.8861163,20727,1737286248,883920896,base_link,0,1,33.6371351,72.9912756,540.2861869221786,1.117249,0.0,0.0,0.0,1.117249,0.0,0.0,0.0,1.962801,2
1737286248.986351,20728,1737286248,983916800,base_link,0,1,33.6371351,72.9912756,540.3161869221785,1.117249,0.0,0.0,0.0,1.117249,0.0,0.0,0.0,1.962801,2
1737286249.0861628,20729,1737286249,82910400,base_link,0,1,33.6371351,72.9912756,540.3361869221785,1.117249,0.0,0.0,0.0,1.117249,0.0,0.0,0.0,1.962801,2
1737286249.1871777,20730,1737286249,184905280,base_link,0,1,33.637135,72.9912756,540.3561863092074,1.117249,0.0,0.0,0.0,1.117249,0.0,0.0,0.0,1.9656039999999997,2
1737286249.2891479,20731,1737286249,283900160,base_link,0,1,33.637135,72.9912756,540.3761863092074,1.117249,0.0,0.0,0.0,1.117249,0.0,0.0,0.0,1.9656039999999997,2
1737286249.3852746,20732,1737286249,382894272,base_link,0,1,33.637135,72.9912756,540.3861863092073,1.119364,0.0,0.0,0.0,1.119364,0.0,0.0,0.0,1.968409,2
1737286249.4885128,20733,1737286249,484888896,base_link,0,1,33.6371349,72.9912756,540.4061856962362,1.119364,0.0,0.0,0.0,1.119364,0.0,0.0,0.0,1.968409,2
1737286249.5863867,20734,1737286249,583883264,base_link,0,1,33.6371349,72.9912756,540.4361856962362,1.119364,0.0,0.0,0.0,1.119364,0.0,0.0,0.0,1.968409,2
1737286249.688325,20735,1737286249,685878912,base_link,0,1,33.6371349,72.9912756,540.4661856962363,1.119364,0.0,0.0,0.0,1.119364,0.0,0.0,0.0,1.968409,2
1737286249.7869208,20736,1737286249,784872512,base_link,0,1,33.6371349,72.9912756,540.4961856962362,1.119364,0.0,0.0,0.0,1.119364,0.0,0.0,0.0,1.968409,2
1737286249.8938801,20737,1737286249,891869440,base_link,0,1,33.6371348,72.9912756,540.5261850832652,1.119364,0.0,0.0,0.0,1.119364,0.0,0.0,0.0,1.968409,2
1737286249.9864945,20738,1737286249,983878144,base_link,0,1,33.6371348,72.9912756,540.5561850832652,1.119364,0.0,0.0,0.0,1.119364,0.0,0.0,0.0,1.9656039999999997,2
1737286250.0857794,20739,1737286250,82867392,base_link,0,1,33.6371348,72.9912756,540.5861850832651,1.119364,0.0,0.0,0.0,1.119364,0.0,0.0,0.0,1.9656039999999997,2
1737286250.1863408,20740,1737286250,183857408,base_link,0,1,33.6371348,72.9912757,540.6061854804528,1.119364,0.0,0.0,0.0,1.119364,0.0,0.0,0.0,1.968409,2
1737286250.2858877,20741,1737286250,282850496,base_link,0,1,33.6371348,72.9912758,540.6261858776404,1.119364,0.0,0.0,0.0,1.119364,0.0,0.0,0.0,1.968409,2
1737286250.3849313,20742,1737286250,382841536,base_link,0,1,33.6371348,72.9912758,540.6561858776404,1.119364,0.0,0.0,0.0,1.119364,0.0,0.0,0.0,1.968409,2
1737286250.4997506,20743,1737286250,484836928,base_link,0,1,33.6371347,72.9912758,540.6761852646694,1.119364,0.0,0.0,0.0,1.119364,0.0,0.0,0.0,1.968409,2
1737286250.5864263,20744,1737286250,583833856,base_link,0,1,33.6371348,72.9912758,540.6861858776404,1.121481,0.0,0.0,0.0,1.121481,0.0,0.0,0.0,1.9712159999999999,2
1737286250.685027,20745,1737286250,682833856,base_link,0,1,33.6371347,72.9912758,540.7061852646693,1.121481,0.0,0.0,0.0,1.121481,0.0,0.0,0.0,1.9712159999999999,2
1737286250.7859938,20746,1737286250,783833344,base_link,0,1,33.6371348,72.9912758,540.7161858776404,1.121481,0.0,0.0,0.0,1.121481,0.0,0.0,0.0,1.9740250000000001,2
1737286250.8850205,20747,1737286250,882828992,base_link,0,1,33.6371348,72.9912759,540.716186274828,1.121481,0.0,0.0,0.0,1.121481,0.0,0.0,0.0,1.9740250000000001,2
1737286250.9863198,20748,1737286250,983827456,base_link,0,1,33.6371348,72.9912759,540.726186274828,1.121481,0.0,0.0,0.0,1.121481,0.0,0.0,0.0,1.9740250000000001,2
1737286251.0888476,20749,1737286251,86818752,base_link,0,1,33.6371348,72.9912758,540.7361858776404,1.121481,0.0,0.0,0.0,1.121481,0.0,0.0,0.0,1.9740250000000001,2
1737286251.1864033,20750,1737286251,183812096,base_link,0,1,33.6371348,72.9912758,540.7461858776404,1.121481,0.0,0.0,0.0,1.121481,0.0,0.0,0.0,1.9768359999999998,2
1737286251.291542,20751,1737286251,287807488,base_link,0,1,33.6371348,72.9912758,540.7561858776404,1.121481,0.0,0.0,0.0,1.121481,0.0,0.0,0.0,1.9768359999999998,2
1737286251.3889892,20752,1737286251,386801088,base_link,0,1,33.6371348,72.9912758,540.7661858776404,1.121481,0.0,0.0,0.0,1.121481,0.0,0.0,0.0,1.9768359999999998,2
1737286251.48822,20753,1737286251,485796480,base_link,0,1,33.6371348,72.9912758,540.7761858776404,1.121481,0.0,0.0,0.0,1.121481,0.0,0.0,0.0,1.9768359999999998,2
1737286251.5871193,20754,1737286251,584793664,base_link,0,1,33.6371348,72.9912758,540.7861858776404,1.121481,0.0,0.0,0.0,1.121481,0.0,0.0,0.0,1.979649,2
1737286251.685237,20755,1737286251,682787264,base_link,0,1,33.6371348,72.9912758,540.7961858776404,1.121481,0.0,0.0,0.0,1.121481,0.0,0.0,0.0,1.979649,2
1737286251.7847972,20756,1737286251,782780864,base_link,0,1,33.6371348,72.9912759,540.796186274828,1.121481,0.0,0.0,0.0,1.121481,0.0,0.0,0.0,1.979649,2
1737286251.8867908,20757,1737286251,883777536,base_link,0,1,33.6371348,72.9912759,540.806186274828,1.121481,0.0,0.0,0.0,1.121481,0.0,0.0,0.0,1.979649,2
1737286251.98799,20758,1737286251,984774976,base_link,0,1,33.6371348,72.9912759,540.806186274828,1.119364,0.0,0.0,0.0,1.119364,0.0,0.0,0.0,1.979649,2
1737286252.0869842,20759,1737286252,83766784,base_link,0,1,33.6371348,72.9912759,540.806186274828,1.119364,0.0,0.0,0.0,1.119364,0.0,0.0,0.0,1.979649,2
1737286252.1855109,20760,1737286252,182761664,base_link,0,1,33.6371349,72.9912759,540.7961868877991,1.119364,0.0,0.0,0.0,1.119364,0.0,0.0,0.0,1.9824639999999998,2
1737286252.292188,20761,1737286252,287757568,base_link,0,1,33.6371349,72.9912759,540.7961868877991,1.119364,0.0,0.0,0.0,1.119364,0.0,0.0,0.0,1.9824639999999998,2
1737286252.3860002,20762,1737286252,383755264,base_link,0,1,33.6371349,72.9912759,540.8061868877991,1.119364,0.0,0.0,0.0,1.119364,0.0,0.0,0.0,1.985281,2
1737286252.4870815,20763,1737286252,485749376,base_link,0,1,33.6371349,72.991276,540.7961872849868,1.119364,0.0,0.0,0.0,1.119364,0.0,0.0,0.0,1.985281,2
1737286252.5851831,20764,1737286252,582745024,base_link,0,1,33.6371349,72.991276,540.8061872849868,1.119364,0.0,0.0,0.0,1.119364,0.0,0.0,0.0,1.985281,2
1737286252.6850379,20765,1737286252,682738880,base_link,0,1,33.6371349,72.991276,540.8061872849868,1.119364,0.0,0.0,0.0,1.119364,0.0,0.0,0.0,1.985281,2
1737286252.7862015,20766,1737286252,783741184,base_link,0,1,33.6371349,72.991276,540.8061872849868,1.119364,0.0,0.0,0.0,1.119364,0.0,0.0,0.0,1.9880999999999998,2
1737286252.8902035,20767,1737286252,888740160,base_link,0,1,33.6371349,72.991276,540.8061872849868,1.119364,0.0,0.0,0.0,1.119364,0.0,0.0,0.0,1.9880999999999998,2
1737286252.9842048,20768,1737286252,982734272,base_link,0,1,33.6371349,72.991276,540.7961872849868,1.119364,0.0,0.0,0.0,1.119364,0.0,0.0,0.0,1.9880999999999998,2
1737286253.0881975,20769,1737286253,85727872,base_link,0,1,33.6371349,72.991276,540.7961872849868,1.119364,0.0,0.0,0.0,1.119364,0.0,0.0,0.0,1.9880999999999998,2
1737286253.1847315,20770,1737286253,182719168,base_link,0,1,33.6371349,72.991276,540.7861872849868,1.119364,0.0,0.0,0.0,1.119364,0.0,0.0,0.0,1.9880999999999998,2
1737286253.2893674,20771,1737286253,283714048,base_link,0,1,33.6371349,72.991276,540.7761872849868,1.119364,0.0,0.0,0.0,1.119364,0.0,0.0,0.0,1.9880999999999998,2
1737286253.385229,20772,1737286253,383707392,base_link,0,1,33.6371349,72.991276,540.7661872849868,1.119364,0.0,0.0,0.0,1.119364,0.0,0.0,0.0,1.9880999999999998,2
1737286253.494193,20773,1737286253,492702272,base_link,0,1,33.6371349,72.991276,540.7561872849868,1.119364,0.0,0.0,0.0,1.119364,0.0,0.0,0.0,1.9880999999999998,2
1737286253.5860994,20774,1737286253,583700224,base_link,0,1,33.6371349,72.991276,540.7561872849868,1.119364,0.0,0.0,0.0,1.119364,0.0,0.0,0.0,1.9909210000000002,2
1737286253.6841843,20775,1737286253,682695872,base_link,0,1,33.637135,72.9912759,540.7561875007705,1.119364,0.0,0.0,0.0,1.119364,0.0,0.0,0.0,1.9909210000000002,2
1737286253.7861993,20776,1737286253,784693056,base_link,0,1,33.6371351,72.9912759,540.7661881137417,1.117249,0.0,0.0,0.0,1.117249,0.0,0.0,0.0,1.9909210000000002,2
1737286253.8882284,20777,1737286253,886687168,base_link,0,1,33.6371352,72.9912758,540.7761883295253,1.117249,0.0,0.0,0.0,1.117249,0.0,0.0,0.0,1.9909210000000002,2
1737286253.9853027,20778,1737286253,983683072,base_link,0,1,33.6371353,72.9912758,540.7861889424967,1.117249,0.0,0.0,0.0,1.117249,0.0,0.0,0.0,1.9909210000000002,2
1737286254.091297,20779,1737286254,87680768,base_link,0,1,33.6371355,72.9912758,540.7861901684398,1.117249,0.0,0.0,0.0,1.117249,0.0,0.0,0.0,1.9909210000000002,2
1737286254.1854875,20780,1737286254,183675648,base_link,0,1,33.6371358,72.9912757,540.7861916101673,1.1151360000000001,0.0,0.0,0.0,1.1151360000000001,0.0,0.0,0.0,1.9909210000000002,2
1737286254.2882173,20781,1737286254,282668480,base_link,0,1,33.637136,72.9912757,540.7861928361112,1.1151360000000001,0.0,0.0,0.0,1.1151360000000001,0.0,0.0,0.0,1.9909210000000002,2
1737286254.3845148,20782,1737286254,382665408,base_link,0,1,33.6371364,72.9912756,540.7861948908119,1.1151360000000001,0.0,0.0,0.0,1.1151360000000001,0.0,0.0,0.0,1.9937439999999997,2
1737286254.4855516,20783,1737286254,483661312,base_link,0,1,33.6371367,72.9912756,540.7861967297295,1.1151360000000001,0.0,0.0,0.0,1.1151360000000001,0.0,0.0,0.0,1.9937439999999997,2
1737286254.5853846,20784,1737286254,583656448,base_link,0,1,33.6371372,72.9912755,540.7761993974052,1.113025,0.0,0.0,0.0,1.113025,0.0,0.0,0.0,1.9937439999999997,2
1737286254.6842937,20785,1737286254,682652096,base_link,0,1,33.6371376,72.9912755,540.7662018492982,1.113025,0.0,0.0,0.0,1.113025,0.0,0.0,0.0,1.9937439999999997,2
1737286254.7841969,20786,1737286254,782649792,base_link,0,1,33.6371381,72.9912755,540.7562049141663,1.113025,0.0,0.0,0.0,1.113025,0.0,0.0,0.0,1.9937439999999997,2
1737286254.8886216,20787,1737286254,885647744,base_link,0,1,33.6371386,72.9912756,540.7462083762258,1.110916,0.0,0.0,0.0,1.110916,0.0,0.0,0.0,1.9909210000000002,2
1737286254.9844935,20788,1737286254,982643904,base_link,0,1,33.6371392,72.9912756,540.7362120540735,1.108809,0.0,0.0,0.0,1.108809,0.0,0.0,0.0,1.9909210000000002,2
1737286255.0865846,20789,1737286255,84639296,base_link,0,1,33.6371398,72.9912756,540.7362157319244,1.108809,0.0,0.0,0.0,1.108809,0.0,0.0,0.0,1.9909210000000002,2
1737286255.1856966,20790,1737286255,183635456,base_link,0,1,33.6371405,72.9912757,540.7462204199444,1.108809,0.0,0.0,0.0,1.108809,0.0,0.0,0.0,1.9937439999999997,2
1737286255.285544,20791,1737286255,283630336,base_link,0,1,33.6371412,72.9912758,540.7562251079695,1.108809,0.0,0.0,0.0,1.108809,0.0,0.0,0.0,1.9937439999999997,2
1737286255.3864627,20792,1737286255,384631104,base_link,0,1,33.6371419,72.9912759,540.7662297959996,1.108809,0.0,0.0,0.0,1.108809,0.0,0.0,0.0,1.9937439999999997,2
1737286255.4854984,20793,1737286255,483621632,base_link,0,1,33.6371425,72.991276,540.7762338710565,1.108809,0.0,0.0,0.0,1.108809,0.0,0.0,0.0,1.9937439999999997,2
1737286255.5846703,20794,1737286255,582607552,base_link,0,1,33.6371432,72.9912761,540.7762385590959,1.108809,0.0,0.0,0.0,1.108809,0.0,0.0,0.0,1.996569,2
1737286255.6866264,20795,1737286255,684607552,base_link,0,1,33.6371439,72.9912762,540.7762432471403,1.108809,0.0,0.0,0.0,1.108809,0.0,0.0,0.0,1.996569,2
1737286255.785665,20796,1737286255,784620096,base_link,0,1,33.6371446,72.9912763,540.7662479351898,1.1067040000000001,0.0,0.0,0.0,1.1067040000000001,0.0,0.0,0.0,1.996569,2
1737286255.8847072,20797,1737286255,882610880,base_link,0,1,33.6371452,72.9912764,540.7562520102636,1.1067040000000001,0.0,0.0,0.0,1.1067040000000001,0.0,0.0,0.0,1.996569,2
1737286255.9865162,20798,1737286255,984603712,base_link,0,1,33.6371458,72.9912765,540.746256085341,1.1067040000000001,0.0,0.0,0.0,1.1067040000000001,0.0,0.0,0.0,1.996569,2
1737286256.0866246,20799,1737286256,84597312,base_link,0,1,33.6371464,72.9912766,540.7362601604223,1.1067040000000001,0.0,0.0,0.0,1.1067040000000001,0.0,0.0,0.0,1.996569,2
1737286256.1846206,20800,1737286256,183591680,base_link,0,1,33.637147,72.9912766,540.7362638383142,1.104601,0.0,0.0,0.0,1.104601,0.0,0.0,0.0,1.996569,2
1737286256.2838936,20801,1737286256,282587584,base_link,0,1,33.6371476,72.9912767,540.7262679134027,1.104601,0.0,0.0,0.0,1.104601,0.0,0.0,0.0,1.996569,2
1737286256.385739,20802,1737286256,384584256,base_link,0,1,33.6371481,72.9912767,540.7162709783179,1.104601,0.0,0.0,0.0,1.104601,0.0,0.0,0.0,1.9993959999999997,2
1737286256.4856145,20803,1737286256,483579648,base_link,0,1,33.6371487,72.9912768,540.716275053413,1.104601,0.0,0.0,0.0,1.104601,0.0,0.0,0.0,1.9993959999999997,2
1737286256.5857258,20804,1737286256,583578112,base_link,0,1,33.6371492,72.9912768,540.7162781183334,1.1025,0.0,0.0,0.0,1.1025,0.0,0.0,0.0,1.9993959999999997,2
1737286256.6857464,20805,1737286256,684574272,base_link,0,1,33.6371497,72.9912768,540.716281183256,1.1025,0.0,0.0,0.0,1.1025,0.0,0.0,0.0,1.9993959999999997,2
1737286256.7898421,20806,1737286256,788571968,base_link,0,1,33.6371503,72.9912768,540.726284861166,1.1025,0.0,0.0,0.0,1.1025,0.0,0.0,0.0,2.002225,2
1737286256.8887525,20807,1737286256,887564800,base_link,0,1,33.6371509,72.9912768,540.7262885390793,1.1025,0.0,0.0,0.0,1.1025,0.0,0.0,0.0,2.002225,2
1737286256.9876845,20808,1737286256,986560960,base_link,0,1,33.6371516,72.9912768,540.7362928299822,1.1025,0.0,0.0,0.0,1.1025,0.0,0.0,0.0,2.0050559999999997,2
1737286257.0874684,20809,1737286257,85553536,base_link,0,1,33.6371523,72.9912768,540.7362971208894,1.1025,0.0,0.0,0.0,1.1025,0.0,0.0,0.0,2.0050559999999997,2
1737286257.1848314,20810,1737286257,182546624,base_link,0,1,33.637153,72.9912768,540.7463014118009,1.1025,0.0,0.0,0.0,1.1025,0.0,0.0,0.0,2.007889,2
1737286257.28472,20811,1737286257,282541248,base_link,0,1,33.6371539,72.9912768,540.7463069286937,1.1025,0.0,0.0,0.0,1.1025,0.0,0.0,0.0,2.007889,2
1737286257.3838193,20812,1737286257,382535616,base_link,0,1,33.6371548,72.9912769,540.7563128427901,1.100401,0.0,0.0,0.0,1.100401,0.0,0.0,0.0,2.007889,2
1737286257.4888506,20813,1737286257,486532544,base_link,0,1,33.6371559,72.991277,540.7663199828751,1.100401,0.0,0.0,0.0,1.100401,0.0,0.0,0.0,2.007889,2
1737286257.5857942,20814,1737286257,583531776,base_link,0,1,33.637157,72.9912771,540.7763271229719,1.100401,0.0,0.0,0.0,1.100401,0.0,0.0,0.0,2.0107239999999997,2
1737286257.6847804,20815,1737286257,682525120,base_link,0,1,33.6371582,72.9912773,540.7763352732709,1.100401,0.0,0.0,0.0,1.100401,0.0,0.0,0.0,2.0107239999999997,2
1737286257.7838402,20816,1737286257,782522048,base_link,0,1,33.6371595,72.9912775,540.7863440365786,1.100401,0.0,0.0,0.0,1.100401,0.0,0.0,0.0,2.0107239999999997,2
1737286257.8848553,20817,1737286257,883518720,base_link,0,1,33.6371608,72.9912777,540.7863527999037,1.100401,0.0,0.0,0.0,1.100401,0.0,0.0,0.0,2.0107239999999997,2
1737286257.9856389,20818,1737286257,983513344,base_link,0,1,33.6371622,72.9912778,540.7963617790426,1.100401,0.0,0.0,0.0,1.100401,0.0,0.0,0.0,2.0107239999999997,2
1737286258.084013,20819,1737286258,82504640,base_link,0,1,33.6371636,72.991278,540.7963711554008,1.100401,0.0,0.0,0.0,1.100401,0.0,0.0,0.0,2.0107239999999997,2
1737286258.1860201,20820,1737286258,184496960,base_link,0,1,33.6371652,72.9912783,540.7963821549785,1.0983040000000002,0.0,0.0,0.0,1.0983040000000002,0.0,0.0,0.0,2.013561,2
1737286258.2877576,20821,1737286258,285490304,base_link,0,1,33.6371668,72.9912785,540.7963927573812,1.0983040000000002,0.0,0.0,0.0,1.0983040000000002,0.0,0.0,0.0,2.013561,2
1737286258.3852184,20822,1737286258,382488512,base_link,0,1,33.6371684,72.9912787,540.7964033598095,1.0983040000000002,0.0,0.0,0.0,1.0983040000000002,0.0,0.0,0.0,2.013561,2
1737286258.4860108,20823,1737286258,483483648,base_link,0,1,33.6371701,72.9912789,540.7964145752672,1.0983040000000002,0.0,0.0,0.0,1.0983040000000002,0.0,0.0,0.0,2.013561,2
1737286258.585236,20824,1737286258,582477760,base_link,0,1,33.6371719,72.9912791,540.7964264037593,1.0983040000000002,0.0,0.0,0.0,1.0983040000000002,0.0,0.0,0.0,2.0164,2
1737286258.6850243,20825,1737286258,682472896,base_link,0,1,33.6371737,72.9912794,540.8064386294885,1.0983040000000002,0.0,0.0,0.0,1.0983040000000002,0.0,0.0,0.0,2.0164,2
1737286258.7860672,20826,1737286258,783464960,base_link,0,1,33.6371757,72.9912797,540.8164520812699,1.0983040000000002,0.0,0.0,0.0,1.0983040000000002,0.0,0.0,0.0,2.0164,2
1737286258.884312,20827,1737286258,882458560,base_link,0,1,33.6371777,72.9912799,540.8164651358849,1.0983040000000002,0.0,0.0,0.0,1.0983040000000002,0.0,0.0,0.0,2.0164,2
1737286258.984141,20828,1737286258,982456000,base_link,0,1,33.6371798,72.9912802,540.8064792007601,1.0962089999999998,0.0,0.0,0.0,1.0962089999999998,0.0,0.0,0.0,2.0164,2
1737286259.0860567,20829,1737286259,83449088,base_link,0,1,33.6371819,72.9912804,540.8164928684712,1.0962089999999998,0.0,0.0,0.0,1.0962089999999998,0.0,0.0,0.0,2.0164,2
1737286259.184893,20830,1737286259,182442944,base_link,0,1,33.6371839,72.9912806,540.8165059232084,1.0962089999999998,0.0,0.0,0.0,1.0962089999999998,0.0,0.0,0.0,2.0164,2
1737286259.2842495,20831,1737286259,282436544,base_link,0,1,33.6371859,72.9912808,540.8265189779847,1.0962089999999998,0.0,0.0,0.0,1.0962089999999998,0.0,0.0,0.0,2.0164,2
1737286259.386898,20832,1737286259,384432448,base_link,0,1,33.6371879,72.9912811,540.8465324300123,1.0962089999999998,0.0,0.0,0.0,1.0962089999999998,0.0,0.0,0.0,2.0164,2
1737286259.4881308,20833,1737286259,485425536,base_link,0,1,33.6371899,72.9912813,540.8665454848679,1.0962089999999998,0.0,0.0,0.0,1.0962089999999998,0.0,0.0,0.0,2.0164,2
1737286259.5841606,20834,1737286259,582420416,base_link,0,1,33.6371917,72.9912814,540.8765569165006,1.0962089999999998,0.0,0.0,0.0,1.0962089999999998,0.0,0.0,0.0,2.019241,2
1737286259.6875393,20835,1737286259,685412992,base_link,0,1,33.6371935,72.9912815,540.8865683481636,1.0962089999999998,0.0,0.0,0.0,1.0962089999999998,0.0,0.0,0.0,2.019241,2
1737286259.7847803,20836,1737286259,782406336,base_link,0,1,33.6371951,72.9912815,540.8865781565872,1.0962089999999998,0.0,0.0,0.0,1.0962089999999998,0.0,0.0,0.0,2.019241,2
1737286259.8847048,20837,1737286259,882402752,base_link,0,1,33.6371965,72.9912815,540.8865867389766,1.0962089999999998,0.0,0.0,0.0,1.0962089999999998,0.0,0.0,0.0,2.019241,2
1737286259.9863381,20838,1737286259,984398656,base_link,0,1,33.6371979,72.9912814,540.8865949241672,1.094116,0.0,0.0,0.0,1.094116,0.0,0.0,0.0,2.019241,2
1737286260.0852008,20839,1737286260,83396096,base_link,0,1,33.6371991,72.9912814,540.8866022805292,1.094116,0.0,0.0,0.0,1.094116,0.0,0.0,0.0,2.019241,2
1737286260.185338,20840,1737286260,183391744,base_link,0,1,33.6372002,72.9912813,540.8866086266551,1.0920249999999998,0.0,0.0,0.0,1.0920249999999998,0.0,0.0,0.0,2.022084,2
1737286260.2842474,20841,1737286260,282386880,base_link,0,1,33.6372012,72.9912811,540.8766139625405,1.0920249999999998,0.0,0.0,0.0,1.0920249999999998,0.0,0.0,0.0,2.022084,2
1737286260.386338,20842,1737286260,384383552,base_link,0,1,33.6372024,72.9912808,540.8566201272818,1.0920249999999998,0.0,0.0,0.0,1.0920249999999998,0.0,0.0,0.0,2.022084,2
1737286260.4854052,20843,1737286260,483379456,base_link,0,1,33.6372033,72.9912805,540.8466244529304,1.0920249999999998,0.0,0.0,0.0,1.0920249999999998,0.0,0.0,0.0,2.022084,2
1737286260.5858963,20844,1737286260,582373568,base_link,0,1,33.6372044,72.9912801,540.8366296074347,1.0920249999999998,0.0,0.0,0.0,1.0920249999999998,0.0,0.0,0.0,2.022084,2
1737286260.686612,20845,1737286260,684369472,base_link,0,1,33.6372054,72.9912797,540.8166341489109,1.0920249999999998,0.0,0.0,0.0,1.0920249999999998,0.0,0.0,0.0,2.024929,2
1737286260.7867453,20846,1737286260,784370752,base_link,0,1,33.6372064,72.9912793,540.7966386903927,1.0920249999999998,0.0,0.0,0.0,1.0920249999999998,0.0,0.0,0.0,2.024929,2
1737286260.8859463,20847,1737286260,883370752,base_link,0,1,33.6372073,72.991279,540.7866430160633,1.0920249999999998,0.0,0.0,0.0,1.0920249999999998,0.0,0.0,0.0,2.024929,2
1737286260.9847236,20848,1737286260,982356928,base_link,0,1,33.6372081,72.9912786,540.7766463314813,1.089936,0.0,0.0,0.0,1.089936,0.0,0.0,0.0,2.024929,2
1737286261.0867226,20849,1737286261,84366400,base_link,0,1,33.637209,72.9912784,540.7566510543815,1.089936,0.0,0.0,0.0,1.089936,0.0,0.0,0.0,2.024929,2
1737286261.1852508,20850,1737286261,183358720,base_link,0,1,33.6372098,72.9912782,540.7466551642484,1.089936,0.0,0.0,0.0,1.089936,0.0,0.0,0.0,2.027776,2
1737286261.284558,20851,1737286261,282346432,base_link,0,1,33.6372105,72.991278,540.7266586610805,1.089936,0.0,0.0,0.0,1.089936,0.0,0.0,0.0,2.027776,2
1737286261.384322,20852,1737286261,382340288,base_link,0,1,33.6372112,72.9912777,540.7166617606945,1.089936,0.0,0.0,0.0,1.089936,0.0,0.0,0.0,2.030625,2
1737286261.4883084,20853,1737286261,486334656,base_link,0,1,33.637212,72.9912776,540.6966662677945,1.089936,0.0,0.0,0.0,1.089936,0.0,0.0,0.0,2.030625,2
1737286261.5841837,20854,1737286261,582326464,base_link,0,1,33.6372126,72.9912774,540.6866691515958,1.0878489999999998,0.0,0.0,0.0,1.0878489999999998,0.0,0.0,0.0,2.030625,2
1737286261.6843128,20855,1737286261,682320576,base_link,0,1,33.6372133,72.9912773,540.6666730456627,1.0878489999999998,0.0,0.0,0.0,1.0878489999999998,0.0,0.0,0.0,2.030625,2
1737286261.78544,20856,1737286261,783316480,base_link,0,1,33.6372139,72.9912771,540.6566759294692,1.0878489999999998,0.0,0.0,0.0,1.0878489999999998,0.0,0.0,0.0,2.033476,2
1737286261.8845017,20857,1737286261,882312896,base_link,0,1,33.6372144,72.9912771,540.6566789946803,1.0878489999999998,0.0,0.0,0.0,1.0878489999999998,0.0,0.0,0.0,2.033476,2
1737286261.9844391,20858,1737286261,982309312,base_link,0,1,33.637215,72.9912769,540.6466818784912,1.0878489999999998,0.0,0.0,0.0,1.0878489999999998,0.0,0.0,0.0,2.0363290000000003,2
1737286262.0913775,20859,1737286262,89300864,base_link,0,1,33.6372155,72.9912769,540.6466849437069,1.0878489999999998,0.0,0.0,0.0,1.0878489999999998,0.0,0.0,0.0,2.0363290000000003,2
1737286262.18947,20860,1737286262,185298048,base_link,0,1,33.6372159,72.9912769,540.6466873958809,1.089936,0.0,0.0,0.0,1.089936,0.0,0.0,0.0,2.0391839999999997,2
1737286262.2865472,20861,1737286262,284293440,base_link,0,1,33.6372163,72.9912769,540.6366898480564,1.089936,0.0,0.0,0.0,1.089936,0.0,0.0,0.0,2.0391839999999997,2
1737286262.384594,20862,1737286262,382290112,base_link,0,1,33.6372166,72.9912769,540.636691687189,1.089936,0.0,0.0,0.0,1.089936,0.0,0.0,0.0,2.0391839999999997,2
1737286262.4855855,20863,1737286262,484286528,base_link,0,1,33.6372169,72.9912769,540.6266935263224,1.089936,0.0,0.0,0.0,1.089936,0.0,0.0,0.0,2.042041,2
1737286262.5845003,20864,1737286262,583281152,base_link,0,1,33.6372171,72.9912769,540.6166947524117,1.089936,0.0,0.0,0.0,1.089936,0.0,0.0,0.0,2.0448999999999997,2
1737286262.683478,20865,1737286262,682279360,base_link,0,1,33.6372173,72.991277,540.6166963757252,1.089936,0.0,0.0,0.0,1.089936,0.0,0.0,0.0,2.0448999999999997,2
1737286262.7835426,20866,1737286262,782275776,base_link,0,1,33.6372175,72.9912771,540.6166979990392,1.0920249999999998,0.0,0.0,0.0,1.0920249999999998,0.0,0.0,0.0,2.050624,2
1737286262.8860197,20867,1737286262,884271680,base_link,0,1,33.6372176,72.9912772,540.6066990093083,1.0920249999999998,0.0,0.0,0.0,1.0920249999999998,0.0,0.0,0.0,2.050624,2
1737286262.9870756,20868,1737286262,983266816,base_link,0,1,33.6372177,72.9912773,540.6067000195777,1.094116,0.0,0.0,0.0,1.094116,0.0,0.0,0.0,2.0534890000000003,2
1737286263.0839975,20869,1737286263,82261184,base_link,0,1,33.6372178,72.9912775,540.6167014270712,1.094116,0.0,0.0,0.0,1.094116,0.0,0.0,0.0,2.0534890000000003,2
1737286263.1850805,20870,1737286263,182257344,base_link,0,1,33.6372179,72.9912776,540.6167024373411,1.094116,0.0,0.0,0.0,1.094116,0.0,0.0,0.0,2.0534890000000003,2
1737286263.2858868,20871,1737286263,283249664,base_link,0,1,33.6372179,72.9912777,540.6267028345652,1.0983040000000002,0.0,0.0,0.0,1.0983040000000002,0.0,0.0,0.0,2.0563559999999996,2
1737286263.3862817,20872,1737286263,383246080,base_link,0,1,33.6372178,72.9912777,540.6267022215194,1.100401,0.0,0.0,0.0,1.100401,0.0,0.0,0.0,2.059225,2
1737286263.4852686,20873,1737286263,482241472,base_link,0,1,33.6372177,72.9912777,540.6267016084737,1.100401,0.0,0.0,0.0,1.100401,0.0,0.0,0.0,2.059225,2
1737286263.586295,20874,1737286263,584241728,base_link,0,1,33.6372176,72.9912779,540.6167017898763,1.100401,0.0,0.0,0.0,1.100401,0.0,0.0,0.0,2.059225,2
1737286263.686359,20875,1737286263,683242752,base_link,0,1,33.6372174,72.9912781,540.6267013582332,1.1025,0.0,0.0,0.0,1.1025,0.0,0.0,0.0,2.059225,2
1737286263.7862163,20876,1737286263,783239168,base_link,0,1,33.637217,72.9912783,540.6366997004994,1.1025,0.0,0.0,0.0,1.1025,0.0,0.0,0.0,2.059225,2
1737286263.8840854,20877,1737286263,882236608,base_link,0,1,33.6372168,72.9912786,540.6566996660805,1.1025,0.0,0.0,0.0,1.1025,0.0,0.0,0.0,2.062096,2
1737286263.9871745,20878,1737286263,984234048,base_link,0,1,33.6372163,72.9912789,540.6866977925265,1.104601,0.0,0.0,0.0,1.104601,0.0,0.0,0.0,2.064969,2
1737286264.0911257,20879,1737286264,89226368,base_link,0,1,33.6372161,72.9912792,540.736697758108,1.104601,0.0,0.0,0.0,1.104601,0.0,0.0,0.0,2.064969,2
1737286264.1856422,20880,1737286264,182223296,base_link,0,1,33.6372159,72.9912795,540.7766977236894,1.104601,0.0,0.0,0.0,1.104601,0.0,0.0,0.0,2.064969,2
1737286264.2843578,20881,1737286264,282220736,base_link,0,1,33.6372157,72.9912799,540.8266980864944,1.104601,0.0,0.0,0.0,1.104601,0.0,0.0,0.0,2.064969,2
1737286264.3864458,20882,1737286264,384214336,base_link,0,1,33.6372152,72.9912802,540.8666962129421,1.104601,0.0,0.0,0.0,1.104601,0.0,0.0,0.0,2.064969,2
1737286264.4856167,20883,1737286264,483208192,base_link,0,1,33.637215,72.9912805,540.9066961785237,1.104601,0.0,0.0,0.0,1.104601,0.0,0.0,0.0,2.064969,2
1737286264.585619,20884,1737286264,582202560,base_link,0,1,33.6372145,72.9912808,540.9466943049725,1.104601,0.0,0.0,0.0,1.104601,0.0,0.0,0.0,2.064969,2
1737286264.686762,20885,1737286264,684199744,base_link,0,1,33.6372141,72.991281,540.9866926472433,1.104601,0.0,0.0,0.0,1.104601,0.0,0.0,0.0,2.064969,2
1737286264.790633,20886,1737286264,783191296,base_link,0,1,33.6372137,72.9912813,541.0366913867377,1.104601,0.0,0.0,0.0,1.104601,0.0,0.0,0.0,2.064969,2
1737286264.8842905,20887,1737286264,882188224,base_link,0,1,33.6372134,72.9912815,541.0866903420533,1.1067040000000001,0.0,0.0,0.0,1.1067040000000001,0.0,0.0,0.0,2.064969,2
1737286264.9842725,20888,1737286264,982185664,base_link,0,1,33.6372128,72.9912816,541.1366870610169,1.1067040000000001,0.0,0.0,0.0,1.1067040000000001,0.0,0.0,0.0,2.062096,2
1737286265.091666,20889,1737286265,89177472,base_link,0,1,33.6372126,72.9912815,541.1966854377083,1.1067040000000001,0.0,0.0,0.0,1.1067040000000001,0.0,0.0,0.0,2.062096,2
1737286265.1856544,20890,1737286265,183172864,base_link,0,1,33.6372124,72.9912814,541.2466838144005,1.1067040000000001,0.0,0.0,0.0,1.1067040000000001,0.0,0.0,0.0,2.062096,2
1737286265.2864492,20891,1737286265,284168000,base_link,0,1,33.6372123,72.9912812,541.2866824069129,1.1067040000000001,0.0,0.0,0.0,1.1067040000000001,0.0,0.0,0.0,2.062096,2
1737286265.3854795,20892,1737286265,383161088,base_link,0,1,33.6372121,72.9912812,541.3266811808282,1.108809,0.0,0.0,0.0,1.108809,0.0,0.0,0.0,2.064969,2
1737286265.4846184,20893,1737286265,482156480,base_link,0,1,33.6372121,72.9912811,541.3666807836058,1.108809,0.0,0.0,0.0,1.108809,0.0,0.0,0.0,2.064969,2
1737286265.586359,20894,1737286265,584154432,base_link,0,1,33.637212,72.9912809,541.416679376119,1.110916,0.0,0.0,0.0,1.110916,0.0,0.0,0.0,2.067844,2
1737286265.6916475,20895,1737286265,689147264,base_link,0,1,33.6372121,72.9912805,541.4566784002716,1.110916,0.0,0.0,0.0,1.110916,0.0,0.0,0.0,2.067844,2
1737286265.7856557,20896,1737286265,783142400,base_link,0,1,33.637212,72.9912802,541.4966765955633,1.110916,0.0,0.0,0.0,1.110916,0.0,0.0,0.0,2.064969,2
1737286265.8889782,20897,1737286265,887137536,base_link,0,1,33.637212,72.9912796,541.5466742122305,1.110916,0.0,0.0,0.0,1.110916,0.0,0.0,0.0,2.064969,2
1737286265.984851,20898,1737286265,982132672,base_link,0,1,33.6372121,72.991279,541.57667244194,1.110916,0.0,0.0,0.0,1.110916,0.0,0.0,0.0,2.064969,2
1737286266.085483,20899,1737286266,83127040,base_link,0,1,33.6372122,72.991278,541.6266690827626,1.110916,0.0,0.0,0.0,1.110916,0.0,0.0,0.0,2.064969,2
1737286266.1847074,20900,1737286266,182127296,base_link,0,1,33.6372123,72.9912772,541.66666651803,1.113025,0.0,0.0,0.0,1.113025,0.0,0.0,0.0,2.064969,2
1737286266.2863414,20901,1737286266,284127296,base_link,0,1,33.6372124,72.9912761,541.716662761634,1.113025,0.0,0.0,0.0,1.113025,0.0,0.0,0.0,2.064969,2
1737286266.3856494,20902,1737286266,383127296,base_link,0,1,33.6372125,72.991275,541.7566590052398,1.113025,0.0,0.0,0.0,1.113025,0.0,0.0,0.0,2.067844,2
1737286266.4874146,20903,1737286266,485127296,base_link,0,1,33.6372127,72.9912739,541.8066558618871,1.113025,0.0,0.0,0.0,1.113025,0.0,0.0,0.0,2.067844,2
1737286266.5843945,20904,1737286266,582115776,base_link,0,1,33.6372128,72.991273,541.8666528999382,1.1151360000000001,0.0,0.0,0.0,1.1151360000000001,0.0,0.0,0.0,2.064969,2
1737286266.6885746,20905,1737286266,687110912,base_link,0,1,33.6372129,72.9912718,541.9266487463285,1.1151360000000001,0.0,0.0,0.0,1.1151360000000001,0.0,0.0,0.0,2.064969,2
1737286266.785397,20906,1737286266,783108352,base_link,0,1,33.637213,72.9912708,541.986645387162,1.113025,0.0,0.0,0.0,1.113025,0.0,0.0,0.0,2.064969,2
1737286266.887339,20907,1737286266,885101440,base_link,0,1,33.6372132,72.9912695,542.0566414493743,1.113025,0.0,0.0,0.0,1.113025,0.0,0.0,0.0,2.064969,2
1737286266.9857302,20908,1737286266,984098112,base_link,0,1,33.6372132,72.9912685,542.1266374771735,1.113025,0.0,0.0,0.0,1.113025,0.0,0.0,0.0,2.064969,2
1737286267.0850935,20909,1737286267,83092480,base_link,0,1,33.6372133,72.9912673,542.1966333235725,1.113025,0.0,0.0,0.0,1.113025,0.0,0.0,0.0,2.064969,2
1737286267.1843078,20910,1737286267,182085312,base_link,0,1,33.6372133,72.9912664,542.2566297485959,1.113025,0.0,0.0,0.0,1.113025,0.0,0.0,0.0,2.067844,2
1737286267.2862172,20911,1737286267,284079680,base_link,0,1,33.6372133,72.9912652,542.3066249819631,1.113025,0.0,0.0,0.0,1.113025,0.0,0.0,0.0,2.067844,2
1737286267.3850164,20912,1737286267,383074304,base_link,0,1,33.6372133,72.9912642,542.3566210097717,1.1151360000000001,0.0,0.0,0.0,1.1151360000000001,0.0,0.0,0.0,2.067844,2
1737286267.4931788,20913,1737286267,491071744,base_link,0,1,33.6372133,72.991263,542.4066162431451,1.1151360000000001,0.0,0.0,0.0,1.1151360000000001,0.0,0.0,0.0,2.067844,2
1737286267.5922875,20914,1737286267,590066112,base_link,0,1,33.6372132,72.9912619,542.4466112607055,1.1151360000000001,0.0,0.0,0.0,1.1151360000000001,0.0,0.0,0.0,2.067844,2
1737286267.6919937,20915,1737286267,689061760,base_link,0,1,33.6372132,72.9912608,542.4866068913041,1.1151360000000001,0.0,0.0,0.0,1.1151360000000001,0.0,0.0,0.0,2.067844,2
1737286267.784509,20916,1737286267,783055872,base_link,0,1,33.6372131,72.9912599,542.5366027033074,1.1151360000000001,0.0,0.0,0.0,1.1151360000000001,0.0,0.0,0.0,2.064969,2
1737286267.8864486,20917,1737286267,885050752,base_link,0,1,33.6372131,72.9912589,542.5865987311291,1.1151360000000001,0.0,0.0,0.0,1.1151360000000001,0.0,0.0,0.0,2.064969,2
1737286267.9852552,20918,1737286267,984046912,base_link,0,1,33.6372128,72.9912579,542.6365929198548,1.1151360000000001,0.0,0.0,0.0,1.1151360000000001,0.0,0.0,0.0,2.062096,2
1737286268.0842679,20919,1737286268,83044352,base_link,0,1,33.6372128,72.9912569,542.6965889476825,1.1151360000000001,0.0,0.0,0.0,1.1151360000000001,0.0,0.0,0.0,2.062096,2
1737286268.184322,20920,1737286268,183040256,base_link,0,1,33.6372125,72.991256,542.7465835336343,1.1151360000000001,0.0,0.0,0.0,1.1151360000000001,0.0,0.0,0.0,2.062096,2
1737286268.286323,20921,1737286268,284037440,base_link,0,1,33.6372123,72.9912552,542.7865791298386,1.1151360000000001,0.0,0.0,0.0,1.1151360000000001,0.0,0.0,0.0,2.062096,2
1737286268.385457,20922,1737286268,384034112,base_link,0,1,33.637212,72.9912543,542.8365737157993,1.113025,0.0,0.0,0.0,1.113025,0.0,0.0,0.0,2.062096,2
1737286268.4844341,20923,1737286268,483027968,base_link,0,1,33.6372118,72.9912535,542.876569312011,1.113025,0.0,0.0,0.0,1.113025,0.0,0.0,0.0,2.062096,2
1737286268.584316,20924,1737286268,583027968,base_link,0,1,33.6372115,72.9912527,542.9265642951964,1.113025,0.0,0.0,0.0,1.113025,0.0,0.0,0.0,2.062096,2
1737286268.6833348,20925,1737286268,682023872,base_link,0,1,33.6372112,72.9912519,542.9765592783863,1.1151360000000001,0.0,0.0,0.0,1.1151360000000001,0.0,0.0,0.0,2.062096,2
1737286268.7855914,20926,1737286268,783017216,base_link,0,1,33.6372109,72.9912512,543.0165546587954,1.1151360000000001,0.0,0.0,0.0,1.1151360000000001,0.0,0.0,0.0,2.062096,2
1737286268.8846476,20927,1737286268,882011840,base_link,0,1,33.6372107,72.9912505,543.0565506522358,1.1151360000000001,0.0,0.0,0.0,1.1151360000000001,0.0,0.0,0.0,2.062096,2
1737286268.9834037,20928,1737286268,982010048,base_link,0,1,33.6372103,72.9912497,543.0865450224105,1.1151360000000001,0.0,0.0,0.0,1.1151360000000001,0.0,0.0,0.0,2.062096,2
1737286269.0875878,20929,1737286269,86006464,base_link,0,1,33.6372102,72.991249,543.1165416288842,1.1151360000000001,0.0,0.0,0.0,1.1151360000000001,0.0,0.0,0.0,2.062096,2
1737286269.1849122,20930,1737286269,183002112,base_link,0,1,33.6372101,72.9912484,543.1465386325734,1.1151360000000001,0.0,0.0,0.0,1.1151360000000001,0.0,0.0,0.0,2.062096,2
1737286269.2855234,20931,1737286269,283997504,base_link,0,1,33.63721,72.9912477,543.1765352390505,1.1151360000000001,0.0,0.0,0.0,1.1151360000000001,0.0,0.0,0.0,2.062096,2
1737286269.3843791,20932,1737286269,382990592,base_link,0,1,33.6372099,72.9912472,543.2165326399565,1.117249,0.0,0.0,0.0,1.117249,0.0,0.0,0.0,2.062096,2
1737286269.4843757,20933,1737286269,481984704,base_link,0,1,33.6372099,72.9912466,543.2565302566753,1.117249,0.0,0.0,0.0,1.117249,0.0,0.0,0.0,2.062096,2
1737286269.5859926,20934,1737286269,583981120,base_link,0,1,33.6372097,72.9912462,543.2965274417718,1.117249,0.0,0.0,0.0,1.117249,0.0,0.0,0.0,2.062096,2
1737286269.6845067,20935,1737286269,682975232,base_link,0,1,33.6372095,72.9912457,543.3465242296567,1.117249,0.0,0.0,0.0,1.117249,0.0,0.0,0.0,2.062096,2
1737286269.78698,20936,1737286269,783970880,base_link,0,1,33.6372093,72.9912454,543.406521811969,1.117249,0.0,0.0,0.0,1.117249,0.0,0.0,0.0,2.062096,2
1737286269.8859942,20937,1737286269,882967296,base_link,0,1,33.6372092,72.9912451,543.4565200073064,1.119364,0.0,0.0,0.0,1.119364,0.0,0.0,0.0,2.067844,2
1737286269.984698,20938,1737286269,982962176,base_link,0,1,33.6372091,72.991245,543.5165189970699,1.121481,0.0,0.0,0.0,1.121481,0.0,0.0,0.0,2.0707210000000003,2
1737286270.0856247,20939,1737286270,83960640,base_link,0,1,33.6372091,72.9912449,543.566518599857,1.121481,0.0,0.0,0.0,1.121481,0.0,0.0,0.0,2.0707210000000003,2
1737286270.1845808,20940,1737286270,182957568,base_link,0,1,33.6372091,72.9912448,543.6165182026443,1.1236000000000002,0.0,0.0,0.0,1.1236000000000002,0.0,0.0,0.0,2.0736,2
1737286270.2850037,20941,1737286270,281952448,base_link,0,1,33.6372091,72.9912446,543.656517408219,1.1236000000000002,0.0,0.0,0.0,1.1236000000000002,0.0,0.0,0.0,2.0736,2
1737286270.3835607,20942,1737286270,381949888,base_link,0,1,33.637209,72.9912444,543.7065160007702,1.125721,0.0,0.0,0.0,1.125721,0.0,0.0,0.0,2.0764810000000002,2
1737286270.485652,20943,1737286270,482945024,base_link,0,1,33.6372089,72.9912442,543.746514593322,1.125721,0.0,0.0,0.0,1.125721,0.0,0.0,0.0,2.0764810000000002,2
1737286270.5844975,20944,1737286270,582941184,base_link,0,1,33.6372089,72.9912439,543.7665134016846,1.125721,0.0,0.0,0.0,1.125721,0.0,0.0,0.0,2.0764810000000002,2
1737286270.6838298,20945,1737286270,681936064,base_link,0,1,33.637209,72.9912437,543.7965132202829,1.125721,0.0,0.0,0.0,1.125721,0.0,0.0,0.0,2.0764810000000002,2
1737286270.7858999,20946,1737286270,783931968,base_link,0,1,33.637209,72.9912434,543.8365120286459,1.125721,0.0,0.0,0.0,1.125721,0.0,0.0,0.0,2.0764810000000002,2
1737286270.884407,20947,1737286270,881927104,base_link,0,1,33.637209,72.9912433,543.8665116314336,1.125721,0.0,0.0,0.0,1.125721,0.0,0.0,0.0,2.0764810000000002,2
1737286270.9844158,20948,1737286270,981920192,base_link,0,1,33.6372089,72.9912431,543.8965102239862,1.125721,0.0,0.0,0.0,1.125721,0.0,0.0,0.0,2.0764810000000002,2
1737286271.0844696,20949,1737286271,82912000,base_link,0,1,33.6372088,72.9912431,543.9365096109634,1.125721,0.0,0.0,0.0,1.125721,0.0,0.0,0.0,2.0736,2
1737286271.1856055,20950,1737286271,182905088,base_link,0,1,33.6372087,72.9912431,543.9765089979409,1.125721,0.0,0.0,0.0,1.125721,0.0,0.0,0.0,2.0764810000000002,2
1737286271.2881935,20951,1737286271,285906368,base_link,0,1,33.6372084,72.9912433,544.0165079532974,1.125721,0.0,0.0,0.0,1.125721,0.0,0.0,0.0,2.0764810000000002,2
1737286271.385707,20952,1737286271,383900736,base_link,0,1,33.6372082,72.9912434,544.0665071244647,1.127844,0.0,0.0,0.0,1.127844,0.0,0.0,0.0,2.0764810000000002,2
1737286271.4848812,20953,1737286271,482894592,base_link,0,1,33.6372079,72.9912435,544.1165056826101,1.127844,0.0,0.0,0.0,1.127844,0.0,0.0,0.0,2.0764810000000002,2
1737286271.584863,20954,1737286271,582889984,base_link,0,1,33.6372075,72.9912436,544.1665036277342,1.1299689999999998,0.0,0.0,0.0,1.1299689999999998,0.0,0.0,0.0,2.079364,2
1737286271.6838696,20955,1737286271,681883072,base_link,0,1,33.6372071,72.9912438,544.206501970071,1.1299689999999998,0.0,0.0,0.0,1.1299689999999998,0.0,0.0,0.0,2.079364,2
1737286271.7851472,20956,1737286271,783878464,base_link,0,1,33.6372067,72.9912439,544.2664999151972,1.1299689999999998,0.0,0.0,0.0,1.1299689999999998,0.0,0.0,0.0,2.079364,2
1737286271.8853366,20957,1737286271,882875392,base_link,0,1,33.6372064,72.9912441,544.3164988705568,1.1299689999999998,0.0,0.0,0.0,1.1299689999999998,0.0,0.0,0.0,2.079364,2
1737286271.9849956,20958,1737286271,982872576,base_link,0,1,33.637206,72.9912443,544.366497212896,1.1320960000000002,0.0,0.0,0.0,1.1320960000000002,0.0,0.0,0.0,2.082249,2
1737286272.0888371,20959,1737286272,86868736,base_link,0,1,33.6372056,72.9912447,544.4164963496581,1.1320960000000002,0.0,0.0,0.0,1.1320960000000002,0.0,0.0,0.0,2.082249,2
1737286272.1849048,20960,1737286272,182864896,base_link,0,1,33.6372053,72.991245,544.4764957022302,1.1320960000000002,0.0,0.0,0.0,1.1320960000000002,0.0,0.0,0.0,2.085136,2
1737286272.2839015,20961,1737286272,281859008,base_link,0,1,33.6372049,72.9912454,544.516494838993,1.1320960000000002,0.0,0.0,0.0,1.1320960000000002,0.0,0.0,0.0,2.085136,2
1737286272.3847911,20962,1737286272,383857472,base_link,0,1,33.6372044,72.9912458,544.5664933627363,1.1342249999999998,0.0,0.0,0.0,1.1342249999999998,0.0,0.0,0.0,2.085136,2
1737286272.4838505,20963,1737286272,482854400,base_link,0,1,33.6372039,72.9912464,544.6064926809021,1.1342249999999998,0.0,0.0,0.0,1.1342249999999998,0.0,0.0,0.0,2.085136,2
1737286272.583884,20964,1737286272,581850048,base_link,0,1,33.6372033,72.9912468,544.6464905916274,1.1342249999999998,0.0,0.0,0.0,1.1342249999999998,0.0,0.0,0.0,2.088025,2
1737286272.6883626,20965,1737286272,686846976,base_link,0,1,33.6372027,72.9912472,544.6864885023542,1.1342249999999998,0.0,0.0,0.0,1.1342249999999998,0.0,0.0,0.0,2.088025,2
1737286272.7889864,20966,1737286272,787841088,base_link,0,1,33.6372022,72.9912477,544.7364874233117,1.1342249999999998,0.0,0.0,0.0,1.1342249999999998,0.0,0.0,0.0,2.088025,2
1737286272.8910377,20967,1737286272,888834688,base_link,0,1,33.6372017,72.9912482,544.7764863442698,1.1342249999999998,0.0,0.0,0.0,1.1342249999999998,0.0,0.0,0.0,2.088025,2
1737286272.9882736,20968,1737286272,985829824,base_link,0,1,33.6372012,72.9912486,544.8064848680183,1.1342249999999998,0.0,0.0,0.0,1.1342249999999998,0.0,0.0,0.0,2.088025,2
1737286273.085988,20969,1737286273,83822656,base_link,0,1,33.6372007,72.9912491,544.8464837889777,1.1342249999999998,0.0,0.0,0.0,1.1342249999999998,0.0,0.0,0.0,2.088025,2
1737286273.1872473,20970,1737286273,185819072,base_link,0,1,33.6372002,72.9912495,544.8864823127278,1.1342249999999998,0.0,0.0,0.0,1.1342249999999998,0.0,0.0,0.0,2.088025,2
1737286273.2839882,20971,1737286273,281814976,base_link,0,1,33.6371997,72.9912499,544.9264808364787,1.1342249999999998,0.0,0.0,0.0,1.1342249999999998,0.0,0.0,0.0,2.088025,2
1737286273.3853936,20972,1737286273,383811904,base_link,0,1,33.6371992,72.9912502,544.9464789630209,1.1363560000000001,0.0,0.0,0.0,1.1363560000000001,0.0,0.0,0.0,2.088025,2
1737286273.4842346,20973,1737286273,482808832,base_link,0,1,33.6371987,72.9912507,544.9564778839832,1.1363560000000001,0.0,0.0,0.0,1.1363560000000001,0.0,0.0,0.0,2.088025,2
1737286273.5843751,20974,1737286273,582802176,base_link,0,1,33.6371983,72.991251,544.9664766235443,1.1363560000000001,0.0,0.0,0.0,1.1363560000000001,0.0,0.0,0.0,2.090916,2
1737286273.683375,20975,1737286273,681799616,base_link,0,1,33.6371979,72.9912514,544.976475760315,1.1363560000000001,0.0,0.0,0.0,1.1363560000000001,0.0,0.0,0.0,2.090916,2
1737286273.7862656,20976,1737286273,783797312,base_link,0,1,33.6371976,72.9912518,544.9764755101028,1.1363560000000001,0.0,0.0,0.0,1.1363560000000001,0.0,0.0,0.0,2.0938090000000003,2
1737286273.8857942,20977,1737286273,882792960,base_link,0,1,33.6371973,72.9912521,544.9864748626812,1.1363560000000001,0.0,0.0,0.0,1.1363560000000001,0.0,0.0,0.0,2.0938090000000003,2
1737286273.9854016,20978,1737286273,983786816,base_link,0,1,33.6371971,72.9912524,544.9864748282763,1.1384889999999999,0.0,0.0,0.0,1.1384889999999999,0.0,0.0,0.0,2.096704,2
1737286274.0842836,20979,1737286274,82787840,base_link,0,1,33.6371969,72.9912527,544.9764747938714,1.1384889999999999,0.0,0.0,0.0,1.1384889999999999,0.0,0.0,0.0,2.096704,2
1737286274.1832917,20980,1737286274,181782720,base_link,0,1,33.6371968,72.9912529,544.9764749752736,1.1384889999999999,0.0,0.0,0.0,1.1384889999999999,0.0,0.0,0.0,2.096704,2
1737286274.2853498,20981,1737286274,282779648,base_link,0,1,33.6371966,72.9912532,544.9764749408688,1.140624,0.0,0.0,0.0,1.140624,0.0,0.0,0.0,2.0996010000000003,2
1737286274.3845565,20982,1737286274,382774784,base_link,0,1,33.6371965,72.9912535,544.9864755194802,1.142761,0.0,0.0,0.0,1.142761,0.0,0.0,0.0,2.105401,2
1737286274.4885957,20983,1737286274,486769664,base_link,0,1,33.6371963,72.9912538,544.9964754850754,1.142761,0.0,0.0,0.0,1.142761,0.0,0.0,0.0,2.105401,2
1737286274.5853739,20984,1737286274,583763776,base_link,0,1,33.6371962,72.991254,545.0064756664775,1.1449,0.0,0.0,0.0,1.1449,0.0,0.0,0.0,2.105401,2
1737286274.684816,20985,1737286274,682760960,base_link,0,1,33.6371961,72.9912543,545.0064762450891,1.1449,0.0,0.0,0.0,1.1449,0.0,0.0,0.0,2.105401,2
1737286274.7839108,20986,1737286274,781755584,base_link,0,1,33.6371961,72.9912545,545.0064770395076,1.142761,0.0,0.0,0.0,1.142761,0.0,0.0,0.0,2.105401,2
1737286274.8874214,20987,1737286274,885748672,base_link,0,1,33.637196,72.9912548,544.9964776181191,1.142761,0.0,0.0,0.0,1.142761,0.0,0.0,0.0,2.105401,2
1737286274.9838665,20988,1737286274,981742784,base_link,0,1,33.637196,72.9912549,544.9964780153285,1.142761,0.0,0.0,0.0,1.142761,0.0,0.0,0.0,2.105401,2
1737286275.085674,20989,1737286275,83740224,base_link,0,1,33.6371959,72.9912551,544.9764781967308,1.142761,0.0,0.0,0.0,1.142761,0.0,0.0,0.0,2.105401,2
1737286275.1854055,20990,1737286275,182735104,base_link,0,1,33.6371959,72.9912553,544.9664789911495,1.142761,0.0,0.0,0.0,1.142761,0.0,0.0,0.0,2.105401,2
1737286275.28425,20991,1737286275,281732800,base_link,0,1,33.6371959,72.9912554,544.9464793883589,1.142761,0.0,0.0,0.0,1.142761,0.0,0.0,0.0,2.105401,2
1737286275.3837576,20992,1737286275,381730240,base_link,0,1,33.6371959,72.9912556,544.9164801827777,1.142761,0.0,0.0,0.0,1.142761,0.0,0.0,0.0,2.105401,2
1737286275.4925292,20993,1737286275,488724864,base_link,0,1,33.6371958,72.9912557,544.8764799669706,1.142761,0.0,0.0,0.0,1.142761,0.0,0.0,0.0,2.105401,2
1737286275.5845888,20994,1737286275,582718976,base_link,0,1,33.6371958,72.9912557,544.8464799669706,1.147041,0.0,0.0,0.0,1.147041,0.0,0.0,0.0,2.108304,2
1737286275.6834044,20995,1737286275,681714112,base_link,0,1,33.6371958,72.9912558,544.7964803641801,1.147041,0.0,0.0,0.0,1.147041,0.0,0.0,0.0,2.108304,2
1737286275.7842832,20996,1737286275,781710272,base_link,0,1,33.6371959,72.9912559,544.7464813744062,1.1491840000000002,0.0,0.0,0.0,1.1491840000000002,0.0,0.0,0.0,2.111209,2
1737286275.8846872,20997,1737286275,882704128,base_link,0,1,33.6371959,72.991256,544.6864817716157,1.1491840000000002,0.0,0.0,0.0,1.1491840000000002,0.0,0.0,0.0,2.111209,2
1737286275.9836836,20998,1737286275,981699264,base_link,0,1,33.6371959,72.991256,544.6364817716158,1.1513289999999998,0.0,0.0,0.0,1.1513289999999998,0.0,0.0,0.0,2.1170250000000004,2
1737286276.0847285,20999,1737286276,82690048,base_link,0,1,33.6371958,72.991256,544.566481158599,1.1513289999999998,0.0,0.0,0.0,1.1513289999999998,0.0,0.0,0.0,2.1170250000000004,2
1737286276.1846085,21000,1737286276,182685696,base_link,0,1,33.6371957,72.991256,544.5064805455823,1.1534760000000002,0.0,0.0,0.0,1.1534760000000002,0.0,0.0,0.0,2.119936,2
1737286276.2905078,21001,1737286276,288682112,base_link,0,1,33.6371957,72.991256,544.4264805455823,1.1534760000000002,0.0,0.0,0.0,1.1534760000000002,0.0,0.0,0.0,2.119936,2
1737286276.385764,21002,1737286276,383676224,base_link,0,1,33.6371956,72.9912561,544.3564803297752,1.155625,0.0,0.0,0.0,1.155625,0.0,0.0,0.0,2.119936,2
1737286276.4845288,21003,1737286276,482671360,base_link,0,1,33.6371955,72.9912562,544.276480113968,1.155625,0.0,0.0,0.0,1.155625,0.0,0.0,0.0,2.119936,2
1737286276.583656,21004,1737286276,581669824,base_link,0,1,33.6371954,72.9912561,544.1964791037421,1.155625,0.0,0.0,0.0,1.155625,0.0,0.0,0.0,2.119936,2
